{
  "클러스터_위도": 37.50283199999999,
  "클러스터_경도": 127.032026,
  "클러스터_level": 4.0,
  "facilities": {
    "bus": [
      {
        "bus_lat": 37.50042852,
        "bus_lon": 127.0347357,
        "bus_type": "버스정류장",
        "bus_name": "역삼역4번출구",
        "distance": 358.55730280621475,
        "walking_time": "약 6분"
      },
      {
        "bus_lat": 37.50037703,
        "bus_lon": 127.0348445,
        "bus_type": "버스정류장",
        "bus_name": "역삼역",
        "distance": 369.2384167060441,
        "walking_time": "약 6분"
      },
      {
        "bus_lat": 37.50553234,
        "bus_lon": 127.0344861,
        "bus_type": "버스정류장",
        "bus_name": "차병원",
        "distance": 370.4752934631172,
        "walking_time": "약 6분"
      },
      {
        "bus_lat": 37.50623704,
        "bus_lon": 127.0310908,
        "bus_type": "버스정류장",
        "bus_name": "삼정호텔",
        "distance": 387.5061272949465,
        "walking_time": "약 6분"
      },
      {
        "bus_lat": 37.50624203,
        "bus_lon": 127.0311108,
        "bus_type": "버스정류장",
        "bus_name": "삼정호텔앞",
        "distance": 387.6770622779532,
        "walking_time": "약 6분"
      },
      {
        "bus_lat": 37.49948955,
        "bus_lon": 127.0335959,
        "bus_type": "버스정류장",
        "bus_name": "역삼역.포스코타워역삼",
        "distance": 396.6271390752387,
        "walking_time": "약 6분"
      },
      {
        "bus_lat": 37.50634066,
        "bus_lon": 127.0311436,
        "bus_type": "버스정류장",
        "bus_name": "언주역삼정&베스트웨스턴강남",
        "distance": 397.8341243963349,
        "walking_time": "약 6분"
      },
      {
        "bus_lat": 37.50154076,
        "bus_lon": 127.0363873,
        "bus_type": "버스정류장",
        "bus_name": "역삼역6번출구",
        "distance": 410.6475301449753,
        "walking_time": "약 7분"
      },
      {
        "bus_lat": 37.50551134,
        "bus_lon": 127.0287672,
        "bus_type": "버스정류장",
        "bus_name": "노보텔앰배서더호텔",
        "distance": 414.0022463312891,
        "walking_time": "약 7분"
      },
      {
        "bus_lat": 37.50678565,
        "bus_lon": 127.0316905,
        "bus_type": "버스정류장",
        "bus_name": "삼정호텔",
        "distance": 440.6208329455257,
        "walking_time": "약 7분"
      }
    ],
    "community_center": [
      {
        "community_center_lat": 37.49537321,
        "community_center_lon": 127.0332838,
        "community_center_type": "주민센터",
        "community_center_name": "역삼1동 주민자치센터",
        "distance": 836.7692433871382,
        "walking_time": "약 13분"
      },
      {
        "community_center_lat": 37.50271558,
        "community_center_lon": 127.02221,
        "community_center_type": "주민센터",
        "community_center_name": "서초4동 자치회관",
        "distance": 866.0013535170697,
        "walking_time": "약 13분"
      },
      {
        "community_center_lat": 37.5115038,
        "community_center_lon": 127.0285345,
        "community_center_type": "주민센터",
        "community_center_name": "논현1동 주민자치센터",
        "distance": 1012.24953004052,
        "walking_time": "약 16분"
      },
      {
        "community_center_lat": 37.49206947,
        "community_center_lon": 127.0249478,
        "community_center_type": "주민센터",
        "community_center_name": "서초2동 자치회관",
        "distance": 1349.854190948804,
        "walking_time": "약 21분"
      },
      {
        "community_center_lat": 37.49597383,
        "community_center_lon": 127.046815,
        "community_center_type": "주민센터",
        "community_center_name": "역삼2동 주민자치센터",
        "distance": 1511.1783219256008,
        "walking_time": "약 23분"
      },
      {
        "community_center_lat": 37.51120727,
        "community_center_lon": 127.0459769,
        "community_center_type": "주민센터",
        "community_center_name": "삼성2동 주민자치센터",
        "distance": 1543.258139548491,
        "walking_time": "약 24분"
      },
      {
        "community_center_lat": 37.51728313,
        "community_center_lon": 127.0372042,
        "community_center_type": "주민센터",
        "community_center_name": "논현2동 주민자치센터",
        "distance": 1670.543982166356,
        "walking_time": "약 25분"
      }
    ],
    "convenience_store": [
      {
        "convenience_store_lat": 37.5018914,
        "convenience_store_lon": 127.0328123,
        "convenience_store_type": "편의점",
        "convenience_store_name": "CU 역삼달샘점",
        "distance": 125.4999811764015,
        "walking_time": "약 2분"
      },
      {
        "convenience_store_lat": 37.50074833,
        "convenience_store_lon": 127.0323417,
        "convenience_store_type": "편의점",
        "convenience_store_name": "GS25 역삼덕원점",
        "distance": 233.36126940208132,
        "walking_time": "약 4분"
      },
      {
        "convenience_store_lat": 37.50309603,
        "convenience_store_lon": 127.0347325,
        "convenience_store_type": "편의점",
        "convenience_store_name": "GS25 역삼기쁨점",
        "distance": 240.54781007152508,
        "walking_time": "약 4분"
      },
      {
        "convenience_store_lat": 37.50430869,
        "convenience_store_lon": 127.034158,
        "convenience_store_type": "편의점",
        "convenience_store_name": "CU 역삼하나점",
        "distance": 249.6635128471748,
        "walking_time": "약 4분"
      },
      {
        "convenience_store_lat": 37.50032065,
        "convenience_store_lon": 127.0325753,
        "convenience_store_type": "편의점",
        "convenience_store_name": "CU 역삼지혜점",
        "distance": 283.4223848772319,
        "walking_time": "약 5분"
      },
      {
        "convenience_store_lat": 37.50074995,
        "convenience_store_lon": 127.0342848,
        "convenience_store_type": "편의점",
        "convenience_store_name": "CU 역삼진미점",
        "distance": 305.4550584657821,
        "walking_time": "약 5분"
      },
      {
        "convenience_store_lat": 37.50111853,
        "convenience_store_lon": 127.0349489,
        "convenience_store_type": "편의점",
        "convenience_store_name": "GS25 역삼태양점",
        "distance": 320.59943060663016,
        "walking_time": "약 5분"
      },
      {
        "convenience_store_lat": 37.50543815,
        "convenience_store_lon": 127.033659,
        "convenience_store_type": "편의점",
        "convenience_store_name": "GS25 역삼소망점",
        "distance": 323.61871931809424,
        "walking_time": "약 5분"
      },
      {
        "convenience_store_lat": 37.50344246,
        "convenience_store_lon": 127.0283567,
        "convenience_store_type": "편의점",
        "convenience_store_name": "GS25 강남아트점",
        "distance": 330.7216333753683,
        "walking_time": "약 5분"
      },
      {
        "convenience_store_lat": 37.50186293,
        "convenience_store_lon": 127.035895,
        "convenience_store_type": "편의점",
        "convenience_store_name": "GS25 GS본점",
        "distance": 357.90668664186273,
        "walking_time": "약 6분"
      }
    ],
    "daycare": [
      {
        "daycare_lat": 37.50190382,
        "daycare_lon": 127.0317751,
        "daycare_type": "어린이집",
        "daycare_name": "한국타이어 동그라미 어린이집",
        "distance": 105.55540813348276,
        "walking_time": "약 2분"
      },
      {
        "daycare_lat": 37.50187767268194,
        "daycare_lon": 127.03193730838665,
        "daycare_type": "어린이집",
        "daycare_name": "현대모비스모아어린이집",
        "distance": 106.40438739891228,
        "walking_time": "약 2분"
      },
      {
        "daycare_lat": 37.50170637082524,
        "daycare_lon": 127.0323443673079,
        "daycare_type": "어린이집",
        "daycare_name": "하늘숲어린이집",
        "distance": 128.27638214044205,
        "walking_time": "약 2분"
      },
      {
        "daycare_lat": 37.50326118,
        "daycare_lon": 127.0336763870216,
        "daycare_type": "어린이집",
        "daycare_name": "미래나무어린이집",
        "distance": 153.20816772691344,
        "walking_time": "약 3분"
      },
      {
        "daycare_lat": 37.50331317105016,
        "daycare_lon": 127.03366402638468,
        "daycare_type": "어린이집",
        "daycare_name": "크래프톤 역삼 어린이집",
        "distance": 154.08320906779502,
        "walking_time": "약 3분"
      },
      {
        "daycare_lat": 37.504035932847664,
        "daycare_lon": 127.03406124162186,
        "daycare_type": "어린이집",
        "daycare_name": "베이트리 어린이집",
        "distance": 223.951108032579,
        "walking_time": "약 4분"
      },
      {
        "daycare_lat": 37.50336904,
        "daycare_lon": 127.0346128,
        "daycare_type": "어린이집",
        "daycare_name": "지예슬어린이집",
        "distance": 235.87422996785813,
        "walking_time": "약 4분"
      },
      {
        "daycare_lat": 37.50342806285197,
        "daycare_lon": 127.02939333606255,
        "daycare_type": "어린이집",
        "daycare_name": "다람패스트파이브공동직장어린이집",
        "distance": 241.5084145789272,
        "walking_time": "약 4분"
      },
      {
        "daycare_lat": 37.50391269055466,
        "daycare_lon": 127.0280052785572,
        "daycare_type": "어린이집",
        "daycare_name": "도토리소풍넥슨 강남어린이집",
        "distance": 374.4832136904152,
        "walking_time": "약 6분"
      },
      {
        "daycare_lat": 37.50377712659065,
        "daycare_lon": 127.03760419265345,
        "daycare_type": "어린이집",
        "daycare_name": "GS리테일 푸르니 어린이집",
        "distance": 503.16637200994415,
        "walking_time": "약 8분"
      }
    ],
    "education": [
      {
        "education_lat": 37.500936,
        "education_lon": 127.0296228,
        "education_type": "도서관",
        "education_name": "국립어린이청소년 도서관",
        "distance": 298.9821624590699,
        "walking_time": "약 5분"
      },
      {
        "education_lat": 37.49649918,
        "education_lon": 127.0320288,
        "education_type": "도서관",
        "education_name": "강남구립역삼푸른솔도서관",
        "distance": 704.1774986744184,
        "walking_time": "약 11분"
      },
      {
        "education_lat": 37.49537321,
        "education_lon": 127.0332838,
        "education_type": "공연장",
        "education_name": "강남씨어터",
        "distance": 836.7692433871382,
        "walking_time": "약 13분"
      },
      {
        "education_lat": 37.49537321,
        "education_lon": 127.0332838,
        "education_type": "도서관",
        "education_name": "강남구립역삼도서관",
        "distance": 836.7692433871382,
        "walking_time": "약 13분"
      },
      {
        "education_lat": 37.49701212,
        "education_lon": 127.0383947,
        "education_type": "미술관/갤러리",
        "education_name": "갤러리K 역삼센터",
        "distance": 856.9956856835099,
        "walking_time": "약 13분"
      },
      {
        "education_lat": 37.49743406,
        "education_lon": 127.0245168,
        "education_type": "미술관/갤러리",
        "education_name": "부띠크모나코뮤지엄",
        "distance": 893.9188800309252,
        "walking_time": "약 14분"
      },
      {
        "education_lat": 37.49561193,
        "education_lon": 127.027091,
        "education_type": "문화원",
        "education_name": "이스라엘문화원",
        "distance": 913.2787425087936,
        "walking_time": "약 14분"
      },
      {
        "education_lat": 37.50839127,
        "education_lon": 127.0397754,
        "education_type": "공연장",
        "education_name": "라움아트센터",
        "distance": 921.6299283235968,
        "walking_time": "약 14분"
      },
      {
        "education_lat": 37.49320866,
        "education_lon": 127.0356382,
        "education_type": "미술관/갤러리",
        "education_name": "ADM 갤러리",
        "distance": 1116.5080125497643,
        "walking_time": "약 17분"
      },
      {
        "education_lat": 37.49863107,
        "education_lon": 127.0440226,
        "education_type": "미술관/갤러리",
        "education_name": "신한갤러리",
        "distance": 1156.7995541978853,
        "walking_time": "약 18분"
      }
    ],
    "fitness": [
      {
        "fitness_lat": 37.50091564,
        "fitness_lon": 127.0336579,
        "fitness_type": "운동시설",
        "fitness_name": "그레이스 프라이빗 짐(427)",
        "distance": 257.1592862473348,
        "walking_time": "약 4분"
      },
      {
        "fitness_lat": 37.50242163,
        "fitness_lon": 127.0350443,
        "fitness_type": "운동시설",
        "fitness_name": "강남피티",
        "distance": 270.1374442165685,
        "walking_time": "약 5분"
      },
      {
        "fitness_lat": 37.50416544,
        "fitness_lon": 127.0347108,
        "fitness_type": "운동시설",
        "fitness_name": "피티인폼 운동센터",
        "distance": 279.4184026548872,
        "walking_time": "약 5분"
      },
      {
        "fitness_lat": 37.50545313,
        "fitness_lon": 127.0316111,
        "fitness_type": "운동시설",
        "fitness_name": "주식회사 위너즈",
        "distance": 293.745308455453,
        "walking_time": "약 5분"
      },
      {
        "fitness_lat": 37.5030732,
        "fitness_lon": 127.0354763,
        "fitness_type": "운동시설",
        "fitness_name": "(주)비지엠에이치",
        "distance": 305.5420223438037,
        "walking_time": "약 5분"
      },
      {
        "fitness_lat": 37.5030732,
        "fitness_lon": 127.0354763,
        "fitness_type": "운동시설",
        "fitness_name": "MADFIT.PRO(366)",
        "distance": 305.5420223438037,
        "walking_time": "약 5분"
      },
      {
        "fitness_lat": 37.49993264,
        "fitness_lon": 127.0323678,
        "fitness_type": "운동시설",
        "fitness_name": "버핏그라운드 역삼 별관, 팀버핏 역삼",
        "distance": 323.80103664296746,
        "walking_time": "약 5분"
      },
      {
        "fitness_lat": 37.5057578,
        "fitness_lon": 127.0331207,
        "fitness_type": "운동시설",
        "fitness_name": "GYM609",
        "distance": 339.362893043724,
        "walking_time": "약 6분"
      },
      {
        "fitness_lat": 37.50094884,
        "fitness_lon": 127.0350594,
        "fitness_type": "운동시설",
        "fitness_name": "엑스퍼티짐",
        "distance": 339.78229204387424,
        "walking_time": "약 6분"
      },
      {
        "fitness_lat": 37.50242346,
        "fitness_lon": 127.0358467,
        "fitness_type": "운동시설",
        "fitness_name": "드림팩토리짐",
        "distance": 340.0860093850127,
        "walking_time": "약 6분"
      }
    ],
    "gas_station": [
      {
        "gas_station_lat": 37.50273402,
        "gas_station_lon": 127.0364874,
        "gas_station_type": "주유소",
        "gas_station_name": "에너지플러스 허브 GS타워",
        "distance": 393.7068322775061,
        "walking_time": "약 6분"
      },
      {
        "gas_station_lat": 37.50373272,
        "gas_station_lon": 127.0231956,
        "gas_station_type": "주유소",
        "gas_station_name": "에너지플러스 허브 삼방",
        "distance": 785.3684044021319,
        "walking_time": "약 12분"
      },
      {
        "gas_station_lat": 37.5107347,
        "gas_station_lon": 127.0327347,
        "gas_station_type": "주유소",
        "gas_station_name": "유한책임회사 동하석유 (힐탑주유소)",
        "distance": 880.9609511291858,
        "walking_time": "약 14분"
      },
      {
        "gas_station_lat": 37.50328119,
        "gas_station_lon": 127.0215087,
        "gas_station_type": "주유소",
        "gas_station_name": "현대오일뱅크(주)직영사평로주유소",
        "distance": 929.1087991598876,
        "walking_time": "약 14분"
      },
      {
        "gas_station_lat": 37.4943841,
        "gas_station_lon": 127.0350787,
        "gas_station_type": "주유소",
        "gas_station_name": "서광주유소",
        "distance": 977.2046895842808,
        "walking_time": "약 15분"
      },
      {
        "gas_station_lat": 37.50080176,
        "gas_station_lon": 127.0430774,
        "gas_station_type": "주유소",
        "gas_station_name": "에쓰-오일(주)개나리주유소",
        "distance": 1000.693086547312,
        "walking_time": "약 15분"
      },
      {
        "gas_station_lat": 37.49104669,
        "gas_station_lon": 127.0377014,
        "gas_station_type": "주유소",
        "gas_station_name": "㈜선진주유소",
        "distance": 1402.8577675402703,
        "walking_time": "약 21분"
      },
      {
        "gas_station_lat": 37.49224196,
        "gas_station_lon": 127.0419684,
        "gas_station_type": "주유소",
        "gas_station_name": "SK에너지㈜ 진달래주유소",
        "distance": 1468.3247409622256,
        "walking_time": "약 22분"
      },
      {
        "gas_station_lat": 37.49416584,
        "gas_station_lon": 127.045509,
        "gas_station_type": "주유소",
        "gas_station_name": "㈜잠실에너지 명품주유소",
        "distance": 1530.811703406839,
        "walking_time": "약 23분"
      },
      {
        "gas_station_lat": 37.49058508,
        "gas_station_lon": 127.0225883,
        "gas_station_type": "주유소",
        "gas_station_name": "현대오일뱅크(주)직영서초제일주유소",
        "distance": 1596.1550932964933,
        "walking_time": "약 24분"
      }
    ],
    "hospital": [
      {
        "hospital_lat": 37.50280621,
        "hospital_lon": 127.0324039,
        "hospital_type": "병원",
        "hospital_name": "에스앤유피부과의원",
        "distance": 33.45901535643344,
        "walking_time": "약 1분"
      },
      {
        "hospital_lat": 37.50436248,
        "hospital_lon": 127.0338214,
        "hospital_type": "병원",
        "hospital_name": "네오의원",
        "distance": 232.4758767216862,
        "walking_time": "약 4분"
      },
      {
        "hospital_lat": 37.50312739,
        "hospital_lon": 127.0350254,
        "hospital_type": "병원",
        "hospital_name": "미형치과의원",
        "distance": 266.6180601041921,
        "walking_time": "약 4분"
      },
      {
        "hospital_lat": 37.50032065,
        "hospital_lon": 127.0325753,
        "hospital_type": "병원",
        "hospital_name": "만수무강한의원",
        "distance": 283.4223848772319,
        "walking_time": "약 5분"
      },
      {
        "hospital_lat": 37.5025512,
        "hospital_lon": 127.0353407,
        "hospital_type": "병원",
        "hospital_name": "청구경희한의원",
        "distance": 294.06425153272284,
        "walking_time": "약 5분"
      },
      {
        "hospital_lat": 37.50425736,
        "hospital_lon": 127.0349625,
        "hospital_type": "병원",
        "hospital_name": "럭쎌내과의원",
        "distance": 303.6772825448317,
        "walking_time": "약 5분"
      },
      {
        "hospital_lat": 37.50425736,
        "hospital_lon": 127.0349625,
        "hospital_type": "병원",
        "hospital_name": "럭쎌한의원",
        "distance": 303.6772825448317,
        "walking_time": "약 5분"
      },
      {
        "hospital_lat": 37.50425736,
        "hospital_lon": 127.0349625,
        "hospital_type": "병원",
        "hospital_name": "신소애여성의원",
        "distance": 303.6772825448317,
        "walking_time": "약 5분"
      },
      {
        "hospital_lat": 37.50278299,
        "hospital_lon": 127.035473,
        "hospital_type": "병원",
        "hospital_name": "바노바기일레븐치과의원",
        "distance": 304.1209363688234,
        "walking_time": "약 5분"
      },
      {
        "hospital_lat": 37.5030732,
        "hospital_lon": 127.0354763,
        "hospital_type": "병원",
        "hospital_name": "바노바기피부과의원",
        "distance": 305.5420223438037,
        "walking_time": "약 5분"
      }
    ],
    "music_room": [
      {
        "music_room_lat": 37.50125536,
        "music_room_lon": 127.0341602,
        "music_room_type": "노래방",
        "music_room_name": "비올렛트노래연습장",
        "distance": 257.25415059598856,
        "walking_time": "약 4분"
      },
      {
        "music_room_lat": 37.50085195,
        "music_room_lon": 127.0339273,
        "music_room_type": "노래방",
        "music_room_name": "홀릭노래연습장",
        "distance": 276.7785453817085,
        "walking_time": "약 5분"
      },
      {
        "music_room_lat": 37.50035587,
        "music_room_lon": 127.0332477,
        "music_room_type": "노래방",
        "music_room_name": "비비 노래연습장",
        "distance": 295.674093055935,
        "walking_time": "약 5분"
      },
      {
        "music_room_lat": 37.50074995,
        "music_room_lon": 127.0342848,
        "music_room_type": "노래방",
        "music_room_name": "싱싱 노래연습장",
        "distance": 305.4550584657821,
        "walking_time": "약 5분"
      },
      {
        "music_room_lat": 37.50179844,
        "music_room_lon": 127.0352406,
        "music_room_type": "노래방",
        "music_room_name": "타임 노래연습장",
        "distance": 305.97689288812904,
        "walking_time": "약 5분"
      },
      {
        "music_room_lat": 37.50275225,
        "music_room_lon": 127.036691,
        "music_room_type": "노래방",
        "music_room_name": "조이 노래연습장",
        "distance": 411.6118283987933,
        "walking_time": "약 7분"
      },
      {
        "music_room_lat": 37.50090557,
        "music_room_lon": 127.0272769,
        "music_room_type": "노래방",
        "music_room_name": "악쓰는하마 코인노래연습장",
        "distance": 470.5279163592322,
        "walking_time": "약 8분"
      },
      {
        "music_room_lat": 37.50263608,
        "music_room_lon": 127.0373746,
        "music_room_type": "노래방",
        "music_room_name": "명품 노래연습장",
        "distance": 472.32213354923385,
        "walking_time": "약 8분"
      },
      {
        "music_room_lat": 37.50192915,
        "music_room_lon": 127.0267342,
        "music_room_type": "노래방",
        "music_room_name": "팝스타코인 노래연습장",
        "distance": 477.4842963876067,
        "walking_time": "약 8분"
      },
      {
        "music_room_lat": 37.50054316,
        "music_room_lon": 127.0273906,
        "music_room_type": "노래방",
        "music_room_name": "몰 노래연습장",
        "distance": 481.6455137999423,
        "walking_time": "약 8분"
      }
    ],
    "park": [
      {
        "park_lat": 37.4903127,
        "park_lon": 127.0450338,
        "park_type": "공원",
        "park_name": "도곡근린공원",
        "distance": 1804.1031276652584,
        "walking_time": "약 27분"
      }
    ],
    "park_station": [
      {
        "park_station_lat": 37.50224832,
        "park_station_lon": 127.0299744,
        "park_station_type": "주차장",
        "park_station_name": "역삼문화공원 공영주차장",
        "distance": 192.26519717599643,
        "walking_time": "약 3분"
      },
      {
        "park_station_lat": 37.5009606,
        "park_station_lon": 127.0299802,
        "park_station_type": "주차장",
        "park_station_name": "역삼문화공원제1호공영주차장",
        "distance": 275.44647270708424,
        "walking_time": "약 5분"
      },
      {
        "park_station_lat": 37.49925631,
        "park_station_lon": 127.0362133,
        "park_station_type": "주차장",
        "park_station_name": "테헤란로26길",
        "distance": 542.7063208485929,
        "walking_time": "약 9분"
      },
      {
        "park_station_lat": 37.50821709,
        "park_station_lon": 127.0263165,
        "park_station_type": "주차장",
        "park_station_name": "논현초교 공영주차장",
        "distance": 782.4354516788676,
        "walking_time": "약 12분"
      },
      {
        "park_station_lat": 37.49535484,
        "park_station_lon": 127.0332496,
        "park_station_type": "주차장",
        "park_station_name": "역삼1문화센터 공영주차장",
        "distance": 838.400121022204,
        "walking_time": "약 13분"
      },
      {
        "park_station_lat": 37.50472514,
        "park_station_lon": 127.0209826,
        "park_station_type": "주차장",
        "park_station_name": "언구비 공영주차장",
        "distance": 996.64967376795,
        "walking_time": "약 15분"
      },
      {
        "park_station_lat": 37.49249614,
        "park_station_lon": 127.0387952,
        "park_station_type": "주차장",
        "park_station_name": "도곡로21길 7 공영주차장",
        "distance": 1295.1829857648574,
        "walking_time": "약 20분"
      },
      {
        "park_station_lat": 37.51426314,
        "park_station_lon": 127.0288551,
        "park_station_type": "주차장",
        "park_station_name": "논현로131길",
        "distance": 1301.4936433457983,
        "walking_time": "약 20분"
      },
      {
        "park_station_lat": 37.51024365,
        "park_station_lon": 127.0464398,
        "park_station_type": "주차장",
        "park_station_name": "강남치매지원센터 공영주차장",
        "distance": 1515.1682267176857,
        "walking_time": "약 23분"
      },
      {
        "park_station_lat": 37.51583666,
        "park_station_lon": 127.0211409,
        "park_station_type": "주차장",
        "park_station_name": "강남대로150길",
        "distance": 1735.7751540025508,
        "walking_time": "약 26분"
      }
    ],
    "pc_room": [
      {
        "pc_room_lat": 37.4995844298918,
        "pc_room_lon": 127.028419603321,
        "pc_room_type": "PC방",
        "pc_room_name": "THE MAZE VR",
        "distance": 481.2647964770297,
        "walking_time": "약 8분"
      },
      {
        "pc_room_lat": 37.4991963225538,
        "pc_room_lon": 127.028227205943,
        "pc_room_type": "PC방",
        "pc_room_name": "오즈피씨카페리저브 강남점",
        "distance": 525.103952050922,
        "walking_time": "약 8분"
      },
      {
        "pc_room_lat": 37.498362123762,
        "pc_room_lon": 127.03451238865,
        "pc_room_type": "PC방",
        "pc_room_name": "SOUND PC",
        "distance": 543.2736721940181,
        "walking_time": "약 9분"
      },
      {
        "pc_room_lat": 37.4986813605293,
        "pc_room_lon": 127.028754000454,
        "pc_room_type": "PC방",
        "pc_room_name": "3 POP PC CAFE",
        "distance": 544.3570074161295,
        "walking_time": "약 9분"
      },
      {
        "pc_room_lat": 37.5080107823293,
        "pc_room_lon": 127.034615454935,
        "pc_room_type": "PC방",
        "pc_room_name": "논현PC",
        "distance": 619.5018412568286,
        "walking_time": "약 10분"
      },
      {
        "pc_room_lat": 37.4976674173806,
        "pc_room_lon": 127.029286360295,
        "pc_room_type": "PC방",
        "pc_room_name": "셰프PC방 강남점",
        "distance": 623.0587649784165,
        "walking_time": "약 10분"
      },
      {
        "pc_room_lat": 37.5084063077102,
        "pc_room_lon": 127.033735588603,
        "pc_room_type": "PC방",
        "pc_room_name": "탑플레이스 PC방 (언주역점)",
        "distance": 637.9159082595926,
        "walking_time": "약 10분"
      },
      {
        "pc_room_lat": 37.5018444583427,
        "pc_room_lon": 127.024653352058,
        "pc_room_type": "PC방",
        "pc_room_name": "게임이너스 신논현점",
        "distance": 659.5765932283916,
        "walking_time": "약 10분"
      },
      {
        "pc_room_lat": 37.5034754564683,
        "pc_room_lon": 127.039576076366,
        "pc_room_type": "PC방",
        "pc_room_name": "피씨앤쿡 PC방",
        "distance": 669.8481275095762,
        "walking_time": "약 10분"
      },
      {
        "pc_room_lat": 37.5087955537566,
        "pc_room_lon": 127.034008002419,
        "pc_room_type": "PC방",
        "pc_room_name": "헌터피씨방 언주역점",
        "distance": 685.7772457711666,
        "walking_time": "약 11분"
      }
    ],
    "police_office": [
      {
        "police_office_lat": 37.50830733,
        "police_office_lon": 127.041016,
        "police_office_type": "경찰소",
        "police_office_name": "역삼지구대",
        "distance": 999.7691006900976,
        "walking_time": "약 15분"
      },
      {
        "police_office_lat": 37.50133276,
        "police_office_lon": 127.0437177,
        "police_office_type": "경찰소",
        "police_office_name": "도곡지구대",
        "distance": 1044.7625278621497,
        "walking_time": "약 16분"
      },
      {
        "police_office_lat": 37.51386514,
        "police_office_lon": 127.0293218,
        "police_office_type": "경찰소",
        "police_office_name": "논현1파출소",
        "distance": 1249.802436861648,
        "walking_time": "약 19분"
      },
      {
        "police_office_lat": 37.51520381,
        "police_office_lon": 127.0338464,
        "police_office_type": "경찰소",
        "police_office_name": "논현2파출소",
        "distance": 1385.021757539645,
        "walking_time": "약 21분"
      },
      {
        "police_office_lat": 37.51240988,
        "police_office_lon": 127.0435179,
        "police_office_type": "경찰소",
        "police_office_name": "삼성2파출소",
        "distance": 1470.302257235379,
        "walking_time": "약 22분"
      },
      {
        "police_office_lat": 37.51837187,
        "police_office_lon": 127.0241335,
        "police_office_type": "경찰소",
        "police_office_name": "신사파출소",
        "distance": 1862.916021583604,
        "walking_time": "약 28분"
      }
    ],
    "post_office": [
      {
        "post_office_lat": 37.50008187,
        "post_office_lon": 127.032938,
        "post_office_type": "우체국",
        "post_office_name": "서울역삼1동우체국",
        "distance": 316.2064301779024,
        "walking_time": "약 5분"
      },
      {
        "post_office_lat": 37.50467299,
        "post_office_lon": 127.0358791,
        "post_office_type": "우체국",
        "post_office_name": "서울역삼한라우편취급국",
        "distance": 396.7767440012605,
        "walking_time": "약 6분"
      },
      {
        "post_office_lat": 37.50591645,
        "post_office_lon": 127.0283134,
        "post_office_type": "우체국",
        "post_office_name": "서울논현거평우편취급국",
        "distance": 474.2201957381939,
        "walking_time": "약 8분"
      },
      {
        "post_office_lat": 37.49554814,
        "post_office_lon": 127.0300647,
        "post_office_type": "우체국",
        "post_office_name": "서울역삼우성우편취급국",
        "distance": 828.2030523650221,
        "walking_time": "약 13분"
      },
      {
        "post_office_lat": 37.50396606,
        "post_office_lon": 127.0429099,
        "post_office_type": "우체국",
        "post_office_name": "서울상록회관우체국",
        "distance": 968.345678887452,
        "walking_time": "약 15분"
      },
      {
        "post_office_lat": 37.4978709,
        "post_office_lon": 127.0220702,
        "post_office_type": "우체국",
        "post_office_name": "서울진흥아파트우편취급국",
        "distance": 1037.1435774807362,
        "walking_time": "약 16분"
      },
      {
        "post_office_lat": 37.49769908,
        "post_office_lon": 127.0425092,
        "post_office_type": "우체국",
        "post_office_name": "서울역삼2동우체국",
        "distance": 1086.7385577718742,
        "walking_time": "약 17분"
      },
      {
        "post_office_lat": 37.51091767,
        "post_office_lon": 127.0228814,
        "post_office_type": "우체국",
        "post_office_name": "서울영동시장우편취급국",
        "distance": 1207.895935485071,
        "walking_time": "약 19분"
      },
      {
        "post_office_lat": 37.49199415,
        "post_office_lon": 127.0288488,
        "post_office_type": "우체국",
        "post_office_name": "서울무지개우편취급국",
        "distance": 1237.2806441366672,
        "walking_time": "약 19분"
      },
      {
        "post_office_lat": 37.51405585,
        "post_office_lon": 127.0325346,
        "post_office_type": "우체국",
        "post_office_name": "서울논현동우체국",
        "distance": 1248.8412250009992,
        "walking_time": "약 19분"
      }
    ],
    "public_health_center": [
      {
        "public_health_center_lat": 37.51631743,
        "public_health_center_lon": 127.0423035,
        "public_health_center_type": "보건소",
        "public_health_center_name": "강남구보건소",
        "distance": 1752.2373512250344,
        "walking_time": "약 27분"
      }
    ],
    "school": [
      {
        "school_lat": 37.4990487668755,
        "school_lon": 127.024891501335,
        "school_type": "초등학교",
        "school_name": "서울서초초등학교",
        "distance": 757.0216001564577,
        "walking_time": "약 12분"
      },
      {
        "school_lat": 37.5084895751287,
        "school_lon": 127.026222910697,
        "school_type": "초등학교",
        "school_name": "서울논현초등학교",
        "distance": 811.0436313001129,
        "walking_time": "약 13분"
      },
      {
        "school_lat": 37.4985298571843,
        "school_lon": 127.023220688907,
        "school_type": "중학교",
        "school_name": "서일중학교",
        "distance": 912.2584398816056,
        "walking_time": "약 14분"
      },
      {
        "school_lat": 37.4931444060362,
        "school_lon": 127.032564910969,
        "school_type": "초등학교",
        "school_name": "서울역삼초등학교",
        "distance": 1078.2599209733944,
        "walking_time": "약 17분"
      },
      {
        "school_lat": 37.4939485124964,
        "school_lon": 127.024538241332,
        "school_type": "중학교",
        "school_name": "서운중학교",
        "distance": 1188.3126620483713,
        "walking_time": "약 18분"
      },
      {
        "school_lat": 37.512045952,
        "school_lon": 127.039435597045,
        "school_type": "초등학교",
        "school_name": "서울학동초등학교",
        "distance": 1215.2641420085722,
        "walking_time": "약 19분"
      },
      {
        "school_lat": 37.491564668711,
        "school_lon": 127.025618024318,
        "school_type": "초등학교",
        "school_name": "서울서이초등학교",
        "distance": 1374.5042466761138,
        "walking_time": "약 21분"
      },
      {
        "school_lat": 37.5023028920315,
        "school_lon": 127.048286565491,
        "school_type": "고등학교",
        "school_name": "진선여자고등학교",
        "distance": 1435.6128820823296,
        "walking_time": "약 22분"
      },
      {
        "school_lat": 37.5023028920315,
        "school_lon": 127.048286565491,
        "school_type": "중학교",
        "school_name": "진선여자중학교",
        "distance": 1435.6128820823296,
        "walking_time": "약 22분"
      },
      {
        "school_lat": 37.5014620128395,
        "school_lon": 127.048872178861,
        "school_type": "초등학교",
        "school_name": "서울도성초등학교",
        "distance": 1493.861839533222,
        "walking_time": "약 23분"
      }
    ],
    "self_laundromat": [
      {
        "self_laundromat_lat": 37.50351421,
        "self_laundromat_lon": 127.023276,
        "self_laundromat_type": "셀프 빨래방",
        "self_laundromat_name": "빨래터빨래방 신논현점",
        "distance": 775.5834680639504,
        "walking_time": "약 12분"
      },
      {
        "self_laundromat_lat": 37.50351421,
        "self_laundromat_lon": 127.023276,
        "self_laundromat_type": "셀프 빨래방",
        "self_laundromat_name": "빨래터빨래방 신논현점",
        "distance": 775.5834680639504,
        "walking_time": "약 12분"
      },
      {
        "self_laundromat_lat": 37.49598293,
        "self_laundromat_lon": 127.0280101,
        "self_laundromat_type": "셀프 빨래방",
        "self_laundromat_name": "런드리24 펭귄랜덤하우스코리아",
        "distance": 839.9501166683732,
        "walking_time": "약 13분"
      },
      {
        "self_laundromat_lat": 37.49598293,
        "self_laundromat_lon": 127.0280101,
        "self_laundromat_type": "셀프 빨래방",
        "self_laundromat_name": "런드리24 펭귄랜덤하우스코리아",
        "distance": 839.9501166683732,
        "walking_time": "약 13분"
      },
      {
        "self_laundromat_lat": 37.50151958,
        "self_laundromat_lon": 127.0217535,
        "self_laundromat_type": "셀프 빨래방",
        "self_laundromat_name": "크린토피아 코인워시 서초푸르지오써밋점",
        "distance": 917.8570195093572,
        "walking_time": "약 14분"
      },
      {
        "self_laundromat_lat": 37.50151958,
        "self_laundromat_lon": 127.0217535,
        "self_laundromat_type": "셀프 빨래방",
        "self_laundromat_name": "크린토피아 코인워시 서초푸르지오써밋점",
        "distance": 917.8570195093572,
        "walking_time": "약 14분"
      },
      {
        "self_laundromat_lat": 37.5048308,
        "self_laundromat_lon": 127.0206501,
        "self_laundromat_type": "셀프 빨래방",
        "self_laundromat_name": "크린토피아 코인워시 반포언구비점",
        "distance": 1027.813036942281,
        "walking_time": "약 16분"
      },
      {
        "self_laundromat_lat": 37.5048308,
        "self_laundromat_lon": 127.0206501,
        "self_laundromat_type": "셀프 빨래방",
        "self_laundromat_name": "크린토피아 코인워시 반포언구비점",
        "distance": 1027.813036942281,
        "walking_time": "약 16분"
      },
      {
        "self_laundromat_lat": 37.50660505,
        "self_laundromat_lon": 127.0212232,
        "self_laundromat_type": "셀프 빨래방",
        "self_laundromat_name": "위워시 반포점",
        "distance": 1041.1967856874796,
        "walking_time": "약 16분"
      },
      {
        "self_laundromat_lat": 37.50660505,
        "self_laundromat_lon": 127.0212232,
        "self_laundromat_type": "셀프 빨래방",
        "self_laundromat_name": "위워시 반포점",
        "distance": 1041.1967856874796,
        "walking_time": "약 16분"
      }
    ],
    "subway": [
      {
        "subway_lat": 37.5007162693593,
        "subway_lon": 127.036618203089,
        "subway_type": "지하철",
        "subway_name": "2호선-역삼역",
        "distance": 468.4577808317088,
        "walking_time": "약 7분"
      },
      {
        "subway_lat": 37.5074454982119,
        "subway_lon": 127.034284713238,
        "subway_type": "지하철",
        "subway_name": "9호선-언주역",
        "distance": 550.3310477068314,
        "walking_time": "약 9분"
      },
      {
        "subway_lat": 37.4981646510326,
        "subway_lon": 127.028307900881,
        "subway_type": "지하철",
        "subway_name": "2호선-강남역",
        "distance": 613.9445571174372,
        "walking_time": "약 10분"
      },
      {
        "subway_lat": 37.5142064294604,
        "subway_lon": 127.031463762217,
        "subway_type": "지하철",
        "subway_name": "7호선-학동역",
        "distance": 1265.7507744998743,
        "walking_time": "약 19분"
      },
      {
        "subway_lat": 37.5111988300765,
        "subway_lon": 127.021657861669,
        "subway_type": "지하철",
        "subway_name": "7호선-논현역",
        "distance": 1304.5945885357144,
        "walking_time": "약 20분"
      },
      {
        "subway_lat": 37.5108538860091,
        "subway_lon": 127.043641042222,
        "subway_type": "지하철",
        "subway_name": "9호선-선정릉역",
        "distance": 1358.4372022079758,
        "walking_time": "약 21분"
      },
      {
        "subway_lat": 37.5045028775835,
        "subway_lon": 127.048942471228,
        "subway_type": "지하철",
        "subway_name": "2호선-선릉역",
        "distance": 1503.7664610647798,
        "walking_time": "약 23분"
      },
      {
        "subway_lat": 37.5171892352971,
        "subway_lon": 127.04130142966,
        "subway_type": "지하철",
        "subway_name": "7호선-강남구청역",
        "distance": 1793.8814210959256,
        "walking_time": "약 27분"
      },
      {
        "subway_lat": 37.5164324582415,
        "subway_lon": 127.020326886309,
        "subway_type": "지하철",
        "subway_name": "3호선-신사역",
        "distance": 1830.8272625878133,
        "walking_time": "약 28분"
      }
    ],
    "supermarket": [
      {
        "supermarket_lat": 37.50123504,
        "supermarket_lon": 127.0266306,
        "supermarket_type": "마트",
        "supermarket_name": "점프밀라노",
        "distance": 507.9990963534629,
        "walking_time": "약 8분"
      },
      {
        "supermarket_lat": 37.50375605,
        "supermarket_lon": 127.0241095,
        "supermarket_type": "마트",
        "supermarket_name": "교보타워 지하아케이드",
        "distance": 705.856555118734,
        "walking_time": "약 11분"
      },
      {
        "supermarket_lat": 37.50288135,
        "supermarket_lon": 127.0413565,
        "supermarket_type": "마트",
        "supermarket_name": "더 샵스 앳 센터필드 (THE SHOPS AT CENTERFIELD)",
        "distance": 823.0942734682525,
        "walking_time": "약 13분"
      },
      {
        "supermarket_lat": 37.51001764,
        "supermarket_lon": 127.0347588,
        "supermarket_type": "마트",
        "supermarket_name": "논현종합시장",
        "distance": 834.5782375016709,
        "walking_time": "약 13분"
      },
      {
        "supermarket_lat": 37.50915694,
        "supermarket_lon": 127.0245957,
        "supermarket_type": "마트",
        "supermarket_name": "영동전통시장",
        "distance": 961.3608941919416,
        "walking_time": "약 15분"
      },
      {
        "supermarket_lat": 37.50999521,
        "supermarket_lon": 127.0238232,
        "supermarket_type": "마트",
        "supermarket_name": "GS더프레시 강남영동점",
        "distance": 1076.0929202517634,
        "walking_time": "약 17분"
      },
      {
        "supermarket_lat": 37.49695073,
        "supermarket_lon": 127.0419187,
        "supermarket_type": "마트",
        "supermarket_name": "롯데슈퍼 역삼2동점",
        "distance": 1090.543934591284,
        "walking_time": "약 17분"
      },
      {
        "supermarket_lat": 37.49309007,
        "supermarket_lon": 127.034174,
        "supermarket_type": "마트",
        "supermarket_name": "롯데슈퍼 역삼1동점",
        "distance": 1099.7026113698628,
        "walking_time": "약 17분"
      },
      {
        "supermarket_lat": 37.51051524,
        "supermarket_lon": 127.0235361,
        "supermarket_type": "마트",
        "supermarket_name": "동화상가(주)",
        "distance": 1136.0993015490556,
        "walking_time": "약 17분"
      },
      {
        "supermarket_lat": 37.51352352,
        "supermarket_lon": 127.0302251,
        "supermarket_type": "마트",
        "supermarket_name": "홈플러스익스프레스 학동역점",
        "distance": 1199.4087004517455,
        "walking_time": "약 18분"
      }
    ],
    "tax_office": [
      {
        "tax_office_lat": 37.49828846,
        "tax_office_lon": 127.0301032,
        "tax_office_type": "세무서",
        "tax_office_name": "삼성세무서",
        "distance": 532.9329166984849,
        "walking_time": "약 8분"
      },
      {
        "tax_office_lat": 37.49828846,
        "tax_office_lon": 127.0301032,
        "tax_office_type": "세무서",
        "tax_office_name": "서초세무서",
        "distance": 532.9329166984849,
        "walking_time": "약 8분"
      },
      {
        "tax_office_lat": 37.49828846,
        "tax_office_lon": 127.0301032,
        "tax_office_type": "세무서",
        "tax_office_name": "역삼세무서",
        "distance": 532.9329166984849,
        "walking_time": "약 8분"
      },
      {
        "tax_office_lat": 37.51871603,
        "tax_office_lon": 127.0469585,
        "tax_office_type": "세무서",
        "tax_office_name": "강남세무서",
        "distance": 2203.252090063929,
        "walking_time": "약 33분"
      }
    ],
    "theater": [
      {
        "theater_lat": 37.5016428104731,
        "theater_lon": 127.026336096148,
        "theater_type": "영화관",
        "theater_name": "(주)강제규필름",
        "distance": 519.0562919653884,
        "walking_time": "약 8분"
      },
      {
        "theater_lat": 37.5003941401087,
        "theater_lon": 127.026984908497,
        "theater_type": "영화관",
        "theater_name": "메가박스 씨티(강남대로)",
        "distance": 520.8079362229951,
        "walking_time": "약 8분"
      },
      {
        "theater_lat": 37.4980609129976,
        "theater_lon": 127.026504807476,
        "theater_type": "영화관",
        "theater_name": "메가박스중앙(주) 강남",
        "distance": 720.1937453671759,
        "walking_time": "약 11분"
      },
      {
        "theater_lat": 37.5116328572551,
        "theater_lon": 127.023923410549,
        "theater_type": "영화관",
        "theater_name": "강남비디오소극장",
        "distance": 1211.815805406491,
        "walking_time": "약 19분"
      },
      {
        "theater_lat": 37.5140467250769,
        "theater_lon": 127.029550652058,
        "theater_type": "영화관",
        "theater_name": "(주)케이엠티브이",
        "distance": 1265.9912189817542,
        "walking_time": "약 19분"
      },
      {
        "theater_lat": 37.5163705406376,
        "theater_lon": 127.02194180264,
        "theater_type": "영화관",
        "theater_name": "메가박스 브로드웨이",
        "distance": 1748.5589690831612,
        "walking_time": "약 27분"
      },
      {
        "theater_lat": 37.5169719062298,
        "theater_lon": 127.02270573272,
        "theater_type": "영화관",
        "theater_name": "씨네마강남",
        "distance": 1774.239027624961,
        "walking_time": "약 27분"
      },
      {
        "theater_lat": 37.5166065016895,
        "theater_lon": 127.021516108092,
        "theater_type": "영화관",
        "theater_name": "메가박스 브로드웨이",
        "distance": 1790.3488366860956,
        "walking_time": "약 27분"
      },
      {
        "theater_lat": 37.5161918332017,
        "theater_lon": 127.020655869811,
        "theater_type": "영화관",
        "theater_name": "클래식시네마스페이스(주)",
        "distance": 1792.3931864404296,
        "walking_time": "약 27분"
      }
    ],
    "university": [
      {
        "university_lat": 37.5169057779708,
        "university_lon": 127.031003951379,
        "university_type": "대학교",
        "university_name": "국제예술대학",
        "distance": 1567.5271633766874,
        "walking_time": "약 24분"
      }
    ]
  }
}