{
  "클러스터_위도": 37.59733399999999,
  "클러스터_경도": 127.016623,
  "클러스터_level": 4.0,
  "facilities": {
    "bus": [
      {
        "bus_lat": 37.59672013,
        "bus_lon": 127.015117,
        "bus_type": "버스정류장",
        "bus_name": "돈암2동주민센터입구.흥천사",
        "distance": 149.21050946973438,
        "walking_time": "약 3분"
      },
      {
        "bus_lat": 37.59619975,
        "bus_lon": 127.0156038,
        "bus_type": "버스정류장",
        "bus_name": "돈암2동주민센터입구.흥천사",
        "distance": 154.8222581904122,
        "walking_time": "약 3분"
      },
      {
        "bus_lat": 37.59673049,
        "bus_lon": 127.0144254,
        "bus_type": "버스정류장",
        "bus_name": "정덕초교입구.이수아파트",
        "distance": 204.913266900982,
        "walking_time": "약 4분"
      },
      {
        "bus_lat": 37.5966165,
        "bus_lon": 127.0141174,
        "bus_type": "버스정류장",
        "bus_name": "이수아파트.한신휴아파트입구",
        "distance": 234.72378817504972,
        "walking_time": "약 4분"
      },
      {
        "bus_lat": 37.59929765,
        "bus_lon": 127.0176786,
        "bus_type": "버스정류장",
        "bus_name": "브라운스톤",
        "distance": 237.32809061022897,
        "walking_time": "약 4분"
      },
      {
        "bus_lat": 37.59843701,
        "bus_lon": 127.0142965,
        "bus_type": "버스정류장",
        "bus_name": "돈암힐스테이트.코오롱하늘채",
        "distance": 238.8605353776216,
        "walking_time": "약 4분"
      },
      {
        "bus_lat": 37.59851546,
        "bus_lon": 127.0142624,
        "bus_type": "버스정류장",
        "bus_name": "돈암힐스테이트.코오롱하늘채",
        "distance": 245.98937028819705,
        "walking_time": "약 4분"
      },
      {
        "bus_lat": 37.59879169,
        "bus_lon": 127.014367,
        "bus_type": "버스정류장",
        "bus_name": "돈암힐스테이트.코오롱하늘채",
        "distance": 256.46874667718214,
        "walking_time": "약 4분"
      },
      {
        "bus_lat": 37.59883305,
        "bus_lon": 127.014404,
        "bus_type": "버스정류장",
        "bus_name": "돈암힐스테이트.코오롱하늘채",
        "distance": 256.91065296980065,
        "walking_time": "약 4분"
      },
      {
        "bus_lat": 37.5995444,
        "bus_lon": 127.0175919,
        "bus_type": "버스정류장",
        "bus_name": "브라운스톤",
        "distance": 260.1861144355731,
        "walking_time": "약 4분"
      }
    ],
    "community_center": [
      {
        "community_center_lat": 37.6014358,
        "community_center_lon": 127.0166418,
        "community_center_type": "주민센터",
        "community_center_name": "정릉1동 자치회관",
        "distance": 456.1023573642168,
        "walking_time": "약 7분"
      },
      {
        "community_center_lat": 37.59398014,
        "community_center_lon": 127.0204087,
        "community_center_type": "주민센터",
        "community_center_name": "동선동 자치회관",
        "distance": 500.3234592519041,
        "walking_time": "약 8분"
      },
      {
        "community_center_lat": 37.59801698,
        "community_center_lon": 127.010539,
        "community_center_type": "주민센터",
        "community_center_name": "돈암2동 자치회관",
        "distance": 541.3618510248484,
        "walking_time": "약 9분"
      },
      {
        "community_center_lat": 37.59084573,
        "community_center_lon": 127.0146418,
        "community_center_type": "주민센터",
        "community_center_name": "삼선동 자치회관",
        "distance": 742.2787961049369,
        "walking_time": "약 12분"
      },
      {
        "community_center_lat": 37.60454045,
        "community_center_lon": 127.011129,
        "community_center_type": "주민센터",
        "community_center_name": "정릉2동 자치회관",
        "distance": 936.1507025186764,
        "walking_time": "약 14분"
      },
      {
        "community_center_lat": 37.60257969,
        "community_center_lon": 127.0277374,
        "community_center_type": "주민센터",
        "community_center_name": "돈암1동 자치회관",
        "distance": 1139.7338400466365,
        "walking_time": "약 18분"
      },
      {
        "community_center_lat": 37.58582076,
        "community_center_lon": 127.0213756,
        "community_center_type": "주민센터",
        "community_center_name": "안암동 자치회관",
        "distance": 1346.9575842563777,
        "walking_time": "약 21분"
      },
      {
        "community_center_lat": 37.59105175,
        "community_center_lon": 127.0032478,
        "community_center_type": "주민센터",
        "community_center_name": "성북동 자치회관",
        "distance": 1369.916490463831,
        "walking_time": "약 21분"
      },
      {
        "community_center_lat": 37.60681328,
        "community_center_lon": 127.0272803,
        "community_center_type": "주민센터",
        "community_center_name": "길음2동 자치회관",
        "distance": 1411.5551519999267,
        "walking_time": "약 22분"
      },
      {
        "community_center_lat": 37.60895467,
        "community_center_lon": 127.0041769,
        "community_center_type": "주민센터",
        "community_center_name": "정릉3동 자치회관",
        "distance": 1694.6537949747526,
        "walking_time": "약 26분"
      }
    ],
    "convenience_store": [
      {
        "convenience_store_lat": 37.59675031,
        "convenience_store_lon": 127.0144401,
        "convenience_store_type": "편의점",
        "convenience_store_name": "CU 동소문중앙점",
        "distance": 202.9745825413937,
        "walking_time": "약 4분"
      },
      {
        "convenience_store_lat": 37.59920047,
        "convenience_store_lon": 127.0176987,
        "convenience_store_type": "편의점",
        "convenience_store_name": "세븐일레븐 정릉이수점",
        "distance": 228.15566124011747,
        "walking_time": "약 4분"
      },
      {
        "convenience_store_lat": 37.59451804,
        "convenience_store_lon": 127.0163253,
        "convenience_store_type": "편의점",
        "convenience_store_name": "CU 돈암클럽",
        "distance": 314.2170495483701,
        "walking_time": "약 5분"
      },
      {
        "convenience_store_lat": 37.59579411,
        "convenience_store_lon": 127.0198765,
        "convenience_store_type": "편의점",
        "convenience_store_name": "GS25 동선행복점",
        "distance": 333.8901707716383,
        "walking_time": "약 5분"
      },
      {
        "convenience_store_lat": 37.5947659,
        "convenience_store_lon": 127.0187639,
        "convenience_store_type": "편의점",
        "convenience_store_name": "CU 동선대로점",
        "distance": 342.23084013039033,
        "walking_time": "약 6분"
      },
      {
        "convenience_store_lat": 37.59421393,
        "convenience_store_lon": 127.0165129,
        "convenience_store_type": "편의점",
        "convenience_store_name": "GS25 성신돈암점",
        "distance": 347.0715354256768,
        "walking_time": "약 6분"
      },
      {
        "convenience_store_lat": 37.59873264,
        "convenience_store_lon": 127.0201982,
        "convenience_store_type": "편의점",
        "convenience_store_name": "CU 성북고명점",
        "distance": 351.28106002973084,
        "walking_time": "약 6분"
      },
      {
        "convenience_store_lat": 37.60025102,
        "convenience_store_lon": 127.0183154,
        "convenience_store_type": "편의점",
        "convenience_store_name": "세븐일레븐 정릉E편한세상점",
        "distance": 356.98592290645246,
        "walking_time": "약 6분"
      },
      {
        "convenience_store_lat": 37.59511768,
        "convenience_store_lon": 127.0201916,
        "convenience_store_type": "편의점",
        "convenience_store_name": "CU 동선중앙점",
        "distance": 399.4804786826798,
        "walking_time": "약 6분"
      },
      {
        "convenience_store_lat": 37.59378202,
        "convenience_store_lon": 127.017601,
        "convenience_store_type": "편의점",
        "convenience_store_name": "미니스톱 성신여대입구역점",
        "distance": 404.2519123888501,
        "walking_time": "약 7분"
      }
    ],
    "daycare": [
      {
        "daycare_lat": 37.59761746,
        "daycare_lon": 127.0178677,
        "daycare_type": "어린이집",
        "daycare_name": "돈암이수어린이집",
        "distance": 114.09991306466758,
        "walking_time": "약 2분"
      },
      {
        "daycare_lat": 37.59761746,
        "daycare_lon": 127.0178677,
        "daycare_type": "어린이집",
        "daycare_name": "이수 어린이집",
        "distance": 114.09991306466758,
        "walking_time": "약 2분"
      },
      {
        "daycare_lat": 37.59761746,
        "daycare_lon": 127.0178677,
        "daycare_type": "어린이집",
        "daycare_name": "꿈보어린이집",
        "distance": 114.09991306466758,
        "walking_time": "약 2분"
      },
      {
        "daycare_lat": 37.59761746,
        "daycare_lon": 127.0178677,
        "daycare_type": "어린이집",
        "daycare_name": "키즈맘",
        "distance": 114.09991306466758,
        "walking_time": "약 2분"
      },
      {
        "daycare_lat": 37.59761746,
        "daycare_lon": 127.0178677,
        "daycare_type": "어린이집",
        "daycare_name": "무지개 어린이집",
        "distance": 114.09991306466758,
        "walking_time": "약 2분"
      },
      {
        "daycare_lat": 37.59777832063941,
        "daycare_lon": 127.01846902688668,
        "daycare_type": "어린이집",
        "daycare_name": "돈암이수어린이집",
        "distance": 169.97645694756665,
        "walking_time": "약 3분"
      },
      {
        "daycare_lat": 37.59865460358641,
        "daycare_lon": 127.01802195034544,
        "daycare_type": "어린이집",
        "daycare_name": "키즈맘어린이집",
        "distance": 191.71220152048843,
        "walking_time": "약 3분"
      },
      {
        "daycare_lat": 37.59585688,
        "daycare_lon": 127.0178728,
        "daycare_type": "어린이집",
        "daycare_name": "돈암교회어린이집",
        "distance": 197.741861719892,
        "walking_time": "약 3분"
      },
      {
        "daycare_lat": 37.5973312,
        "daycare_lon": 127.0143338,
        "daycare_type": "어린이집",
        "daycare_name": "정덕 어린이집",
        "distance": 201.68276000026685,
        "walking_time": "약 4분"
      },
      {
        "daycare_lat": 37.59961053,
        "daycare_lon": 127.0166762,
        "daycare_type": "어린이집",
        "daycare_name": "바다어린이집",
        "distance": 253.181972737766,
        "walking_time": "약 4분"
      }
    ],
    "education": [
      {
        "education_lat": 37.60011909,
        "education_lon": 127.0138937,
        "education_type": "공연장",
        "education_name": "아리랑시네센터",
        "distance": 392.075950405752,
        "walking_time": "약 6분"
      },
      {
        "education_lat": 37.60011909,
        "education_lon": 127.0138937,
        "education_type": "도서관",
        "education_name": "아리랑도서관",
        "distance": 392.075950405752,
        "walking_time": "약 6분"
      },
      {
        "education_lat": 37.599831035698905,
        "education_lon": 127.01318969350766,
        "education_type": "도서관",
        "education_name": "아리랑어린이도서관",
        "distance": 410.5911073496157,
        "walking_time": "약 7분"
      },
      {
        "education_lat": 37.59789909,
        "education_lon": 127.0214592,
        "education_type": "공연장",
        "education_name": "미아리고개예술극장",
        "distance": 430.6843972709796,
        "walking_time": "약 7분"
      },
      {
        "education_lat": 37.59164697,
        "education_lon": 127.0173509,
        "education_type": "공연장",
        "education_name": "성북마을극장",
        "distance": 635.6125245904807,
        "walking_time": "약 10분"
      },
      {
        "education_lat": 37.59262641,
        "education_lon": 127.0208992,
        "education_type": "미술관/갤러리",
        "education_name": "스페이스 아텔",
        "distance": 644.9442029046892,
        "walking_time": "약 10분"
      },
      {
        "education_lat": 37.594046935524666,
        "education_lon": 127.01056735667494,
        "education_type": "도서관",
        "education_name": "해오름도서관",
        "distance": 646.7165162239464,
        "walking_time": "약 10분"
      },
      {
        "education_lat": 37.59165248,
        "education_lon": 127.0221456,
        "education_type": "박물관/기념관",
        "education_name": "성신여자대학교 박물관",
        "distance": 797.4117848739886,
        "walking_time": "약 12분"
      },
      {
        "education_lat": 37.60375521,
        "education_lon": 127.0222037,
        "education_type": "공연장",
        "education_name": "서울성북미디어문화마루 꿈빛극장",
        "distance": 866.9039621383629,
        "walking_time": "약 13분"
      },
      {
        "education_lat": 37.58938075,
        "education_lon": 127.0087818,
        "education_type": "공연장",
        "education_name": "공간222",
        "distance": 1122.2221058308407,
        "walking_time": "약 17분"
      }
    ],
    "fitness": [
      {
        "fitness_lat": 37.59451804,
        "fitness_lon": 127.0163253,
        "fitness_type": "운동시설",
        "fitness_name": "머슬프렌즈짐",
        "distance": 314.2170495483701,
        "walking_time": "약 5분"
      },
      {
        "fitness_lat": 37.594487,
        "fitness_lon": 127.0166216,
        "fitness_type": "운동시설",
        "fitness_name": "안핏 여성전용피티&그룹운동",
        "distance": 316.5719801846059,
        "walking_time": "약 5분"
      },
      {
        "fitness_lat": 37.59450972,
        "fitness_lon": 127.0158864,
        "fitness_type": "운동시설",
        "fitness_name": "엠에프짐(MF GYM)",
        "distance": 320.6809336564672,
        "walking_time": "약 5분"
      },
      {
        "fitness_lat": 37.60033408,
        "fitness_lon": 127.0152832,
        "fitness_type": "운동시설",
        "fitness_name": "어메이징휘트니스 정릉점",
        "distance": 353.8605907220691,
        "walking_time": "약 6분"
      },
      {
        "fitness_lat": 37.59373206,
        "fitness_lon": 127.0159782,
        "fitness_type": "운동시설",
        "fitness_name": "오라쁘띠휘트니스센터",
        "distance": 404.5263115406552,
        "walking_time": "약 7분"
      },
      {
        "fitness_lat": 37.60081161,
        "fitness_lon": 127.014472,
        "fitness_type": "운동시설",
        "fitness_name": "스타짐 정릉",
        "distance": 430.63015188295617,
        "walking_time": "약 7분"
      },
      {
        "fitness_lat": 37.59387409,
        "fitness_lon": 127.0193873,
        "fitness_type": "운동시설",
        "fitness_name": "크로스에듀테크(주)",
        "distance": 455.3319835415564,
        "walking_time": "약 7분"
      },
      {
        "fitness_lat": 37.59332603,
        "fitness_lon": 127.0181757,
        "fitness_type": "운동시설",
        "fitness_name": "올리브짐",
        "distance": 466.1889745931865,
        "walking_time": "약 7분"
      },
      {
        "fitness_lat": 37.59447253,
        "fitness_lon": 127.012706,
        "fitness_type": "운동시설",
        "fitness_name": "암스트롱",
        "distance": 469.3974161159295,
        "walking_time": "약 8분"
      },
      {
        "fitness_lat": 37.59447253,
        "fitness_lon": 127.012706,
        "fitness_type": "운동시설",
        "fitness_name": "에이블짐 돈암점",
        "distance": 469.3974161159295,
        "walking_time": "약 8분"
      }
    ],
    "gas_station": [
      {
        "gas_station_lat": 37.6005363,
        "gas_station_lon": 127.0142117,
        "gas_station_type": "주유소",
        "gas_station_name": "현대오일뱅크(주)직영 아리랑주유소",
        "distance": 414.63395948702026,
        "walking_time": "약 7분"
      },
      {
        "gas_station_lat": 37.58767101,
        "gas_station_lon": 127.0183894,
        "gas_station_type": "주유소",
        "gas_station_name": "(주)성북주유소",
        "distance": 1085.6883357577813,
        "walking_time": "약 17분"
      },
      {
        "gas_station_lat": 37.60543076,
        "gas_station_lon": 127.0085513,
        "gas_station_type": "주유소",
        "gas_station_name": "현대오일뱅크(주)직영 북악셀프주유소",
        "distance": 1147.2688043303824,
        "walking_time": "약 18분"
      },
      {
        "gas_station_lat": 37.60761582,
        "gas_station_lon": 127.0099732,
        "gas_station_type": "주유소",
        "gas_station_name": "㈜삼표에너지 정릉주유소",
        "distance": 1284.6348520565964,
        "walking_time": "약 20분"
      },
      {
        "gas_station_lat": 37.58798513,
        "gas_station_lon": 127.0055411,
        "gas_station_type": "주유소",
        "gas_station_name": "삼선주유소",
        "distance": 1426.1861930838006,
        "walking_time": "약 22분"
      },
      {
        "gas_station_lat": 37.60917749,
        "gas_station_lon": 127.0101203,
        "gas_station_type": "주유소",
        "gas_station_name": "㈜이케이에너지(주) 강산제2주유소",
        "distance": 1436.1342913953515,
        "walking_time": "약 22분"
      },
      {
        "gas_station_lat": 37.58295795,
        "gas_station_lon": 127.0203742,
        "gas_station_type": "주유소",
        "gas_station_name": "동일주유소",
        "distance": 1632.3557502760991,
        "walking_time": "약 25분"
      },
      {
        "gas_station_lat": 37.60880835,
        "gas_station_lon": 127.0294735,
        "gas_station_type": "주유소",
        "gas_station_name": "지에스칼텍스(주) 세창주유소",
        "distance": 1705.7149024540554,
        "walking_time": "약 26분"
      },
      {
        "gas_station_lat": 37.58606542,
        "gas_station_lon": 127.0010786,
        "gas_station_type": "주유소",
        "gas_station_name": "㈜중앙에너비스 혜화지점",
        "distance": 1856.290622776189,
        "walking_time": "약 28분"
      }
    ],
    "hospital": [
      {
        "hospital_lat": 37.59628278,
        "hospital_lon": 127.0152368,
        "hospital_type": "병원",
        "hospital_name": "성지치과의원",
        "distance": 169.05169701337144,
        "walking_time": "약 3분"
      },
      {
        "hospital_lat": 37.59564124,
        "hospital_lon": 127.0161561,
        "hospital_type": "병원",
        "hospital_name": "리안치과의원",
        "distance": 192.66876110278776,
        "walking_time": "약 3분"
      },
      {
        "hospital_lat": 37.59738598,
        "hospital_lon": 127.019323,
        "hospital_type": "병원",
        "hospital_name": "봄빛서울의원",
        "distance": 237.9448400785124,
        "walking_time": "약 4분"
      },
      {
        "hospital_lat": 37.59738598,
        "hospital_lon": 127.019323,
        "hospital_type": "병원",
        "hospital_name": "에벤에셀한의원",
        "distance": 237.9448400785124,
        "walking_time": "약 4분"
      },
      {
        "hospital_lat": 37.59738598,
        "hospital_lon": 127.019323,
        "hospital_type": "병원",
        "hospital_name": "하하치과의원",
        "distance": 237.9448400785124,
        "walking_time": "약 4분"
      },
      {
        "hospital_lat": 37.59519254,
        "hospital_lon": 127.0161827,
        "hospital_type": "병원",
        "hospital_name": "제일한의원",
        "distance": 241.2585558534948,
        "walking_time": "약 4분"
      },
      {
        "hospital_lat": 37.5968958,
        "hospital_lon": 127.0138312,
        "hospital_type": "병원",
        "hospital_name": "경희나음한의원",
        "distance": 250.7430365934449,
        "walking_time": "약 4분"
      },
      {
        "hospital_lat": 37.59930283,
        "hospital_lon": 127.0182733,
        "hospital_type": "병원",
        "hospital_name": "키즈쑥쑥소아청소년과의원",
        "distance": 262.80529571004735,
        "walking_time": "약 4분"
      },
      {
        "hospital_lat": 37.59451804,
        "hospital_lon": 127.0163253,
        "hospital_type": "병원",
        "hospital_name": "오라쁘띠의원",
        "distance": 314.2170495483701,
        "walking_time": "약 5분"
      },
      {
        "hospital_lat": 37.59445666,
        "hospital_lon": 127.0170997,
        "hospital_type": "병원",
        "hospital_name": "명제한의원",
        "distance": 322.69041245750446,
        "walking_time": "약 5분"
      }
    ],
    "music_room": [
      {
        "music_room_lat": 37.59469632,
        "music_room_lon": 127.0164965,
        "music_room_type": "노래방",
        "music_room_name": "즐거운 노래연습장",
        "distance": 293.50831015325724,
        "walking_time": "약 5분"
      },
      {
        "music_room_lat": 37.59450972,
        "music_room_lon": 127.0158864,
        "music_room_type": "노래방",
        "music_room_name": "방실방실 노래연습장",
        "distance": 320.6809336564672,
        "walking_time": "약 5분"
      },
      {
        "music_room_lat": 37.59435679,
        "music_room_lon": 127.0167965,
        "music_room_type": "노래방",
        "music_room_name": "영 노래연습장",
        "distance": 331.40336717930114,
        "walking_time": "약 5분"
      },
      {
        "music_room_lat": 37.59311844,
        "music_room_lon": 127.0187418,
        "music_room_type": "노래방",
        "music_room_name": "코인쏭 코인노래연습장",
        "distance": 504.552447360272,
        "walking_time": "약 8분"
      },
      {
        "music_room_lat": 37.59280444,
        "music_room_lon": 127.0175896,
        "music_room_type": "노래방",
        "music_room_name": "JOY 노래연습장",
        "distance": 510.8131158417664,
        "walking_time": "약 8분"
      },
      {
        "music_room_lat": 37.59263494,
        "music_room_lon": 127.017737,
        "music_room_type": "노래방",
        "music_room_name": "판도라 노래연습장",
        "distance": 531.6498119327515,
        "walking_time": "약 8분"
      },
      {
        "music_room_lat": 37.60188695,
        "music_room_lon": 127.0188847,
        "music_room_type": "노래방",
        "music_room_name": "컬투 노래연습장",
        "distance": 544.0645148761251,
        "walking_time": "약 9분"
      },
      {
        "music_room_lat": 37.60222632,
        "music_room_lon": 127.0161019,
        "music_room_type": "노래방",
        "music_room_name": "가족 노래연습장",
        "distance": 545.9348302334664,
        "walking_time": "약 9분"
      },
      {
        "music_room_lat": 37.59246384,
        "music_room_lon": 127.0177633,
        "music_room_type": "노래방",
        "music_room_name": "악쓰는하마 코인노래연습장",
        "distance": 550.7774249002115,
        "walking_time": "약 9분"
      },
      {
        "music_room_lat": 37.59264231,
        "music_room_lon": 127.0190068,
        "music_room_type": "노래방",
        "music_room_name": "로데오 노래연습장",
        "distance": 562.3811609981655,
        "walking_time": "약 9분"
      }
    ],
    "park": [
      {
        "park_lat": 37.5965837,
        "park_lon": 127.0252858,
        "park_type": "공원",
        "park_name": "개운산근린공원",
        "distance": 767.7581074037329,
        "walking_time": "약 12분"
      },
      {
        "park_lat": 37.5948509,
        "park_lon": 127.0078625,
        "park_type": "공원",
        "park_name": "성북근린공원",
        "distance": 819.7283060843617,
        "walking_time": "약 13분"
      },
      {
        "park_lat": 37.580477,
        "park_lon": 127.007587,
        "park_type": "공원",
        "park_name": "낙산근린공원",
        "distance": 2036.4975577294497,
        "walking_time": "약 31분"
      },
      {
        "park_lat": 37.5802295,
        "park_lon": 127.0027886,
        "park_type": "공원",
        "park_name": "마로니에공원",
        "distance": 2259.0376702811795,
        "walking_time": "약 34분"
      }
    ],
    "park_station": [
      {
        "park_station_lat": 37.59917503,
        "park_station_lon": 127.0147062,
        "park_station_type": "주차장",
        "park_station_name": "시네마빌딩공영주차장",
        "distance": 265.37712951114463,
        "walking_time": "약 4분"
      },
      {
        "park_station_lat": 37.5968653,
        "park_station_lon": 127.0263303,
        "park_station_type": "주차장",
        "park_station_name": "개운산",
        "distance": 856.819277971491,
        "walking_time": "약 13분"
      },
      {
        "park_station_lat": 37.60421138,
        "park_station_lon": 127.0257722,
        "park_station_type": "주차장",
        "park_station_name": "길음역환승주차장",
        "distance": 1111.073836035896,
        "walking_time": "약 17분"
      },
      {
        "park_station_lat": 37.5857462,
        "park_station_lon": 127.0146177,
        "park_station_type": "주차장",
        "park_station_name": "경동고",
        "distance": 1300.561928860823,
        "walking_time": "약 20분"
      },
      {
        "park_station_lat": 37.60821601,
        "park_station_lon": 127.0094179,
        "park_station_type": "주차장",
        "park_station_name": "정릉시장",
        "distance": 1366.3996206895922,
        "walking_time": "약 21분"
      },
      {
        "park_station_lat": 37.58023405,
        "park_station_lon": 127.0087948,
        "park_station_type": "주차장",
        "park_station_name": "낙산성곽 버스전용 주차장",
        "distance": 2022.66962293204,
        "walking_time": "약 31분"
      }
    ],
    "pc_room": [
      {
        "pc_room_lat": 37.5956412381816,
        "pc_room_lon": 127.01615614302,
        "pc_room_type": "PC방",
        "pc_room_name": "일프로 PC 아레나",
        "distance": 192.66814946269704,
        "walking_time": "약 3분"
      },
      {
        "pc_room_lat": 37.5935007844555,
        "pc_room_lon": 127.018398672357,
        "pc_room_type": "PC방",
        "pc_room_name": "이스포츠PC방 - 158대",
        "distance": 454.0376731182436,
        "walking_time": "약 7분"
      },
      {
        "pc_room_lat": 37.5935007844555,
        "pc_room_lon": 127.018398672357,
        "pc_room_type": "PC방",
        "pc_room_name": "이스포츠PC방",
        "distance": 454.0376731182436,
        "walking_time": "약 7분"
      },
      {
        "pc_room_lat": 37.5935007844555,
        "pc_room_lon": 127.018398672357,
        "pc_room_type": "PC방",
        "pc_room_name": "로제PC방",
        "distance": 454.0376731182436,
        "walking_time": "약 7분"
      },
      {
        "pc_room_lat": 37.5925747617089,
        "pc_room_lon": 127.017088831326,
        "pc_room_type": "PC방",
        "pc_room_name": "브리즈 pc 카페",
        "distance": 530.7922489088347,
        "walking_time": "약 8분"
      },
      {
        "pc_room_lat": 37.6020693327301,
        "pc_room_lon": 127.019324173459,
        "pc_room_type": "PC방",
        "pc_room_name": "맥PC카페",
        "distance": 577.823140317339,
        "walking_time": "약 9분"
      },
      {
        "pc_room_lat": 37.6026042927717,
        "pc_room_lon": 127.012281507183,
        "pc_room_type": "PC방",
        "pc_room_name": "보아스 셀프 PC - 2022년도 부터 안함 직권말소 대상",
        "distance": 699.8010808925517,
        "walking_time": "약 11분"
      },
      {
        "pc_room_lat": 37.5908139536716,
        "pc_room_lon": 127.017694871938,
        "pc_room_type": "PC방",
        "pc_room_name": "헬리우스",
        "distance": 731.1209393859501,
        "walking_time": "약 11분"
      },
      {
        "pc_room_lat": 37.5908419743847,
        "pc_room_lon": 127.01885953079,
        "pc_room_type": "PC방",
        "pc_room_name": "해피 PC방",
        "distance": 748.2915388574319,
        "walking_time": "약 12분"
      },
      {
        "pc_room_lat": 37.6034576002933,
        "pc_room_lon": 127.024541211803,
        "pc_room_type": "PC방",
        "pc_room_name": "제로100PC",
        "distance": 974.812886286348,
        "walking_time": "약 15분"
      }
    ],
    "police_office": [
      {
        "police_office_lat": 37.59732258,
        "police_office_lon": 127.0124034,
        "police_office_type": "경찰소",
        "police_office_name": "돈암지구대",
        "distance": 371.7563227607768,
        "walking_time": "약 6분"
      },
      {
        "police_office_lat": 37.60456095,
        "police_office_lon": 127.0107204,
        "police_office_type": "경찰소",
        "police_office_name": "정릉2파출소",
        "distance": 957.1716212083912,
        "walking_time": "약 15분"
      },
      {
        "police_office_lat": 37.58672153,
        "police_office_lon": 127.0165984,
        "police_office_type": "경찰소",
        "police_office_name": "안암지구대",
        "distance": 1180.0548136991652,
        "walking_time": "약 18분"
      },
      {
        "police_office_lat": 37.5861084,
        "police_office_lon": 127.0014075,
        "police_office_type": "경찰소",
        "police_office_name": "혜화파출소",
        "distance": 1831.7536262287324,
        "walking_time": "약 28분"
      }
    ],
    "post_office": [
      {
        "post_office_lat": 37.59019237,
        "post_office_lon": 127.0157069,
        "post_office_type": "우체국",
        "post_office_name": "서울돈암동우체국",
        "distance": 798.2043758336682,
        "walking_time": "약 12분"
      },
      {
        "post_office_lat": 37.60569395,
        "post_office_lon": 127.0115303,
        "post_office_type": "우체국",
        "post_office_name": "서울정릉우체국",
        "distance": 1032.1888301032038,
        "walking_time": "약 16분"
      },
      {
        "post_office_lat": 37.58964925,
        "post_office_lon": 127.0073916,
        "post_office_type": "우체국",
        "post_office_name": "서울동소문동우체국",
        "distance": 1179.7068917686831,
        "walking_time": "약 18분"
      },
      {
        "post_office_lat": 37.59264968,
        "post_office_lon": 127.0018981,
        "post_office_type": "우체국",
        "post_office_name": "서울성북2동우편취급국",
        "distance": 1397.9892695475248,
        "walking_time": "약 21분"
      },
      {
        "post_office_lat": 37.60731274,
        "post_office_lon": 127.0293543,
        "post_office_type": "우체국",
        "post_office_name": "서울성북우체국",
        "distance": 1577.6909978921678,
        "walking_time": "약 24분"
      },
      {
        "post_office_lat": 37.58323585,
        "post_office_lon": 127.01039,
        "post_office_type": "우체국",
        "post_office_name": "한성대학교우편취급국",
        "distance": 1661.057999608968,
        "walking_time": "약 25분"
      },
      {
        "post_office_lat": 37.5818354,
        "post_office_lon": 127.0246137,
        "post_office_type": "우체국",
        "post_office_name": "서울삼익아파트우편취급국",
        "distance": 1861.6393163225507,
        "walking_time": "약 28분"
      },
      {
        "post_office_lat": 37.58588676,
        "post_office_lon": 127.0007091,
        "post_office_type": "우체국",
        "post_office_name": "서울혜화동우체국",
        "distance": 1893.7359864436503,
        "walking_time": "약 29분"
      },
      {
        "post_office_lat": 37.58039622,
        "post_office_lon": 127.0110117,
        "post_office_type": "우체국",
        "post_office_name": "서울창신2동우편취급국",
        "distance": 1947.210876491656,
        "walking_time": "약 30분"
      }
    ],
    "public_health_center": [
      {
        "public_health_center_lat": 37.59360802,
        "public_health_center_lon": 127.015754,
        "public_health_center_type": "보건소",
        "public_health_center_name": "동선보건지소",
        "distance": 421.3248477679612,
        "walking_time": "약 7분"
      },
      {
        "public_health_center_lat": 37.60522963,
        "public_health_center_lon": 127.0119867,
        "public_health_center_type": "보건소",
        "public_health_center_name": "정릉아동보건지소",
        "distance": 968.3130132858188,
        "walking_time": "약 15분"
      }
    ],
    "school": [
      {
        "school_lat": 37.597674141541,
        "school_lon": 127.019187491701,
        "school_type": "고등학교",
        "school_name": "고명외식고등학교",
        "distance": 229.07954012157631,
        "walking_time": "약 4분"
      },
      {
        "school_lat": 37.597674141541,
        "school_lon": 127.019187491701,
        "school_type": "중학교",
        "school_name": "고명중학교",
        "distance": 229.07954012157631,
        "walking_time": "약 4분"
      },
      {
        "school_lat": 37.597674141541,
        "school_lon": 127.019187491701,
        "school_type": "초등학교",
        "school_name": "매원초등학교",
        "distance": 229.07954012157631,
        "walking_time": "약 4분"
      },
      {
        "school_lat": 37.5982399496277,
        "school_lon": 127.013421324355,
        "school_type": "초등학교",
        "school_name": "서울정덕초등학교",
        "distance": 299.5200700567417,
        "walking_time": "약 5분"
      },
      {
        "school_lat": 37.5956408923336,
        "school_lon": 127.011400646113,
        "school_type": "초등학교",
        "school_name": "우촌초등학교",
        "distance": 497.1309124099609,
        "walking_time": "약 8분"
      },
      {
        "school_lat": 37.5937262094153,
        "school_lon": 127.013004275409,
        "school_type": "초등학교",
        "school_name": "서울돈암초등학교",
        "distance": 512.4298117626893,
        "walking_time": "약 8분"
      },
      {
        "school_lat": 37.5942896306119,
        "school_lon": 127.022407171613,
        "school_type": "고등학교",
        "school_name": "성신여자고등학교",
        "distance": 611.7949364140903,
        "walking_time": "약 10분"
      },
      {
        "school_lat": 37.5946226781717,
        "school_lon": 127.023128563512,
        "school_type": "중학교",
        "school_name": "성신여자중학교",
        "distance": 647.6171385692631,
        "walking_time": "약 10분"
      },
      {
        "school_lat": 37.5946226781717,
        "school_lon": 127.023128563512,
        "school_type": "초등학교",
        "school_name": "성신초등학교",
        "distance": 647.6171385692631,
        "walking_time": "약 10분"
      },
      {
        "school_lat": 37.6038254756354,
        "school_lon": 127.013292433921,
        "school_type": "초등학교",
        "school_name": "서울숭덕초등학교",
        "distance": 779.1763451578972,
        "walking_time": "약 12분"
      }
    ],
    "self_laundromat": [
      {
        "self_laundromat_lat": 37.59575861,
        "self_laundromat_lon": 127.0169658,
        "self_laundromat_type": "셀프 빨래방",
        "self_laundromat_name": "워시타임 성신여대입구역점",
        "distance": 177.7598062089017,
        "walking_time": "약 3분"
      },
      {
        "self_laundromat_lat": 37.59575861,
        "self_laundromat_lon": 127.0169658,
        "self_laundromat_type": "셀프 빨래방",
        "self_laundromat_name": "워시타임 성신여대입구역점",
        "distance": 177.7598062089017,
        "walking_time": "약 3분"
      },
      {
        "self_laundromat_lat": 37.59360755,
        "self_laundromat_lon": 127.0200404,
        "self_laundromat_type": "셀프 빨래방",
        "self_laundromat_name": "셀피아 성북돈암점",
        "distance": 512.2003426709725,
        "walking_time": "약 8분"
      },
      {
        "self_laundromat_lat": 37.59360755,
        "self_laundromat_lon": 127.0200404,
        "self_laundromat_type": "셀프 빨래방",
        "self_laundromat_name": "셀피아 성북돈암점",
        "distance": 512.2003426709725,
        "walking_time": "약 8분"
      },
      {
        "self_laundromat_lat": 37.59267591,
        "self_laundromat_lon": 127.0122857,
        "self_laundromat_type": "셀프 빨래방",
        "self_laundromat_name": "크린토피아 코인워시 돈암초교점",
        "distance": 643.6661064055183,
        "walking_time": "약 10분"
      },
      {
        "self_laundromat_lat": 37.59267591,
        "self_laundromat_lon": 127.0122857,
        "self_laundromat_type": "셀프 빨래방",
        "self_laundromat_name": "크린토피아 코인워시 돈암초교점",
        "distance": 643.6661064055183,
        "walking_time": "약 10분"
      },
      {
        "self_laundromat_lat": 37.59212832,
        "self_laundromat_lon": 127.0128115,
        "self_laundromat_type": "셀프 빨래방",
        "self_laundromat_name": "워시프렌즈 셀프빨래방 동소문동점",
        "distance": 669.201889326098,
        "walking_time": "약 10분"
      },
      {
        "self_laundromat_lat": 37.59212832,
        "self_laundromat_lon": 127.0128115,
        "self_laundromat_type": "셀프 빨래방",
        "self_laundromat_name": "워시프렌즈 셀프빨래방 동소문동점",
        "distance": 669.201889326098,
        "walking_time": "약 10분"
      },
      {
        "self_laundromat_lat": 37.59176868,
        "self_laundromat_lon": 127.019748,
        "self_laundromat_type": "셀프 빨래방",
        "self_laundromat_name": "화이트365 성신여대점",
        "distance": 677.3203339993361,
        "walking_time": "약 11분"
      },
      {
        "self_laundromat_lat": 37.59176868,
        "self_laundromat_lon": 127.019748,
        "self_laundromat_type": "셀프 빨래방",
        "self_laundromat_name": "화이트365 성신여대점",
        "distance": 677.3203339993361,
        "walking_time": "약 11분"
      }
    ],
    "subway": [
      {
        "subway_lat": 37.5927179261346,
        "subway_lon": 127.016477649743,
        "subway_type": "지하철",
        "subway_name": "4호선-성신여대입구(돈암)역",
        "distance": 513.4437196245217,
        "walking_time": "약 8분"
      },
      {
        "subway_lat": 37.6034576002933,
        "subway_lon": 127.024541211803,
        "subway_type": "지하철",
        "subway_name": "4호선-길음역",
        "distance": 974.812886286348,
        "walking_time": "약 15분"
      },
      {
        "subway_lat": 37.5855493513282,
        "subway_lon": 127.019489277672,
        "subway_type": "지하철",
        "subway_name": "6호선-보문역",
        "distance": 1334.5069112288577,
        "walking_time": "약 20분"
      },
      {
        "subway_lat": 37.5883948842004,
        "subway_lon": 127.00595033342,
        "subway_type": "지하철",
        "subway_name": "4호선-한성대입구(삼선교)역",
        "distance": 1368.297690964971,
        "walking_time": "약 21분"
      },
      {
        "subway_lat": 37.5864696091911,
        "subway_lon": 127.0291828742,
        "subway_type": "지하철",
        "subway_name": "6호선-안암(고대병원앞)역",
        "distance": 1638.3058502548242,
        "walking_time": "약 25분"
      },
      {
        "subway_lat": 37.5800168892429,
        "subway_lon": 127.015211194258,
        "subway_type": "지하철",
        "subway_name": "6호선-창신역",
        "distance": 1929.5888582036089,
        "walking_time": "약 29분"
      },
      {
        "subway_lat": 37.5818758763205,
        "subway_lon": 127.002292683609,
        "subway_type": "지하철",
        "subway_name": "4호선-혜화역",
        "distance": 2132.7914495765563,
        "walking_time": "약 32분"
      }
    ],
    "supermarket": [
      {
        "supermarket_lat": 37.59738598,
        "supermarket_lon": 127.019323,
        "supermarket_type": "마트",
        "supermarket_name": "GS슈퍼마켓 돈암점",
        "distance": 237.9448400785124,
        "walking_time": "약 4분"
      },
      {
        "supermarket_lat": 37.59447253,
        "supermarket_lon": 127.012706,
        "supermarket_type": "마트",
        "supermarket_name": "동소문스카이상가",
        "distance": 469.3974161159295,
        "walking_time": "약 8분"
      },
      {
        "supermarket_lat": 37.59447253,
        "supermarket_lon": 127.012706,
        "supermarket_type": "마트",
        "supermarket_name": "동소문스카이상가",
        "distance": 469.3974161159295,
        "walking_time": "약 8분"
      },
      {
        "supermarket_lat": 37.59447253,
        "supermarket_lon": 127.012706,
        "supermarket_type": "마트",
        "supermarket_name": "GS슈퍼마켓 동소문점",
        "distance": 469.3974161159295,
        "walking_time": "약 8분"
      },
      {
        "supermarket_lat": 37.59257476,
        "supermarket_lon": 127.0170888,
        "supermarket_type": "마트",
        "supermarket_name": "유타쇼핑몰",
        "distance": 530.7922249632348,
        "walking_time": "약 8분"
      },
      {
        "supermarket_lat": 37.59153653,
        "supermarket_lon": 127.0159183,
        "supermarket_type": "마트",
        "supermarket_name": "돈암시장",
        "distance": 647.6322583843794,
        "walking_time": "약 10분"
      },
      {
        "supermarket_lat": 37.60322851,
        "supermarket_lon": 127.0178662,
        "supermarket_type": "마트",
        "supermarket_name": "롯데슈퍼 정릉점",
        "distance": 664.527298625398,
        "walking_time": "약 10분"
      },
      {
        "supermarket_lat": 37.60278063,
        "supermarket_lon": 127.021592,
        "supermarket_type": "마트",
        "supermarket_name": "길음시장",
        "distance": 747.2831493607902,
        "walking_time": "약 12분"
      },
      {
        "supermarket_lat": 37.60434216,
        "supermarket_lon": 127.0224292,
        "supermarket_type": "마트",
        "supermarket_name": "이마트에브리데이 길음점",
        "distance": 932.1530944249814,
        "walking_time": "약 14분"
      },
      {
        "supermarket_lat": 37.60434216,
        "supermarket_lon": 127.0224292,
        "supermarket_type": "마트",
        "supermarket_name": "이마트에브리데이 길음점",
        "distance": 932.1530944249814,
        "walking_time": "약 14분"
      }
    ],
    "tax_office": [
      {
        "tax_office_lat": 37.58790069,
        "tax_office_lon": 127.0109264,
        "tax_office_type": "세무서",
        "tax_office_name": "성북세무서",
        "distance": 1162.834059889193,
        "walking_time": "약 18분"
      }
    ],
    "theater": [
      {
        "theater_lat": 37.6001190917898,
        "theater_lon": 127.013893650352,
        "theater_type": "영화관",
        "theater_name": "아리랑시네센터",
        "distance": 392.07879008936686,
        "walking_time": "약 6분"
      },
      {
        "theater_lat": 37.5925747617089,
        "theater_lon": 127.017088831326,
        "theater_type": "영화관",
        "theater_name": "CGV 성신여대입구",
        "distance": 530.7922489088347,
        "walking_time": "약 8분"
      }
    ],
    "university": [
      {
        "university_lat": 37.5946591280857,
        "university_lon": 127.019888420673,
        "university_type": "대학교",
        "university_name": "성신여자대학교",
        "distance": 413.8042915719016,
        "walking_time": "약 7분"
      },
      {
        "university_lat": 37.5832358514072,
        "university_lon": 127.010390004805,
        "university_type": "대학교",
        "university_name": "한성대학교",
        "distance": 1661.0577119565678,
        "walking_time": "약 25분"
      },
      {
        "university_lat": 37.5849009775207,
        "university_lon": 127.004770664086,
        "university_type": "대학교",
        "university_name": "가톨릭대학교",
        "distance": 1732.5806461685484,
        "walking_time": "약 26분"
      }
    ]
  }
}