{
  "클러스터_위도": 37.55149100001447,
  "클러스터_경도": 127.00771799988318,
  "클러스터_level": 4.0,
  "facilities": {
    "bus": [
      {
        "bus_lat": 37.55026765,
        "bus_lon": 127.0077187,
        "bus_type": "버스정류장",
        "bus_name": "송도병원앞",
        "distance": 136.03032912167083,
        "walking_time": "약 3분"
      },
      {
        "bus_lat": 37.55022712,
        "bus_lon": 127.0073984,
        "bus_type": "버스정류장",
        "bus_name": "송도병원앞",
        "distance": 143.33347594420167,
        "walking_time": "약 3분"
      },
      {
        "bus_lat": 37.55285097,
        "bus_lon": 127.0092978,
        "bus_type": "버스정류장",
        "bus_name": "약수역7번출구.약수동주민센터",
        "distance": 205.5808397996316,
        "walking_time": "약 4분"
      },
      {
        "bus_lat": 37.55173322,
        "bus_lon": 127.01085,
        "bus_type": "버스정류장",
        "bus_name": "약수시장.남산타운동문",
        "distance": 277.4147079485387,
        "walking_time": "약 5분"
      },
      {
        "bus_lat": 37.55378896,
        "bus_lon": 127.0098978,
        "bus_type": "버스정류장",
        "bus_name": "약수역",
        "distance": 319.71315744547604,
        "walking_time": "약 5분"
      },
      {
        "bus_lat": 37.55386465,
        "bus_lon": 127.0099567,
        "bus_type": "버스정류장",
        "bus_name": "약수역8번출구.신당사회복지관",
        "distance": 329.5616400021431,
        "walking_time": "약 5분"
      },
      {
        "bus_lat": 37.55190274,
        "bus_lon": 127.0121656,
        "bus_type": "버스정류장",
        "bus_name": "중구청소년센터.남산타운2상가",
        "distance": 394.745557720914,
        "walking_time": "약 6분"
      },
      {
        "bus_lat": 37.55292373,
        "bus_lon": 127.0118693,
        "bus_type": "버스정류장",
        "bus_name": "약수역5번출구.금호터널입구",
        "distance": 399.1315873157157,
        "walking_time": "약 6분"
      },
      {
        "bus_lat": 37.5528411,
        "bus_lon": 127.0119578,
        "bus_type": "버스정류장",
        "bus_name": "약수지구대",
        "distance": 402.7830066297586,
        "walking_time": "약 7분"
      },
      {
        "bus_lat": 37.55330466,
        "bus_lon": 127.0117056,
        "bus_type": "버스정류장",
        "bus_name": "약수역.3.6호선",
        "distance": 405.26737686589325,
        "walking_time": "약 7분"
      }
    ],
    "community_center": [
      {
        "community_center_lat": 37.55247345,
        "community_center_lon": 127.0089948,
        "community_center_type": "주민센터",
        "community_center_name": "약수동 자치회관",
        "distance": 156.85399545053343,
        "walking_time": "약 3분"
      },
      {
        "community_center_lat": 37.55433289,
        "community_center_lon": 127.0082945,
        "community_center_type": "주민센터",
        "community_center_name": "다산동 자치회관",
        "distance": 320.06427548855663,
        "walking_time": "약 5분"
      },
      {
        "community_center_lat": 37.55706761,
        "community_center_lon": 127.0146854,
        "community_center_type": "주민센터",
        "community_center_name": "청구동 자치회관",
        "distance": 872.7818620802879,
        "walking_time": "약 14분"
      },
      {
        "community_center_lat": 37.54364027,
        "community_center_lon": 127.0134149,
        "community_center_type": "주민센터",
        "community_center_name": "옥수동 자치회관",
        "distance": 1007.1290408752895,
        "walking_time": "약 16분"
      },
      {
        "community_center_lat": 37.56190715,
        "community_center_lon": 127.0078401,
        "community_center_type": "주민센터",
        "community_center_name": "장충동 자치회관",
        "distance": 1158.2730420349642,
        "walking_time": "약 18분"
      },
      {
        "community_center_lat": 37.56203798,
        "community_center_lon": 127.0144679,
        "community_center_type": "주민센터",
        "community_center_name": "신당동 자치회관",
        "distance": 1315.0735716487611,
        "walking_time": "약 20분"
      },
      {
        "community_center_lat": 37.55986467,
        "community_center_lon": 127.0190343,
        "community_center_type": "주민센터",
        "community_center_name": "동화동 자치회관",
        "distance": 1364.572649744045,
        "walking_time": "약 21분"
      },
      {
        "community_center_lat": 37.56015769,
        "community_center_lon": 126.9955974,
        "community_center_type": "주민센터",
        "community_center_name": "필동 자치회관",
        "distance": 1438.843044301433,
        "walking_time": "약 22분"
      },
      {
        "community_center_lat": 37.56446028,
        "community_center_lon": 127.005037,
        "community_center_type": "주민센터",
        "community_center_name": "광희동 자치회관",
        "distance": 1461.3536649801258,
        "walking_time": "약 22분"
      },
      {
        "community_center_lat": 37.54190386,
        "community_center_lon": 126.9901955,
        "community_center_type": "주민센터",
        "community_center_name": "이태원2동 자치회관",
        "distance": 1876.936518916904,
        "walking_time": "약 29분"
      }
    ],
    "convenience_store": [
      {
        "convenience_store_lat": 37.55176796,
        "convenience_store_lon": 127.0078094,
        "convenience_store_type": "편의점",
        "convenience_store_name": "CU 청구대로점",
        "distance": 31.83315501005736,
        "walking_time": "약 1분"
      },
      {
        "convenience_store_lat": 37.55322824,
        "convenience_store_lon": 127.0086444,
        "convenience_store_type": "편의점",
        "convenience_store_name": "CU 신당행운점",
        "distance": 209.7259856339452,
        "walking_time": "약 4분"
      },
      {
        "convenience_store_lat": 37.5532745,
        "convenience_store_lon": 127.0093031,
        "convenience_store_type": "편의점",
        "convenience_store_name": "GS25 약수사랑점",
        "distance": 242.6004962260502,
        "walking_time": "약 4분"
      },
      {
        "convenience_store_lat": 37.55268551,
        "convenience_store_lon": 127.0104893,
        "convenience_store_type": "편의점",
        "convenience_store_name": "세븐일레븐 약수시장점",
        "distance": 278.0771277341357,
        "walking_time": "약 5분"
      },
      {
        "convenience_store_lat": 37.55354752,
        "convenience_store_lon": 127.0102082,
        "convenience_store_type": "편의점",
        "convenience_store_name": "미니스톱 약수점",
        "distance": 316.98964608973785,
        "walking_time": "약 5분"
      },
      {
        "convenience_store_lat": 37.55389144,
        "convenience_store_lon": 127.0101205,
        "convenience_store_type": "편의점",
        "convenience_store_name": "세븐일레븐 S약수역점",
        "distance": 340.73470720375826,
        "walking_time": "약 6분"
      },
      {
        "convenience_store_lat": 37.55389144,
        "convenience_store_lon": 127.0101205,
        "convenience_store_type": "편의점",
        "convenience_store_name": "GS25 S6약수역점",
        "distance": 340.73470720375826,
        "walking_time": "약 6분"
      },
      {
        "convenience_store_lat": 37.55446185,
        "convenience_store_lon": 127.0091879,
        "convenience_store_type": "편의점",
        "convenience_store_name": "CU 신당백석점",
        "distance": 354.8481816558703,
        "walking_time": "약 6분"
      },
      {
        "convenience_store_lat": 37.54828944,
        "convenience_store_lon": 127.0070333,
        "convenience_store_type": "편의점",
        "convenience_store_name": "GS25 버티고개역점",
        "distance": 361.0783336006151,
        "walking_time": "약 6분"
      },
      {
        "convenience_store_lat": 37.55332531,
        "convenience_store_lon": 127.0114919,
        "convenience_store_type": "편의점",
        "convenience_store_name": "CU 약수역사거리점",
        "distance": 390.2349428081597,
        "walking_time": "약 6분"
      }
    ],
    "daycare": [
      {
        "daycare_lat": 37.55217869,
        "daycare_lon": 127.0081259,
        "daycare_type": "어린이집",
        "daycare_name": "참진어린이집",
        "distance": 84.50044942043422,
        "walking_time": "약 2분"
      },
      {
        "daycare_lat": 37.55230956,
        "daycare_lon": 127.0092242,
        "daycare_type": "어린이집",
        "daycare_name": "약수어린이집",
        "distance": 160.98160193930948,
        "walking_time": "약 3분"
      },
      {
        "daycare_lat": 37.55319537,
        "daycare_lon": 127.0089126,
        "daycare_type": "어린이집",
        "daycare_name": "사랑아이어린이집",
        "distance": 216.8109618308398,
        "walking_time": "약 4분"
      },
      {
        "daycare_lat": 37.54916083,
        "daycare_lon": 127.0093802,
        "daycare_type": "어린이집",
        "daycare_name": "키즈월드어린이집",
        "distance": 297.6692341147078,
        "walking_time": "약 5분"
      },
      {
        "daycare_lat": 37.55133633029728,
        "daycare_lon": 127.0112530577143,
        "daycare_type": "어린이집",
        "daycare_name": "한솔어린이집",
        "distance": 312.1110839177085,
        "walking_time": "약 5분"
      },
      {
        "daycare_lat": 37.55432868,
        "daycare_lon": 127.0082457,
        "daycare_type": "어린이집",
        "daycare_name": "다산어린이집",
        "distance": 318.946308385454,
        "walking_time": "약 5분"
      },
      {
        "daycare_lat": 37.55235768,
        "daycare_lon": 127.011203,
        "daycare_type": "어린이집",
        "daycare_name": "약수교회어린이집",
        "distance": 321.9822018433083,
        "walking_time": "약 5분"
      },
      {
        "daycare_lat": 37.54953333,
        "daycare_lon": 127.0118978,
        "daycare_type": "어린이집",
        "daycare_name": "남산타운어린이집",
        "distance": 427.97530653914896,
        "walking_time": "약 7분"
      },
      {
        "daycare_lat": 37.54955905,
        "daycare_lon": 127.0127112,
        "daycare_type": "어린이집",
        "daycare_name": "구립 금옥어린이집",
        "distance": 489.8090105232784,
        "walking_time": "약 8분"
      },
      {
        "daycare_lat": 37.55576832,
        "daycare_lon": 127.0092927,
        "daycare_type": "어린이집",
        "daycare_name": "신당삼성어린이집",
        "distance": 495.4599162648791,
        "walking_time": "약 8분"
      }
    ],
    "education": [
      {
        "education_lat": 37.55128171,
        "education_lon": 127.0076057,
        "education_type": "도서관",
        "education_name": "느티나무어린이도서관",
        "distance": 25.29019325402648,
        "walking_time": "약 1분"
      },
      {
        "education_lat": 37.55604739,
        "education_lon": 127.0116293,
        "education_type": "미술관/갤러리",
        "education_name": "RNL 로즈앤라임 갤러리",
        "distance": 612.8413803805249,
        "walking_time": "약 10분"
      },
      {
        "education_lat": 37.54589421,
        "education_lon": 127.0108024,
        "education_type": "도서관",
        "education_name": "성동구립매봉산숲속도서관",
        "distance": 679.1466233981507,
        "walking_time": "약 11분"
      },
      {
        "education_lat": 37.55199491,
        "education_lon": 126.9992673,
        "education_type": "공연장",
        "education_name": "국립극장",
        "distance": 747.0815742229854,
        "walking_time": "약 12분"
      },
      {
        "education_lat": 37.55821033013079,
        "education_lon": 127.00232862783749,
        "education_type": "박물관/기념관",
        "education_name": "동국대학교 박물관",
        "distance": 885.4072940097931,
        "walking_time": "약 14분"
      },
      {
        "education_lat": 37.55968044,
        "education_lon": 127.0062029,
        "education_type": "박물관/기념관",
        "education_name": "종이나라박물관",
        "distance": 920.3662755205344,
        "walking_time": "약 14분"
      },
      {
        "education_lat": 37.55962115,
        "education_lon": 127.0041031,
        "education_type": "박물관/기념관",
        "education_name": "한국현대문학관",
        "distance": 958.5486805211956,
        "walking_time": "약 15분"
      },
      {
        "education_lat": 37.54288685,
        "education_lon": 127.0032009,
        "education_type": "미술관/갤러리",
        "education_name": "BHAK",
        "distance": 1036.3089998170135,
        "walking_time": "약 16분"
      },
      {
        "education_lat": 37.54245141,
        "education_lon": 127.0025167,
        "education_type": "미술관/갤러리",
        "education_name": "스튜디오 콘크리트",
        "distance": 1104.812688450888,
        "walking_time": "약 17분"
      },
      {
        "education_lat": 37.55893664,
        "education_lon": 126.9987376,
        "education_type": "공연장",
        "education_name": "동국대학교서울캠퍼스 이해랑예술극장",
        "distance": 1145.4848998786529,
        "walking_time": "약 18분"
      }
    ],
    "electric_gas_station": [
      {
        "electric_gas_station_lat": 37.56059897,
        "electric_gas_station_lon": 127.002136,
        "electric_gas_station_type": "전기차 충전소",
        "electric_gas_station_name": "그랜드앰배서더 서울",
        "distance": 1125.967460339177,
        "walking_time": "약 17분"
      }
    ],
    "fitness": [
      {
        "fitness_lat": 37.55317661,
        "fitness_lon": 127.0098727,
        "fitness_type": "운동시설",
        "fitness_name": "파크짐 약수점",
        "distance": 266.85308940810734,
        "walking_time": "약 4분"
      },
      {
        "fitness_lat": 37.55366191,
        "fitness_lon": 127.0096223,
        "fitness_type": "운동시설",
        "fitness_name": "제이현핏 PT 스튜디오",
        "distance": 294.028065397015,
        "walking_time": "약 5분"
      },
      {
        "fitness_lat": 37.55320546,
        "fitness_lon": 127.0107186,
        "fitness_type": "운동시설",
        "fitness_name": "관리의 기술 PT 약수점",
        "distance": 326.056773854759,
        "walking_time": "약 5분"
      },
      {
        "fitness_lat": 37.55405094,
        "fitness_lon": 127.0098802,
        "fitness_type": "운동시설",
        "fitness_name": "베네짐",
        "distance": 342.57586676183735,
        "walking_time": "약 6분"
      },
      {
        "fitness_lat": 37.55410771,
        "fitness_lon": 127.0117476,
        "fitness_type": "운동시설",
        "fitness_name": "스포니스 약수점",
        "distance": 459.1806936270549,
        "walking_time": "약 7분"
      },
      {
        "fitness_lat": 37.54715055,
        "fitness_lon": 127.0057062,
        "fitness_type": "운동시설",
        "fitness_name": "핏 슈브",
        "distance": 514.1917662068748,
        "walking_time": "약 8분"
      },
      {
        "fitness_lat": 37.54715055,
        "fitness_lon": 127.0057062,
        "fitness_type": "운동시설",
        "fitness_name": "UNO GYM",
        "distance": 514.1917662068748,
        "walking_time": "약 8분"
      },
      {
        "fitness_lat": 37.55613618,
        "fitness_lon": 127.0111327,
        "fitness_type": "운동시설",
        "fitness_name": "델피 운동센터",
        "distance": 597.8332171318175,
        "walking_time": "약 9분"
      },
      {
        "fitness_lat": 37.55701848,
        "fitness_lon": 127.0096605,
        "fitness_type": "운동시설",
        "fitness_name": "키네틱 피티 스튜디오",
        "distance": 638.0354619825413,
        "walking_time": "약 10분"
      },
      {
        "fitness_lat": 37.55731485,
        "fitness_lon": 127.0093,
        "fitness_type": "운동시설",
        "fitness_name": "핏앤힐 (Fit and Hill)",
        "distance": 662.4285167179497,
        "walking_time": "약 10분"
      }
    ],
    "gas_station": [
      {
        "gas_station_lat": 37.55603768,
        "gas_station_lon": 127.0092769,
        "gas_station_type": "주유소",
        "gas_station_name": "현대오일뱅크(주) 직영장원주유소",
        "distance": 523.9118333851492,
        "walking_time": "약 8분"
      },
      {
        "gas_station_lat": 37.54607279,
        "gas_station_lon": 127.0028964,
        "gas_station_type": "주유소",
        "gas_station_name": "현대오일뱅크㈜ 직영한남동주유소",
        "distance": 737.334549748339,
        "walking_time": "약 12분"
      },
      {
        "gas_station_lat": 37.55903679,
        "gas_station_lon": 127.012668,
        "gas_station_type": "주유소",
        "gas_station_name": "약수주유소",
        "distance": 945.733735629272,
        "walking_time": "약 15분"
      },
      {
        "gas_station_lat": 37.56084671,
        "gas_station_lon": 127.0034149,
        "gas_station_type": "주유소",
        "gas_station_name": "씨앤에스유통(주) 장충드림주유소",
        "distance": 1107.3046182680364,
        "walking_time": "약 17분"
      },
      {
        "gas_station_lat": 37.54084963,
        "gas_station_lon": 127.0113829,
        "gas_station_type": "주유소",
        "gas_station_name": "옥수주유소",
        "distance": 1226.5874423992782,
        "walking_time": "약 19분"
      },
      {
        "gas_station_lat": 37.56275432,
        "gas_station_lon": 127.0070337,
        "gas_station_type": "주유소",
        "gas_station_name": "서울석유(주) 장충주유소",
        "distance": 1253.8758101418366,
        "walking_time": "약 19분"
      },
      {
        "gas_station_lat": 37.5617133,
        "gas_station_lon": 126.9971343,
        "gas_station_type": "주유소",
        "gas_station_name": "SK에너지 직영 퇴계로주유소",
        "distance": 1470.5150519107096,
        "walking_time": "약 22분"
      },
      {
        "gas_station_lat": 37.56396821,
        "gas_station_lon": 127.0157064,
        "gas_station_type": "주유소",
        "gas_station_name": "주식회사 타이거통상 다산주유소",
        "distance": 1555.8714315288132,
        "walking_time": "약 24분"
      },
      {
        "gas_station_lat": 37.56087822,
        "gas_station_lon": 126.9936634,
        "gas_station_type": "주유소",
        "gas_station_name": "필동주유소",
        "distance": 1620.0193761330147,
        "walking_time": "약 25분"
      },
      {
        "gas_station_lat": 37.56460799,
        "gas_station_lon": 127.016496,
        "gas_station_type": "주유소",
        "gas_station_name": "신당동주유소",
        "distance": 1651.0783106007525,
        "walking_time": "약 25분"
      }
    ],
    "hospital": [
      {
        "hospital_lat": 37.5511666,
        "hospital_lon": 127.0083817,
        "hospital_type": "병원",
        "hospital_name": "서울송도병원",
        "distance": 68.73498358485574,
        "walking_time": "약 2분"
      },
      {
        "hospital_lat": 37.55232137,
        "hospital_lon": 127.0088751,
        "hospital_type": "병원",
        "hospital_name": "명신의원",
        "distance": 137.5875658963854,
        "walking_time": "약 3분"
      },
      {
        "hospital_lat": 37.5527413,
        "hospital_lon": 127.0092088,
        "hospital_type": "병원",
        "hospital_name": "나이스피부과의원",
        "distance": 191.3118361620514,
        "walking_time": "약 3분"
      },
      {
        "hospital_lat": 37.55344037,
        "hospital_lon": 127.0093828,
        "hospital_type": "병원",
        "hospital_name": "뉴욕바른라인치과의원",
        "distance": 261.7698902800678,
        "walking_time": "약 4분"
      },
      {
        "hospital_lat": 37.55344037,
        "hospital_lon": 127.0093828,
        "hospital_type": "병원",
        "hospital_name": "다나슬한의원",
        "distance": 261.7698902800678,
        "walking_time": "약 4분"
      },
      {
        "hospital_lat": 37.55317661,
        "hospital_lon": 127.0098727,
        "hospital_type": "병원",
        "hospital_name": "리메이의원",
        "distance": 266.85308940810734,
        "walking_time": "약 4분"
      },
      {
        "hospital_lat": 37.55317661,
        "hospital_lon": 127.0098727,
        "hospital_type": "병원",
        "hospital_name": "연세이도치과의원",
        "distance": 266.85308940810734,
        "walking_time": "약 4분"
      },
      {
        "hospital_lat": 37.55180205,
        "hospital_lon": 127.0108897,
        "hospital_type": "병원",
        "hospital_name": "심미치과의원",
        "distance": 281.73491185989195,
        "walking_time": "약 5분"
      },
      {
        "hospital_lat": 37.55267135,
        "hospital_lon": 127.0106335,
        "hospital_type": "병원",
        "hospital_name": "이튼튼치과의원",
        "distance": 288.58951819789314,
        "walking_time": "약 5분"
      },
      {
        "hospital_lat": 37.55334751,
        "hospital_lon": 127.0100805,
        "hospital_type": "병원",
        "hospital_name": "약수소생한의원",
        "distance": 293.2403617391554,
        "walking_time": "약 5분"
      }
    ],
    "music_room": [
      {
        "music_room_lat": 37.54837648,
        "music_room_lon": 127.0069432,
        "music_room_type": "노래방",
        "music_room_name": "티티카카 노래연습장",
        "distance": 352.9904503772994,
        "walking_time": "약 6분"
      },
      {
        "music_room_lat": 37.55384517,
        "music_room_lon": 127.0106918,
        "music_room_type": "노래방",
        "music_room_name": "세븐노래연습장",
        "distance": 370.4716797897362,
        "walking_time": "약 6분"
      },
      {
        "music_room_lat": 37.55302419,
        "music_room_lon": 127.0114737,
        "music_room_type": "노래방",
        "music_room_name": "신안",
        "distance": 372.3991232087353,
        "walking_time": "약 6분"
      },
      {
        "music_room_lat": 37.55461255,
        "music_room_lon": 127.0096332,
        "music_room_type": "노래방",
        "music_room_name": "썸뮤직 노래연습장",
        "distance": 385.98354938915526,
        "walking_time": "약 6분"
      },
      {
        "music_room_lat": 37.55332531,
        "music_room_lon": 127.0114919,
        "music_room_type": "노래방",
        "music_room_name": "엄지노래연습장",
        "distance": 390.2349428081597,
        "walking_time": "약 6분"
      },
      {
        "music_room_lat": 37.55460538,
        "music_room_lon": 127.0102448,
        "music_room_type": "노래방",
        "music_room_name": "용가리 노래연습장",
        "distance": 411.75549114803744,
        "walking_time": "약 7분"
      },
      {
        "music_room_lat": 37.55487847,
        "music_room_lon": 127.0102327,
        "music_room_type": "노래방",
        "music_room_name": "베스타코인 노래연습장",
        "distance": 437.0609774677956,
        "walking_time": "약 7분"
      },
      {
        "music_room_lat": 37.5551533,
        "music_room_lon": 127.0099803,
        "music_room_type": "노래방",
        "music_room_name": "티파니 노래연습장",
        "distance": 453.4402909682101,
        "walking_time": "약 7분"
      },
      {
        "music_room_lat": 37.55475657,
        "music_room_lon": 127.0111656,
        "music_room_type": "노래방",
        "music_room_name": "플로렌스노래연습장",
        "distance": 473.5184437329401,
        "walking_time": "약 8분"
      },
      {
        "music_room_lat": 37.5554222,
        "music_room_lon": 127.0105016,
        "music_room_type": "노래방",
        "music_room_name": "가요톱10 노래연습장",
        "distance": 501.2941086501868,
        "walking_time": "약 8분"
      }
    ],
    "outdoor_sports": [
      {
        "outdoor_sports_lat": 37.5511796049381,
        "outdoor_sports_lon": 127.004411924978,
        "outdoor_sports_type": "야외 체육시설",
        "outdoor_sports_name": "마루소공원",
        "distance": 293.5005614113779,
        "walking_time": "약 5분"
      },
      {
        "outdoor_sports_lat": 37.5486322984133,
        "outdoor_sports_lon": 127.010267623394,
        "outdoor_sports_type": "야외 체육시설",
        "outdoor_sports_name": "쌈지공원",
        "distance": 389.312704798224,
        "walking_time": "약 6분"
      },
      {
        "outdoor_sports_lat": 37.549903813208,
        "outdoor_sports_lon": 127.01277553368,
        "outdoor_sports_type": "야외 체육시설",
        "outdoor_sports_name": "응봉근린공원황톳길",
        "distance": 479.5163052680916,
        "walking_time": "약 8분"
      },
      {
        "outdoor_sports_lat": 37.5470262871571,
        "outdoor_sports_lon": 127.008923620673,
        "outdoor_sports_type": "야외 체육시설",
        "outdoor_sports_name": "응봉근린공원남산실버데이케어",
        "distance": 507.7033451010409,
        "walking_time": "약 8분"
      },
      {
        "outdoor_sports_lat": 37.5516395461676,
        "outdoor_sports_lon": 127.014673197932,
        "outdoor_sports_type": "야외 체육시설",
        "outdoor_sports_name": "응봉근린공원신당동 309-61",
        "distance": 613.3642568435158,
        "walking_time": "약 10분"
      },
      {
        "outdoor_sports_lat": 37.5456388047319,
        "outdoor_sports_lon": 127.008147640408,
        "outdoor_sports_type": "야외 체육시설",
        "outdoor_sports_name": "매봉산황톳길",
        "distance": 651.8358304190929,
        "walking_time": "약 10분"
      },
      {
        "outdoor_sports_lat": 37.545620718015,
        "outdoor_sports_lon": 127.006291839014,
        "outdoor_sports_type": "야외 체육시설",
        "outdoor_sports_name": "유아숲동네숲터 인근",
        "distance": 664.7440981169234,
        "walking_time": "약 10분"
      },
      {
        "outdoor_sports_lat": 37.5453676257607,
        "outdoor_sports_lon": 127.006321578328,
        "outdoor_sports_type": "야외 체육시설",
        "outdoor_sports_name": "응봉근린공원체육회",
        "distance": 691.9279238638285,
        "walking_time": "약 11분"
      },
      {
        "outdoor_sports_lat": 37.544334263821,
        "outdoor_sports_lon": 127.007913943299,
        "outdoor_sports_type": "야외 체육시설",
        "outdoor_sports_name": "응봉근린공원팔각정 인근",
        "distance": 795.9802234018173,
        "walking_time": "약 12분"
      },
      {
        "outdoor_sports_lat": 37.5577182811759,
        "outdoor_sports_lon": 127.016893786719,
        "outdoor_sports_type": "야외 체육시설",
        "outdoor_sports_name": "응봉근린공원 삼성아파트 데크운동기구",
        "distance": 1064.7730269454423,
        "walking_time": "약 16분"
      }
    ],
    "park": [
      {
        "park_lat": 37.5494726,
        "park_lon": 127.0189457,
        "park_type": "공원",
        "park_name": "금호근린공원",
        "distance": 1014.9287901782084,
        "walking_time": "약 16분"
      },
      {
        "park_lat": 37.5501402,
        "park_lon": 126.9903773,
        "park_type": "공원",
        "park_name": "남산공원",
        "distance": 1536.0618610622864,
        "walking_time": "약 23분"
      },
      {
        "park_lat": 37.5675245,
        "park_lon": 127.0038188,
        "park_type": "공원",
        "park_name": "훈련원근린공원",
        "distance": 1815.671364073267,
        "walking_time": "약 28분"
      }
    ],
    "park_station": [
      {
        "park_station_lat": 37.55216182,
        "park_station_lon": 127.0056912,
        "park_station_type": "주차장",
        "park_station_name": "공유) 다산동 03",
        "distance": 193.6188177844384,
        "walking_time": "약 3분"
      },
      {
        "park_station_lat": 37.5521231,
        "park_station_lon": 127.0051948,
        "park_station_type": "주차장",
        "park_station_name": "충현어린이공원 공영주차장",
        "distance": 233.2748710715096,
        "walking_time": "약 4분"
      },
      {
        "park_station_lat": 37.55052159,
        "park_station_lon": 127.0048315,
        "park_station_type": "주차장",
        "park_station_name": "성곽 공영주차장",
        "distance": 276.3536247482566,
        "walking_time": "약 5분"
      },
      {
        "park_station_lat": 37.55166407,
        "park_station_lon": 127.004425,
        "park_station_type": "주차장",
        "park_station_name": "다산아트 공영주차장",
        "distance": 290.9345356433222,
        "walking_time": "약 5분"
      },
      {
        "park_station_lat": 37.54908021,
        "park_station_lon": 127.0059327,
        "park_station_type": "주차장",
        "park_station_name": "버티 공영주차장",
        "distance": 310.85535829876784,
        "walking_time": "약 5분"
      },
      {
        "park_station_lat": 37.55454227,
        "park_station_lon": 127.008499,
        "park_station_type": "주차장",
        "park_station_name": "다산동 공영주차장",
        "distance": 346.20069595394926,
        "walking_time": "약 6분"
      },
      {
        "park_station_lat": 37.5547745,
        "park_station_lon": 127.0078911,
        "park_station_type": "주차장",
        "park_station_name": "거주자우선주차장",
        "distance": 365.4272809330522,
        "walking_time": "약 6분"
      },
      {
        "park_station_lat": 37.55223527,
        "park_station_lon": 127.0133311,
        "park_station_type": "주차장",
        "park_station_name": "약수동 공영주차장",
        "distance": 501.6989139162413,
        "walking_time": "약 8분"
      },
      {
        "park_station_lat": 37.55654021,
        "park_station_lon": 127.010953,
        "park_station_type": "주차장",
        "park_station_name": "문화공영주차장",
        "distance": 629.7197727738754,
        "walking_time": "약 10분"
      },
      {
        "park_station_lat": 37.547311,
        "park_station_lon": 127.0025828,
        "park_station_type": "주차장",
        "park_station_name": "장충단로 관광버스전용 주차장",
        "distance": 648.8310870147952,
        "walking_time": "약 10분"
      }
    ],
    "pc_room": [
      {
        "pc_room_lat": 37.5518020452993,
        "pc_room_lon": 127.010889689197,
        "pc_room_type": "PC방",
        "pc_room_name": "PC토랑",
        "distance": 281.7339025572957,
        "walking_time": "약 5분"
      },
      {
        "pc_room_lat": 37.5537867198009,
        "pc_room_lon": 127.010377766718,
        "pc_room_type": "PC방",
        "pc_room_name": "콤마PC카페약수점",
        "distance": 346.6129613292904,
        "walking_time": "약 6분"
      },
      {
        "pc_room_lat": 37.5556464697381,
        "pc_room_lon": 127.010372365931,
        "pc_room_type": "PC방",
        "pc_room_name": "THE RED'S PC방",
        "distance": 517.9364801531801,
        "walking_time": "약 8분"
      },
      {
        "pc_room_lat": 37.5555099656473,
        "pc_room_lon": 127.01138242008,
        "pc_room_type": "PC방",
        "pc_room_name": "1프로 pc 아레나",
        "distance": 551.4154734459465,
        "walking_time": "약 9분"
      },
      {
        "pc_room_lat": 37.557547102304,
        "pc_room_lon": 127.012459378311,
        "pc_room_type": "PC방",
        "pc_room_name": "W 피씨방",
        "distance": 792.5730289024674,
        "walking_time": "약 12분"
      },
      {
        "pc_room_lat": 37.5464825265845,
        "pc_room_lon": 127.014460917697,
        "pc_room_type": "PC방",
        "pc_room_name": "제노PC방",
        "distance": 814.5707593239003,
        "walking_time": "약 13분"
      },
      {
        "pc_room_lat": 37.5484801801775,
        "pc_room_lon": 127.018033514449,
        "pc_room_type": "PC방",
        "pc_room_name": "인디고PC방 금호본점",
        "distance": 969.060513067162,
        "walking_time": "약 15분"
      },
      {
        "pc_room_lat": 37.5597118609575,
        "pc_room_lon": 127.000948559978,
        "pc_room_type": "PC방",
        "pc_room_name": "SPACE PC",
        "distance": 1091.651508239299,
        "walking_time": "약 17분"
      },
      {
        "pc_room_lat": 37.5545554514075,
        "pc_room_lon": 127.019601957921,
        "pc_room_type": "PC방",
        "pc_room_name": "검프인터넷게임방",
        "distance": 1101.644475056043,
        "walking_time": "약 17분"
      },
      {
        "pc_room_lat": 37.5481743997868,
        "pc_room_lon": 127.019612621523,
        "pc_room_type": "PC방",
        "pc_room_name": "래드포스PC",
        "distance": 1111.5660342970837,
        "walking_time": "약 17분"
      }
    ],
    "police_office": [
      {
        "police_office_lat": 37.55214428,
        "police_office_lon": 127.0123821,
        "police_office_type": "경찰소",
        "police_office_name": "약수지구대",
        "distance": 417.53412587858713,
        "walking_time": "약 7분"
      },
      {
        "police_office_lat": 37.55876338,
        "police_office_lon": 127.004802,
        "police_office_type": "경찰소",
        "police_office_name": "장충파출소",
        "distance": 848.5237431796266,
        "walking_time": "약 13분"
      },
      {
        "police_office_lat": 37.54383892,
        "police_office_lon": 127.0143489,
        "police_office_type": "경찰소",
        "police_office_name": "옥수파출소",
        "distance": 1032.3381130807134,
        "walking_time": "약 16분"
      },
      {
        "police_office_lat": 37.5547388,
        "police_office_lon": 127.0196183,
        "police_office_type": "경찰소",
        "police_office_name": "금호파출소",
        "distance": 1109.4810099923666,
        "walking_time": "약 17분"
      },
      {
        "police_office_lat": 37.56526845,
        "police_office_lon": 127.0133764,
        "police_office_type": "경찰소",
        "police_office_name": "광희지구대",
        "distance": 1611.1324582925006,
        "walking_time": "약 25분"
      },
      {
        "police_office_lat": 37.56504427,
        "police_office_lon": 127.016385,
        "police_office_type": "경찰소",
        "police_office_name": "신당파출소",
        "distance": 1689.6383038788429,
        "walking_time": "약 26분"
      },
      {
        "police_office_lat": 37.56647342,
        "police_office_lon": 127.0039437,
        "police_office_type": "경찰소",
        "police_office_name": "을지지구대",
        "distance": 1698.863775101606,
        "walking_time": "약 26분"
      },
      {
        "police_office_lat": 37.5608716,
        "police_office_lon": 126.9915808,
        "police_office_type": "경찰소",
        "police_office_name": "충무파출소",
        "distance": 1763.948980781656,
        "walking_time": "약 27분"
      },
      {
        "police_office_lat": 37.56618152,
        "police_office_lon": 126.9928483,
        "police_office_type": "경찰소",
        "police_office_name": "을지로3가파출소",
        "distance": 2094.3630508017104,
        "walking_time": "약 32분"
      }
    ],
    "post_office": [
      {
        "post_office_lat": 37.55489649,
        "post_office_lon": 127.0112731,
        "post_office_type": "우체국",
        "post_office_name": "서울신당동우체국",
        "distance": 491.5390124512179,
        "walking_time": "약 8분"
      },
      {
        "post_office_lat": 37.5548197,
        "post_office_lon": 127.0196923,
        "post_office_type": "우체국",
        "post_office_name": "서울금호동우체국",
        "distance": 1118.594935614547,
        "walking_time": "약 17분"
      },
      {
        "post_office_lat": 37.54156255,
        "post_office_lon": 127.0109009,
        "post_office_type": "우체국",
        "post_office_name": "서울옥수동우편취급국",
        "distance": 1139.0976041147046,
        "walking_time": "약 18분"
      },
      {
        "post_office_lat": 37.55893664,
        "post_office_lon": 126.9987376,
        "post_office_type": "우체국",
        "post_office_name": "동국대학교우편취급국",
        "distance": 1145.4848998786529,
        "walking_time": "약 18분"
      },
      {
        "post_office_lat": 37.56122837,
        "post_office_lon": 127.0126796,
        "post_office_type": "우체국",
        "post_office_name": "서울신당1동우편취급국",
        "distance": 1167.7450182565217,
        "walking_time": "약 18분"
      },
      {
        "post_office_lat": 37.5627438,
        "post_office_lon": 127.0016523,
        "post_office_type": "우체국",
        "post_office_name": "서울퇴계로5가우체국",
        "distance": 1360.7086084751802,
        "walking_time": "약 21분"
      },
      {
        "post_office_lat": 37.56052979,
        "post_office_lon": 127.0195396,
        "post_office_type": "우체국",
        "post_office_name": "서울신당현대우편취급국",
        "distance": 1447.789776087869,
        "walking_time": "약 22분"
      },
      {
        "post_office_lat": 37.56565287,
        "post_office_lon": 127.0159078,
        "post_office_type": "우체국",
        "post_office_name": "서울흥인동우체국",
        "distance": 1732.317705803997,
        "walking_time": "약 26분"
      },
      {
        "post_office_lat": 37.56620281,
        "post_office_lon": 126.9951631,
        "post_office_type": "우체국",
        "post_office_name": "서울을지로4가우체국",
        "distance": 1975.0545717568205,
        "walking_time": "약 30분"
      }
    ],
    "public_health_center": [
      {
        "public_health_center_lat": 37.55247345,
        "public_health_center_lon": 127.0089948,
        "public_health_center_type": "보건소",
        "public_health_center_name": "약수동주민센터",
        "distance": 156.85399545053343,
        "walking_time": "약 3분"
      },
      {
        "public_health_center_lat": 37.55433289,
        "public_health_center_lon": 127.0082945,
        "public_health_center_type": "보건소",
        "public_health_center_name": "다산동 주민센터",
        "distance": 320.06427548855663,
        "walking_time": "약 5분"
      },
      {
        "public_health_center_lat": 37.56458574,
        "public_health_center_lon": 127.0150951,
        "public_health_center_type": "보건소",
        "public_health_center_name": "중구보건소",
        "distance": 1594.6780311521125,
        "walking_time": "약 24분"
      }
    ],
    "school": [
      {
        "school_lat": 37.5535149002283,
        "school_lon": 127.006414953028,
        "school_type": "고등학교",
        "school_name": "장충고등학교",
        "distance": 252.6686120917265,
        "walking_time": "약 4분"
      },
      {
        "school_lat": 37.5535149002283,
        "school_lon": 127.006414953028,
        "school_type": "중학교",
        "school_name": "장충중학교",
        "distance": 252.6686120917265,
        "walking_time": "약 4분"
      },
      {
        "school_lat": 37.5539645178112,
        "school_lon": 127.006042884936,
        "school_type": "중학교",
        "school_name": "장원중학교",
        "distance": 312.1771541905624,
        "walking_time": "약 5분"
      },
      {
        "school_lat": 37.5477744781642,
        "school_lon": 127.011037345163,
        "school_type": "고등학교",
        "school_name": "서울방송고등학교",
        "distance": 506.3727205687027,
        "walking_time": "약 8분"
      },
      {
        "school_lat": 37.5462920770572,
        "school_lon": 127.009879731064,
        "school_type": "초등학교",
        "school_name": "서울동호초등학교",
        "distance": 608.696805580619,
        "walking_time": "약 10분"
      },
      {
        "school_lat": 37.5562046295135,
        "school_lon": 127.016725380867,
        "school_type": "초등학교",
        "school_name": "동산초등학교",
        "distance": 951.4183852285644,
        "walking_time": "약 15분"
      },
      {
        "school_lat": 37.5563732600255,
        "school_lon": 127.016979156363,
        "school_type": "고등학교",
        "school_name": "대경생활과학고등학교",
        "distance": 980.4233789991276,
        "walking_time": "약 15분"
      },
      {
        "school_lat": 37.5563732600255,
        "school_lon": 127.016979156363,
        "school_type": "중학교",
        "school_name": "대경중학교",
        "distance": 980.4233789991276,
        "walking_time": "약 15분"
      },
      {
        "school_lat": 37.5591166793514,
        "school_lon": 127.013724413955,
        "school_type": "초등학교",
        "school_name": "서울청구초등학교",
        "distance": 999.6699353758964,
        "walking_time": "약 15분"
      },
      {
        "school_lat": 37.559971222213,
        "school_lon": 127.01170475684,
        "school_type": "초등학교",
        "school_name": "서울장충초등학교",
        "distance": 1006.3184576117644,
        "walking_time": "약 16분"
      }
    ],
    "self_laundromat": [
      {
        "self_laundromat_lat": 37.55404481,
        "self_laundromat_lon": 127.0118368,
        "self_laundromat_type": "셀프 빨래방",
        "self_laundromat_name": "크린토피아 코인워시 신당약수점",
        "distance": 460.949272509401,
        "walking_time": "약 7분"
      },
      {
        "self_laundromat_lat": 37.55404481,
        "self_laundromat_lon": 127.0118368,
        "self_laundromat_type": "셀프 빨래방",
        "self_laundromat_name": "크린토피아 코인워시 신당약수점",
        "distance": 460.949272509401,
        "walking_time": "약 7분"
      },
      {
        "self_laundromat_lat": 37.55871985,
        "self_laundromat_lon": 127.0022129,
        "self_laundromat_type": "셀프 빨래방",
        "self_laundromat_name": "워시프렌즈 장충동국대점",
        "distance": 938.9427202373056,
        "walking_time": "약 15분"
      },
      {
        "self_laundromat_lat": 37.55871985,
        "self_laundromat_lon": 127.0022129,
        "self_laundromat_type": "셀프 빨래방",
        "self_laundromat_name": "워시프렌즈 장충동국대점",
        "distance": 938.9427202373056,
        "walking_time": "약 15분"
      },
      {
        "self_laundromat_lat": 37.54808507,
        "self_laundromat_lon": 127.0187753,
        "self_laundromat_type": "셀프 빨래방",
        "self_laundromat_name": "금호셀프빨래방",
        "distance": 1045.774933290988,
        "walking_time": "약 16분"
      },
      {
        "self_laundromat_lat": 37.54808507,
        "self_laundromat_lon": 127.0187753,
        "self_laundromat_type": "셀프 빨래방",
        "self_laundromat_name": "금호셀프빨래방",
        "distance": 1045.774933290988,
        "walking_time": "약 16분"
      },
      {
        "self_laundromat_lat": 37.55504559,
        "self_laundromat_lon": 127.0196502,
        "self_laundromat_type": "셀프 빨래방",
        "self_laundromat_name": "에코런드렛셀프빨래방&amp;아이스크림 신금호역점",
        "distance": 1123.6791205514128,
        "walking_time": "약 17분"
      },
      {
        "self_laundromat_lat": 37.55504559,
        "self_laundromat_lon": 127.0196502,
        "self_laundromat_type": "셀프 빨래방",
        "self_laundromat_name": "에코런드렛셀프빨래방&amp;아이스크림 신금호역점",
        "distance": 1123.6791205514128,
        "walking_time": "약 17분"
      },
      {
        "self_laundromat_lat": 37.56132626,
        "self_laundromat_lon": 126.9985982,
        "self_laundromat_type": "셀프 빨래방",
        "self_laundromat_name": "마이리틀빨래방",
        "distance": 1357.3147395958974,
        "walking_time": "약 21분"
      },
      {
        "self_laundromat_lat": 37.56132626,
        "self_laundromat_lon": 126.9985982,
        "self_laundromat_type": "셀프 빨래방",
        "self_laundromat_name": "마이리틀빨래방",
        "distance": 1357.3147395958974,
        "walking_time": "약 21분"
      }
    ],
    "subway": [
      {
        "subway_lat": 37.5538914380831,
        "subway_lon": 127.010120543543,
        "subway_type": "지하철",
        "subway_name": "6호선-약수역",
        "distance": 340.7369261638912,
        "walking_time": "약 6분"
      },
      {
        "subway_lat": 37.5480418375007,
        "subway_lon": 127.007084969776,
        "subway_type": "지하철",
        "subway_name": "6호선-버티고개역",
        "distance": 387.5682734516063,
        "walking_time": "약 6분"
      },
      {
        "subway_lat": 37.5545595558163,
        "subway_lon": 127.010822526737,
        "subway_type": "지하철",
        "subway_name": "3호선-약수역",
        "distance": 437.4035936918935,
        "walking_time": "약 7분"
      },
      {
        "subway_lat": 37.5481125196986,
        "subway_lon": 127.015893753726,
        "subway_type": "지하철",
        "subway_name": "3호선-금호역",
        "distance": 812.7853648335671,
        "walking_time": "약 13분"
      },
      {
        "subway_lat": 37.559030224347,
        "subway_lon": 127.005460196954,
        "subway_type": "지하철",
        "subway_name": "3호선-동대입구역",
        "distance": 861.6256431549357,
        "walking_time": "약 13분"
      },
      {
        "subway_lat": 37.5602939125022,
        "subway_lon": 127.013806006802,
        "subway_type": "지하철",
        "subway_name": "5호선-청구역",
        "distance": 1116.3032605170956,
        "walking_time": "약 17분"
      },
      {
        "subway_lat": 37.5602939125022,
        "subway_lon": 127.013806006802,
        "subway_type": "지하철",
        "subway_name": "6호선-청구역",
        "distance": 1116.3032605170956,
        "walking_time": "약 17분"
      },
      {
        "subway_lat": 37.5402951544226,
        "subway_lon": 127.001748287649,
        "subway_type": "지하철",
        "subway_name": "6호선-한강진역",
        "distance": 1351.601385216348,
        "walking_time": "약 21분"
      },
      {
        "subway_lat": 37.5645770081888,
        "subway_lon": 127.005916180124,
        "subway_type": "지하철",
        "subway_name": "5호선-동대문역사문화공원(DDP)역",
        "distance": 1463.740234523159,
        "walking_time": "약 22분"
      },
      {
        "subway_lat": 37.5650787698586,
        "subway_lon": 127.007550653481,
        "subway_type": "지하철",
        "subway_name": "4호선-동대문역사문화공원(DDP)역",
        "distance": 1510.9630795865953,
        "walking_time": "약 23분"
      }
    ],
    "supermarket": [
      {
        "supermarket_lat": 37.54715055,
        "supermarket_lon": 127.0057062,
        "supermarket_type": "마트",
        "supermarket_name": "남산타운5상가",
        "distance": 514.1917662068748,
        "walking_time": "약 8분"
      },
      {
        "supermarket_lat": 37.54715055,
        "supermarket_lon": 127.0057062,
        "supermarket_type": "마트",
        "supermarket_name": "남산타운2상가",
        "distance": 514.1917662068748,
        "walking_time": "약 8분"
      },
      {
        "supermarket_lat": 37.54715055,
        "supermarket_lon": 127.0057062,
        "supermarket_type": "마트",
        "supermarket_name": "(주)지에스리테일 남산타운점",
        "distance": 514.1917662068748,
        "walking_time": "약 8분"
      },
      {
        "supermarket_lat": 37.55132847,
        "supermarket_lon": 127.0164165,
        "supermarket_type": "마트",
        "supermarket_name": "홈플러스(주) 익프스레스 금호2점",
        "distance": 767.0387281243588,
        "walking_time": "약 12분"
      },
      {
        "supermarket_lat": 37.54023503,
        "supermarket_lon": 127.0117397,
        "supermarket_type": "마트",
        "supermarket_name": "한남하이츠상가",
        "distance": 1300.8593075287113,
        "walking_time": "약 20분"
      },
      {
        "supermarket_lat": 37.56285252,
        "supermarket_lon": 127.0155914,
        "supermarket_type": "마트",
        "supermarket_name": "홈플러스익스프레스 신당점",
        "distance": 1441.4299949429794,
        "walking_time": "약 22분"
      },
      {
        "supermarket_lat": 37.56531919,
        "supermarket_lon": 127.0084303,
        "supermarket_type": "마트",
        "supermarket_name": "에이피엠플레이스",
        "distance": 1538.9059805521692,
        "walking_time": "약 23분"
      },
      {
        "supermarket_lat": 37.56576004,
        "supermarket_lon": 127.0070796,
        "supermarket_type": "마트",
        "supermarket_name": "던던 동대문점",
        "distance": 1587.6424624930517,
        "walking_time": "약 24분"
      },
      {
        "supermarket_lat": 37.56506341,
        "supermarket_lon": 127.0019051,
        "supermarket_type": "마트",
        "supermarket_name": "중부시장",
        "distance": 1593.7950603239158,
        "walking_time": "약 24분"
      },
      {
        "supermarket_lat": 37.56242271,
        "supermarket_lon": 126.9959312,
        "supermarket_type": "마트",
        "supermarket_name": "진양상가",
        "distance": 1599.0892186674848,
        "walking_time": "약 24분"
      }
    ],
    "tax_office": [
      {
        "tax_office_lat": 37.56074026,
        "tax_office_lon": 126.9907276,
        "tax_office_type": "세무서",
        "tax_office_name": "중부세무서",
        "distance": 1816.8366721601788,
        "walking_time": "약 28분"
      }
    ],
    "theater": [
      {
        "theater_lat": 37.5516383586201,
        "theater_lon": 127.002523184791,
        "theater_type": "영화관",
        "theater_name": "씨너스 이오이(EOE)4 남산자동차극장",
        "distance": 458.2466966624402,
        "walking_time": "약 7분"
      },
      {
        "theater_lat": 37.561929293405,
        "theater_lon": 126.995026731814,
        "theater_type": "영화관",
        "theater_name": "극동극장",
        "distance": 1612.065106809791,
        "walking_time": "약 25분"
      },
      {
        "theater_lat": 37.5668021171335,
        "theater_lon": 127.007358177138,
        "theater_type": "영화관",
        "theater_name": "(주)지원엠엠시네마 동대문지점",
        "distance": 1702.813959657102,
        "walking_time": "약 26분"
      },
      {
        "theater_lat": 37.568734553218,
        "theater_lon": 127.007666479829,
        "theater_type": "영화관",
        "theater_name": "CGV 동대문",
        "distance": 1917.401011467359,
        "walking_time": "약 29분"
      },
      {
        "theater_lat": 37.5647056236712,
        "theater_lon": 126.993214191194,
        "theater_type": "영화관",
        "theater_name": "명보아트홀",
        "distance": 1947.730984527029,
        "walking_time": "약 30분"
      },
      {
        "theater_lat": 37.5645459184175,
        "theater_lon": 126.992413746356,
        "theater_type": "영화관",
        "theater_name": "시네아스트극장",
        "distance": 1981.7111868133927,
        "walking_time": "약 30분"
      }
    ],
    "university": [
      {
        "university_lat": 37.5589366401553,
        "university_lon": 126.998737605491,
        "university_type": "대학교",
        "university_name": "동국대학교",
        "distance": 1145.484577841672,
        "walking_time": "약 18분"
      }
    ]
  }
}