{
  "클러스터_위도": 37.51012435061804,
  "클러스터_경도": 126.92225049885408,
  "클러스터_level": 4.0,
  "facilities": {
    "bus": [
      {
        "bus_lat": 37.51001921,
        "bus_lon": 126.9224212,
        "bus_type": "버스정류장",
        "bus_name": "놀이터",
        "distance": 19.06268011642657,
        "walking_time": "약 1분"
      },
      {
        "bus_lat": 37.5102388,
        "bus_lon": 126.9219968,
        "bus_type": "버스정류장",
        "bus_name": "놀이터",
        "distance": 25.74309435433988,
        "walking_time": "약 1분"
      },
      {
        "bus_lat": 37.50881476,
        "bus_lon": 126.9215459,
        "bus_type": "버스정류장",
        "bus_name": "오거리",
        "distance": 158.32785877943462,
        "walking_time": "약 3분"
      },
      {
        "bus_lat": 37.50987069,
        "bus_lon": 126.9240537,
        "bus_type": "버스정류장",
        "bus_name": "공군호텔",
        "distance": 161.53306373384817,
        "walking_time": "약 3분"
      },
      {
        "bus_lat": 37.51004555,
        "bus_lon": 126.9241282,
        "bus_type": "버스정류장",
        "bus_name": "공군호텔",
        "distance": 165.85415652603328,
        "walking_time": "약 3분"
      },
      {
        "bus_lat": 37.51151277,
        "bus_lon": 126.9230916,
        "bus_type": "버스정류장",
        "bus_name": "성애병원",
        "distance": 171.28551922891612,
        "walking_time": "약 3분"
      },
      {
        "bus_lat": 37.5086679,
        "bus_lon": 126.9215732,
        "bus_type": "버스정류장",
        "bus_name": "오거리",
        "distance": 172.61762014510018,
        "walking_time": "약 3분"
      },
      {
        "bus_lat": 37.51175342,
        "bus_lon": 126.9218041,
        "bus_type": "버스정류장",
        "bus_name": "성애병원",
        "distance": 185.37411424017372,
        "walking_time": "약 3분"
      },
      {
        "bus_lat": 37.50919069,
        "bus_lon": 126.9204516,
        "bus_type": "버스정류장",
        "bus_name": "골프장",
        "distance": 189.6187433517817,
        "walking_time": "약 3분"
      },
      {
        "bus_lat": 37.51001067,
        "bus_lon": 126.9245411,
        "bus_type": "버스정류장",
        "bus_name": "공군호텔",
        "distance": 202.43745206783672,
        "walking_time": "약 4분"
      }
    ],
    "community_center": [
      {
        "community_center_lat": 37.51116875,
        "community_center_lon": 126.9214422,
        "community_center_type": "주민센터",
        "community_center_name": "신길1동 자치회관",
        "distance": 136.27053463417363,
        "walking_time": "약 3분"
      },
      {
        "community_center_lat": 37.51116875,
        "community_center_lon": 126.9214422,
        "community_center_type": "주민센터",
        "community_center_name": "신길6동 자치회관",
        "distance": 136.27053463417363,
        "walking_time": "약 3분"
      },
      {
        "community_center_lat": 37.50639203,
        "community_center_lon": 126.9215141,
        "community_center_type": "주민센터",
        "community_center_name": "신길7동 자치회관",
        "distance": 420.0675890955141,
        "walking_time": "약 7분"
      },
      {
        "community_center_lat": 37.50815443,
        "community_center_lon": 126.9263229,
        "community_center_type": "주민센터",
        "community_center_name": "대방동 자치회관",
        "distance": 420.72909026299,
        "walking_time": "약 7분"
      },
      {
        "community_center_lat": 37.50845067,
        "community_center_lon": 126.9113577,
        "community_center_type": "주민센터",
        "community_center_name": "신길4동 자치회관",
        "distance": 978.6669599040188,
        "walking_time": "약 15분"
      },
      {
        "community_center_lat": 37.50851669,
        "community_center_lon": 126.9373567,
        "community_center_type": "주민센터",
        "community_center_name": "노량진2동 자치회관",
        "distance": 1344.393457091321,
        "walking_time": "약 21분"
      },
      {
        "community_center_lat": 37.51769391,
        "community_center_lon": 126.934614,
        "community_center_type": "주민센터",
        "community_center_name": "여의동 자치회관",
        "distance": 1377.5229742809022,
        "walking_time": "약 21분"
      },
      {
        "community_center_lat": 37.52038937,
        "community_center_lon": 126.9106976,
        "community_center_type": "주민센터",
        "community_center_name": "영등포동 자치회관",
        "distance": 1530.0650063458993,
        "walking_time": "약 23분"
      },
      {
        "community_center_lat": 37.50059942,
        "community_center_lon": 126.9377767,
        "community_center_type": "주민센터",
        "community_center_name": "상도4동 자치회관",
        "distance": 1731.3225385811224,
        "walking_time": "약 26분"
      }
    ],
    "convenience_store": [
      {
        "convenience_store_lat": 37.50899438,
        "convenience_store_lon": 126.9202696,
        "convenience_store_type": "편의점",
        "convenience_store_name": "GS25 영등포그랜드점",
        "distance": 215.2125784550801,
        "walking_time": "약 4분"
      },
      {
        "convenience_store_lat": 37.51215103,
        "convenience_store_lon": 126.9217204,
        "convenience_store_type": "편의점",
        "convenience_store_name": "GS25 성애병원점",
        "distance": 230.15586865937445,
        "walking_time": "약 4분"
      },
      {
        "convenience_store_lat": 37.50985709,
        "convenience_store_lon": 126.9249542,
        "convenience_store_type": "편의점",
        "convenience_store_name": "CU 공군회관점",
        "distance": 240.32463826341416,
        "walking_time": "약 4분"
      },
      {
        "convenience_store_lat": 37.51039931,
        "convenience_store_lon": 126.919071,
        "convenience_store_type": "편의점",
        "convenience_store_name": "GS25 신길영신점",
        "distance": 282.108532475847,
        "walking_time": "약 5분"
      },
      {
        "convenience_store_lat": 37.51266561,
        "convenience_store_lon": 126.9205447,
        "convenience_store_type": "편의점",
        "convenience_store_name": "GS25 영등포행운점",
        "distance": 320.1345085610528,
        "walking_time": "약 5분"
      },
      {
        "convenience_store_lat": 37.51276466,
        "convenience_store_lon": 126.923723,
        "convenience_store_type": "편의점",
        "convenience_store_name": "GS25 신길경찰학원점",
        "distance": 321.0345722813807,
        "walking_time": "약 5분"
      },
      {
        "convenience_store_lat": 37.51303602,
        "convenience_store_lon": 126.9224508,
        "convenience_store_type": "편의점",
        "convenience_store_name": "CU 영등포신성점",
        "distance": 324.2445397975394,
        "walking_time": "약 5분"
      },
      {
        "convenience_store_lat": 37.51192278,
        "convenience_store_lon": 126.9267404,
        "convenience_store_type": "편의점",
        "convenience_store_name": "GS25 대방경남점",
        "distance": 443.6524546411851,
        "walking_time": "약 7분"
      },
      {
        "convenience_store_lat": 37.50599685,
        "convenience_store_lon": 126.9233014,
        "convenience_store_type": "편의점",
        "convenience_store_name": "GS25 대방승화점",
        "distance": 468.2247496023213,
        "walking_time": "약 7분"
      },
      {
        "convenience_store_lat": 37.51368016,
        "convenience_store_lon": 126.9187163,
        "convenience_store_type": "편의점",
        "convenience_store_name": "GS25 신길삼거리점",
        "distance": 503.4926942412835,
        "walking_time": "약 8분"
      }
    ],
    "daycare": [
      {
        "daycare_lat": 37.51068996,
        "daycare_lon": 126.9228197,
        "daycare_type": "어린이집",
        "daycare_name": "밝음이어린이집",
        "distance": 80.4746717253853,
        "walking_time": "약 2분"
      },
      {
        "daycare_lat": 37.509064542692855,
        "daycare_lon": 126.92239983543716,
        "daycare_type": "어린이집",
        "daycare_name": "꼬마대통령어린이집",
        "distance": 118.57915575841842,
        "walking_time": "약 2분"
      },
      {
        "daycare_lat": 37.51098556,
        "daycare_lon": 126.9214445,
        "daycare_type": "어린이집",
        "daycare_name": "신길종합사회복지관방과후교실",
        "distance": 119.26670169520054,
        "walking_time": "약 2분"
      },
      {
        "daycare_lat": 37.51114042,
        "daycare_lon": 126.921431,
        "daycare_type": "어린이집",
        "daycare_name": "신일어린이집",
        "distance": 134.1259011022424,
        "walking_time": "약 3분"
      },
      {
        "daycare_lat": 37.51118703,
        "daycare_lon": 126.9229845,
        "daycare_type": "어린이집",
        "daycare_name": "리틀디모데어린이집",
        "distance": 134.7382424231244,
        "walking_time": "약 3분"
      },
      {
        "daycare_lat": 37.5088964,
        "daycare_lon": 126.9215563,
        "daycare_type": "어린이집",
        "daycare_name": "창의나라어린이집",
        "distance": 149.6431513478074,
        "walking_time": "약 3분"
      },
      {
        "daycare_lat": 37.50889676,
        "daycare_lon": 126.92155388239996,
        "daycare_type": "어린이집",
        "daycare_name": "조형아트스쿨어린이집",
        "distance": 149.69403217355753,
        "walking_time": "약 3분"
      },
      {
        "daycare_lat": 37.5113008,
        "daycare_lon": 126.9231095,
        "daycare_type": "어린이집",
        "daycare_name": "디모데어린이집",
        "distance": 151.17319141280507,
        "walking_time": "약 3분"
      },
      {
        "daycare_lat": 37.50945375160647,
        "daycare_lon": 126.92453015772554,
        "daycare_type": "어린이집",
        "daycare_name": "튼튼어린이집",
        "distance": 214.4589202882052,
        "walking_time": "약 4분"
      },
      {
        "daycare_lat": 37.5110878,
        "daycare_lon": 126.9195191,
        "daycare_type": "어린이집",
        "daycare_name": "선화어린이집",
        "distance": 263.6664878051433,
        "walking_time": "약 4분"
      }
    ],
    "education": [
      {
        "education_lat": 37.50302549,
        "education_lon": 126.9252227,
        "education_type": "도서관",
        "education_name": "대방어린이도서관",
        "distance": 831.7576272257593,
        "walking_time": "약 13분"
      },
      {
        "education_lat": 37.51612662,
        "education_lon": 126.9121264,
        "education_type": "문화원",
        "education_name": "영등포문화원",
        "distance": 1114.822064162564,
        "walking_time": "약 17분"
      },
      {
        "education_lat": 37.51976516,
        "education_lon": 126.9302412,
        "education_type": "박물관/기념관",
        "education_name": "한국잡지박물관",
        "distance": 1282.9299221053768,
        "walking_time": "약 20분"
      },
      {
        "education_lat": 37.51294863,
        "education_lon": 126.9370008,
        "education_type": "공연장",
        "education_name": "CTS 아트홀",
        "distance": 1338.390366077077,
        "walking_time": "약 20분"
      },
      {
        "education_lat": 37.52490456,
        "education_lon": 126.9229717,
        "education_type": "미술관/갤러리",
        "education_name": "SeMA 벙커",
        "distance": 1644.714720244905,
        "walking_time": "약 25분"
      },
      {
        "education_lat": 37.52596989,
        "education_lon": 126.9167168,
        "education_type": "공연장",
        "education_name": "KBS홀",
        "distance": 1828.287622382104,
        "walking_time": "약 28분"
      },
      {
        "education_lat": 37.52927196,
        "education_lon": 126.9248927,
        "education_type": "공연장",
        "education_name": "영산아트홀",
        "distance": 2141.830999674689,
        "walking_time": "약 32분"
      }
    ],
    "electric_gas_station": [
      {
        "electric_gas_station_lat": 37.51107647,
        "electric_gas_station_lon": 126.9175847,
        "electric_gas_station_type": "전기차 충전소",
        "electric_gas_station_name": "영등포구 대신시장(공중전화부스)",
        "distance": 424.943366421385,
        "walking_time": "약 7분"
      },
      {
        "electric_gas_station_lat": 37.51394028,
        "electric_gas_station_lon": 126.9343584,
        "electric_gas_station_type": "전기차 충전소",
        "electric_gas_station_name": "현대차 남부서비스센터",
        "distance": 1149.1543126133267,
        "walking_time": "약 18분"
      }
    ],
    "fitness": [
      {
        "fitness_lat": 37.5088423,
        "fitness_lon": 126.9224524,
        "fitness_type": "운동시설",
        "fitness_name": "언더핏",
        "distance": 143.6655908251001,
        "walking_time": "약 3분"
      },
      {
        "fitness_lat": 37.51184756,
        "fitness_lon": 126.9217153,
        "fitness_type": "운동시설",
        "fitness_name": "코드짐 신길점",
        "distance": 197.3415246285589,
        "walking_time": "약 3분"
      },
      {
        "fitness_lat": 37.50813052,
        "fitness_lon": 126.9228861,
        "fitness_type": "운동시설",
        "fitness_name": "에어 스포렉스",
        "distance": 228.68265390146507,
        "walking_time": "약 4분"
      },
      {
        "fitness_lat": 37.50874345,
        "fitness_lon": 126.9245178,
        "fitness_type": "운동시설",
        "fitness_name": "미라주 휘트니스",
        "distance": 252.1366914903756,
        "walking_time": "약 4분"
      },
      {
        "fitness_lat": 37.51256632,
        "fitness_lon": 126.9232573,
        "fitness_type": "운동시설",
        "fitness_name": "바르다짐",
        "distance": 285.68702560744333,
        "walking_time": "약 5분"
      },
      {
        "fitness_lat": 37.51248778,
        "fitness_lon": 126.9242775,
        "fitness_type": "운동시설",
        "fitness_name": "(주)피프티핏",
        "distance": 317.8520416202752,
        "walking_time": "약 5분"
      },
      {
        "fitness_lat": 37.50653612,
        "fitness_lon": 126.9226443,
        "fitness_type": "운동시설",
        "fitness_name": "웅짐",
        "distance": 400.5022319927159,
        "walking_time": "약 6분"
      },
      {
        "fitness_lat": 37.50779278,
        "fitness_lon": 126.9185205,
        "fitness_type": "운동시설",
        "fitness_name": "푸른숲헬스사우나",
        "distance": 418.88217443875607,
        "walking_time": "약 7분"
      },
      {
        "fitness_lat": 37.51192278,
        "fitness_lon": 126.9267404,
        "fitness_type": "운동시설",
        "fitness_name": "크로스핏 포스",
        "distance": 443.6524546411851,
        "walking_time": "약 7분"
      },
      {
        "fitness_lat": 37.50588931,
        "fitness_lon": 126.9218455,
        "fitness_type": "운동시설",
        "fitness_name": "크로스핏 바이브온",
        "distance": 472.2681052158539,
        "walking_time": "약 8분"
      }
    ],
    "gas_station": [
      {
        "gas_station_lat": 37.50725792,
        "gas_station_lon": 126.9229157,
        "gas_station_type": "주유소",
        "gas_station_name": "씨엔에스유통(주)한성주유소",
        "distance": 324.0882663232537,
        "walking_time": "약 5분"
      },
      {
        "gas_station_lat": 37.51358212,
        "gas_station_lon": 126.9227248,
        "gas_station_type": "주유소",
        "gas_station_name": "㈜지에스이앤알 보라주유소",
        "distance": 386.7556660690703,
        "walking_time": "약 6분"
      },
      {
        "gas_station_lat": 37.51304064,
        "gas_station_lon": 126.9183332,
        "gas_station_type": "주유소",
        "gas_station_name": "매봉주유소",
        "distance": 473.8545581447195,
        "walking_time": "약 8분"
      },
      {
        "gas_station_lat": 37.50573583,
        "gas_station_lon": 126.9228813,
        "gas_station_type": "주유소",
        "gas_station_name": "GS칼텍스㈜ 대방주유소",
        "distance": 491.1432004596418,
        "walking_time": "약 8분"
      },
      {
        "gas_station_lat": 37.51525021,
        "gas_station_lon": 126.916967,
        "gas_station_type": "주유소",
        "gas_station_name": "SK에너지(주)신길동주유소",
        "distance": 736.230138283333,
        "walking_time": "약 11분"
      },
      {
        "gas_station_lat": 37.51768011,
        "gas_station_lon": 126.9274789,
        "gas_station_type": "주유소",
        "gas_station_name": "현대오일뱅크㈜직영 여의도현대주유소",
        "distance": 958.3992813660514,
        "walking_time": "약 15분"
      },
      {
        "gas_station_lat": 37.50286297,
        "gas_station_lon": 126.9351815,
        "gas_station_type": "주유소",
        "gas_station_name": "매일주유소",
        "distance": 1397.4924501569635,
        "walking_time": "약 21분"
      },
      {
        "gas_station_lat": 37.52798873,
        "gas_station_lon": 126.9160291,
        "gas_station_type": "주유소",
        "gas_station_name": "지에스칼텍스㈜국회대로주유소",
        "distance": 2060.8155537999087,
        "walking_time": "약 31분"
      }
    ],
    "hospital": [
      {
        "hospital_lat": 37.509452,
        "hospital_lon": 126.9245276,
        "hospital_type": "병원",
        "hospital_name": "연세예울치과의원",
        "distance": 214.3152742167993,
        "walking_time": "약 4분"
      },
      {
        "hospital_lat": 37.509452,
        "hospital_lon": 126.9245276,
        "hospital_type": "병원",
        "hospital_name": "연세예울치과의원",
        "distance": 214.3152742167993,
        "walking_time": "약 4분"
      },
      {
        "hospital_lat": 37.51205054,
        "hospital_lon": 126.9223691,
        "hospital_type": "병원",
        "hospital_name": "성애의료재단성애병원",
        "distance": 214.43780377382325,
        "walking_time": "약 4분"
      },
      {
        "hospital_lat": 37.50985709,
        "hospital_lon": 126.9249542,
        "hospital_type": "병원",
        "hospital_name": "하늘치과의원",
        "distance": 240.32463826341416,
        "walking_time": "약 4분"
      },
      {
        "hospital_lat": 37.50874345,
        "hospital_lon": 126.9245178,
        "hospital_type": "병원",
        "hospital_name": "고이비인후과의원",
        "distance": 252.1366914903756,
        "walking_time": "약 4분"
      },
      {
        "hospital_lat": 37.50874345,
        "hospital_lon": 126.9245178,
        "hospital_type": "병원",
        "hospital_name": "김치과의원",
        "distance": 252.1366914903756,
        "walking_time": "약 4분"
      },
      {
        "hospital_lat": 37.50874345,
        "hospital_lon": 126.9245178,
        "hospital_type": "병원",
        "hospital_name": "윤기영소아청소년과의원",
        "distance": 252.1366914903756,
        "walking_time": "약 4분"
      },
      {
        "hospital_lat": 37.50874345,
        "hospital_lon": 126.9245178,
        "hospital_type": "병원",
        "hospital_name": "평제한의원",
        "distance": 252.1366914903756,
        "walking_time": "약 4분"
      },
      {
        "hospital_lat": 37.5077493,
        "hospital_lon": 126.9200383,
        "hospital_type": "병원",
        "hospital_name": "이제영치과의원",
        "distance": 328.36122360410167,
        "walking_time": "약 5분"
      },
      {
        "hospital_lat": 37.51259902,
        "hospital_lon": 126.9243748,
        "hospital_type": "병원",
        "hospital_name": "대명치과의원",
        "distance": 332.9064014581164,
        "walking_time": "약 5분"
      }
    ],
    "music_room": [
      {
        "music_room_lat": 37.51179854,
        "music_room_lon": 126.9219752,
        "music_room_type": "노래방",
        "music_room_name": "큐노래연습장",
        "distance": 187.73835713257785,
        "walking_time": "약 3분"
      },
      {
        "music_room_lat": 37.51215103,
        "music_room_lon": 126.9217204,
        "music_room_type": "노래방",
        "music_room_name": "천궁 노래연습장",
        "distance": 230.15586865937445,
        "walking_time": "약 4분"
      },
      {
        "music_room_lat": 37.51255525,
        "music_room_lon": 126.9221776,
        "music_room_type": "노래방",
        "music_room_name": "스타노래연습장",
        "distance": 270.380144627526,
        "walking_time": "약 5분"
      },
      {
        "music_room_lat": 37.51255874,
        "music_room_lon": 126.9202503,
        "music_room_type": "노래방",
        "music_room_name": "대박노래연습장",
        "distance": 323.10929518277914,
        "walking_time": "약 5분"
      },
      {
        "music_room_lat": 37.51259902,
        "music_room_lon": 126.9243748,
        "music_room_type": "노래방",
        "music_room_name": "떴다노래연습장",
        "distance": 332.9064014581164,
        "walking_time": "약 5분"
      },
      {
        "music_room_lat": 37.51315045,
        "music_room_lon": 126.9220443,
        "music_room_type": "노래방",
        "music_room_name": "샴푸노래연습장",
        "distance": 336.9780614569544,
        "walking_time": "약 6분"
      },
      {
        "music_room_lat": 37.51340353,
        "music_room_lon": 126.92081,
        "music_room_type": "노래방",
        "music_room_name": "SBS노래연습장",
        "distance": 386.1307491235278,
        "walking_time": "약 6분"
      },
      {
        "music_room_lat": 37.51355586,
        "music_room_lon": 126.9203513,
        "music_room_type": "노래방",
        "music_room_name": "정다운노래연습장",
        "distance": 416.7183128725748,
        "walking_time": "약 7분"
      },
      {
        "music_room_lat": 37.51247019,
        "music_room_lon": 126.9183025,
        "music_room_type": "노래방",
        "music_room_name": "별 노래연습장",
        "distance": 435.0892501649876,
        "walking_time": "약 7분"
      },
      {
        "music_room_lat": 37.51364275,
        "music_room_lon": 126.9200111,
        "music_room_type": "노래방",
        "music_room_name": "아이러브코인노래연습장",
        "distance": 438.26263819997166,
        "walking_time": "약 7분"
      }
    ],
    "park": [
      {
        "park_lat": 37.510234,
        "park_lon": 126.928607,
        "park_type": "공원",
        "park_name": "노량진공원",
        "distance": 560.8067137308115,
        "walking_time": "약 9분"
      },
      {
        "park_lat": 37.5177329,
        "park_lon": 126.9302895,
        "park_type": "공원",
        "park_name": "자매근린공원",
        "distance": 1103.8625500867586,
        "walking_time": "약 17분"
      },
      {
        "park_lat": 37.515423,
        "park_lon": 126.910662,
        "park_type": "공원",
        "park_name": "영등포근린공원",
        "distance": 1179.7789532555646,
        "walking_time": "약 18분"
      },
      {
        "park_lat": 37.519832,
        "park_lon": 126.9112668,
        "park_type": "공원",
        "park_name": "중마루근린공원",
        "distance": 1450.405532426903,
        "walking_time": "약 22분"
      },
      {
        "park_lat": 37.526129,
        "park_lon": 126.922377,
        "park_type": "공원",
        "park_name": "여의도근린공원",
        "distance": 1779.6707856252413,
        "walking_time": "약 27분"
      }
    ],
    "park_station": [
      {
        "park_station_lat": 37.51185633,
        "park_station_lon": 126.9223048,
        "park_station_type": "주차장",
        "park_station_name": "성애병원앞",
        "distance": 192.646868514465,
        "walking_time": "약 3분"
      },
      {
        "park_station_lat": 37.51029411,
        "park_station_lon": 126.9186008,
        "park_station_type": "주차장",
        "park_station_name": "신길1동공영",
        "distance": 322.473919849266,
        "walking_time": "약 5분"
      },
      {
        "park_station_lat": 37.51332149,
        "park_station_lon": 126.9234572,
        "park_station_type": "주차장",
        "park_station_name": "경부제3녹지공영주차장",
        "distance": 371.0965221096635,
        "walking_time": "약 6분"
      },
      {
        "park_station_lat": 37.51039457,
        "park_station_lon": 126.9173087,
        "park_station_type": "주차장",
        "park_station_name": "대신시장앞",
        "distance": 436.9244856648897,
        "walking_time": "약 7분"
      },
      {
        "park_station_lat": 37.50734492,
        "park_station_lon": 126.9262555,
        "park_station_type": "주차장",
        "park_station_name": "공유) 대방동주민센터",
        "distance": 469.3772534492433,
        "walking_time": "약 8분"
      },
      {
        "park_station_lat": 37.50431367,
        "park_station_lon": 126.9210968,
        "park_station_type": "주차장",
        "park_station_name": "해군본부앞 공영주차장",
        "distance": 654.0833468469951,
        "walking_time": "약 10분"
      },
      {
        "park_station_lat": 37.5159872,
        "park_station_lon": 126.9174493,
        "park_station_type": "주차장",
        "park_station_name": "신길역사 거주자우선주차장",
        "distance": 777.3851089802156,
        "walking_time": "약 12분"
      },
      {
        "park_station_lat": 37.51331747,
        "park_station_lon": 126.9140769,
        "park_station_type": "주차장",
        "park_station_name": "영등포본동제2공영",
        "distance": 803.6264639767517,
        "walking_time": "약 12분"
      },
      {
        "park_station_lat": 37.50576543,
        "park_station_lon": 126.9148182,
        "park_station_type": "주차장",
        "park_station_name": "대신시장앞",
        "distance": 815.3006158023729,
        "walking_time": "약 13분"
      },
      {
        "park_station_lat": 37.51523235,
        "park_station_lon": 126.9152916,
        "park_station_type": "주차장",
        "park_station_name": "영등포여고 공영",
        "distance": 836.2661647243846,
        "walking_time": "약 13분"
      }
    ],
    "pc_room": [
      {
        "pc_room_lat": 37.5118475635779,
        "pc_room_lon": 126.921715255546,
        "pc_room_type": "PC방",
        "pc_room_name": "제로100PC",
        "distance": 197.3428489149612,
        "walking_time": "약 3분"
      },
      {
        "pc_room_lat": 37.5113180664152,
        "pc_room_lon": 126.914471892191,
        "pc_room_type": "PC방",
        "pc_room_name": "ZOOM PC방",
        "distance": 698.8274035239527,
        "walking_time": "약 11분"
      },
      {
        "pc_room_lat": 37.5121432646022,
        "pc_room_lon": 126.931722395828,
        "pc_room_type": "PC방",
        "pc_room_name": "3POP PC",
        "distance": 865.0922518245051,
        "walking_time": "약 13분"
      },
      {
        "pc_room_lat": 37.5121830815913,
        "pc_room_lon": 126.932178750257,
        "pc_room_type": "PC방",
        "pc_room_name": "엔큐브 대방점",
        "distance": 905.1352051008568,
        "walking_time": "약 14분"
      },
      {
        "pc_room_lat": 37.5001399657337,
        "pc_room_lon": 126.918867891098,
        "pc_room_type": "PC방",
        "pc_room_name": "미스테리PC",
        "distance": 1149.610771437583,
        "walking_time": "약 18분"
      },
      {
        "pc_room_lat": 37.5122551237078,
        "pc_room_lon": 126.93515919634,
        "pc_room_type": "PC방",
        "pc_room_name": "에버피씨",
        "distance": 1162.9845449340885,
        "walking_time": "약 18분"
      },
      {
        "pc_room_lat": 37.5052191180452,
        "pc_room_lon": 126.910395805911,
        "pc_room_type": "PC방",
        "pc_room_name": "사러가 PC CAFE",
        "distance": 1179.381466104556,
        "walking_time": "약 18분"
      },
      {
        "pc_room_lat": 37.5125814170562,
        "pc_room_lon": 126.935396215873,
        "pc_room_type": "PC방",
        "pc_room_name": "피씨앤푸드 노량진점",
        "distance": 1191.251547587137,
        "walking_time": "약 18분"
      },
      {
        "pc_room_lat": 37.5121148897426,
        "pc_room_lon": 126.935915556935,
        "pc_room_type": "PC방",
        "pc_room_name": "트릭PC방 중계점",
        "distance": 1225.463331649531,
        "walking_time": "약 19분"
      },
      {
        "pc_room_lat": 37.502181737466,
        "pc_room_lon": 126.912436125445,
        "pc_room_type": "PC방",
        "pc_room_name": "리틀세븐PC",
        "distance": 1236.720794292488,
        "walking_time": "약 19분"
      }
    ],
    "police_office": [
      {
        "police_office_lat": 37.51297212,
        "police_office_lon": 126.9265078,
        "police_office_type": "경찰소",
        "police_office_name": "신길지구대",
        "distance": 491.20056060865465,
        "walking_time": "약 8분"
      },
      {
        "police_office_lat": 37.51114774,
        "police_office_lon": 126.9332977,
        "police_office_type": "경찰소",
        "police_office_name": "노량진지구대",
        "distance": 981.0328981229748,
        "walking_time": "약 15분"
      },
      {
        "police_office_lat": 37.50593298,
        "police_office_lon": 126.9362025,
        "police_office_type": "경찰소",
        "police_office_name": "상도지구대",
        "distance": 1315.962944442776,
        "walking_time": "약 20분"
      },
      {
        "police_office_lat": 37.52962078,
        "police_office_lon": 126.9266911,
        "police_office_type": "경찰소",
        "police_office_name": "여의도지구대",
        "distance": 2202.994153510532,
        "walking_time": "약 33분"
      }
    ],
    "post_office": [
      {
        "post_office_lat": 37.51150632,
        "post_office_lon": 126.9130319,
        "post_office_type": "우체국",
        "post_office_name": "서울신길2동우편취급국",
        "distance": 827.5112628740761,
        "walking_time": "약 13분"
      },
      {
        "post_office_lat": 37.50159201,
        "post_office_lon": 126.9205665,
        "post_office_type": "우체국",
        "post_office_name": "서울신길동우체국",
        "distance": 960.3113994248952,
        "walking_time": "약 15분"
      },
      {
        "post_office_lat": 37.51228683,
        "post_office_lon": 126.9353043,
        "post_office_type": "우체국",
        "post_office_name": "서울노량진2동우편취급국",
        "distance": 1176.2331184982702,
        "walking_time": "약 18분"
      },
      {
        "post_office_lat": 37.51913405,
        "post_office_lon": 126.9309282,
        "post_office_type": "우체국",
        "post_office_name": "서울여의대방로우편취급국",
        "distance": 1260.7377604877415,
        "walking_time": "약 19분"
      },
      {
        "post_office_lat": 37.52218032,
        "post_office_lon": 126.9199166,
        "post_office_type": "우체국",
        "post_office_name": "서울FKI타워우편취급국",
        "distance": 1356.2743848345167,
        "walking_time": "약 21분"
      },
      {
        "post_office_lat": 37.5223003,
        "post_office_lon": 126.9262252,
        "post_office_type": "우체국",
        "post_office_name": "여의도우체국",
        "distance": 1398.5519232140018,
        "walking_time": "약 21분"
      },
      {
        "post_office_lat": 37.50041961,
        "post_office_lon": 126.9115445,
        "post_office_type": "우체국",
        "post_office_name": "서울신길7동우편취급국",
        "distance": 1433.999547924862,
        "walking_time": "약 22분"
      },
      {
        "post_office_lat": 37.52596989,
        "post_office_lon": 126.9167168,
        "post_office_type": "우체국",
        "post_office_name": "한국방송공사우편취급국",
        "distance": 1828.287622382104,
        "walking_time": "약 28분"
      },
      {
        "post_office_lat": 37.52946365,
        "post_office_lon": 126.9194937,
        "post_office_type": "우체국",
        "post_office_name": "서울여의도광장우체국",
        "distance": 2164.1327808132924,
        "walking_time": "약 33분"
      }
    ],
    "school": [
      {
        "school_lat": 37.5101719627186,
        "school_lon": 126.918122078214,
        "school_type": "초등학교",
        "school_name": "서울영신초등학교",
        "distance": 364.1853129833407,
        "walking_time": "약 6분"
      },
      {
        "school_lat": 37.5103665150217,
        "school_lon": 126.926808573769,
        "school_type": "초등학교",
        "school_name": "서울신길초등학교",
        "distance": 402.9446502771615,
        "walking_time": "약 7분"
      },
      {
        "school_lat": 37.5133455931748,
        "school_lon": 126.916228547854,
        "school_type": "고등학교",
        "school_name": "장훈고등학교",
        "distance": 640.6417224331952,
        "walking_time": "약 10분"
      },
      {
        "school_lat": 37.5123057802523,
        "school_lon": 126.915519617033,
        "school_type": "초등학교",
        "school_name": "서현초등학교",
        "distance": 641.3289477107626,
        "walking_time": "약 10분"
      },
      {
        "school_lat": 37.5159630199729,
        "school_lon": 126.922035366789,
        "school_type": "고등학교",
        "school_name": "한국제과학교",
        "distance": 649.5076406084953,
        "walking_time": "약 10분"
      },
      {
        "school_lat": 37.5052815748623,
        "school_lon": 126.926615278225,
        "school_type": "고등학교",
        "school_name": "성남고등학교",
        "distance": 661.9701352507441,
        "walking_time": "약 10분"
      },
      {
        "school_lat": 37.5052815748623,
        "school_lon": 126.926615278225,
        "school_type": "중학교",
        "school_name": "성남중학교",
        "distance": 661.9701352507441,
        "walking_time": "약 10분"
      },
      {
        "school_lat": 37.507364139341,
        "school_lon": 126.92924328346,
        "school_type": "고등학교",
        "school_name": "숭의여자고등학교",
        "distance": 688.9517479724708,
        "walking_time": "약 11분"
      },
      {
        "school_lat": 37.507364139341,
        "school_lon": 126.92924328346,
        "school_type": "중학교",
        "school_name": "숭의여자중학교",
        "distance": 688.9517479724708,
        "walking_time": "약 11분"
      },
      {
        "school_lat": 37.5027626308253,
        "school_lon": 126.923346619702,
        "school_type": "중학교",
        "school_name": "강남중학교",
        "distance": 824.2763084916597,
        "walking_time": "약 13분"
      }
    ],
    "self_laundromat": [
      {
        "self_laundromat_lat": 37.51264258,
        "self_laundromat_lon": 126.9222195,
        "self_laundromat_type": "셀프 빨래방",
        "self_laundromat_name": "크린워시24셀프빨래방 신길점",
        "distance": 280.0276801777292,
        "walking_time": "약 5분"
      },
      {
        "self_laundromat_lat": 37.51264258,
        "self_laundromat_lon": 126.9222195,
        "self_laundromat_type": "셀프 빨래방",
        "self_laundromat_name": "크린워시24셀프빨래방 신길점",
        "distance": 280.0276801777292,
        "walking_time": "약 5분"
      },
      {
        "self_laundromat_lat": 37.51416086,
        "self_laundromat_lon": 126.9212659,
        "self_laundromat_type": "셀프 빨래방",
        "self_laundromat_name": "셀빨래방 신길점",
        "distance": 457.1637264166603,
        "walking_time": "약 7분"
      },
      {
        "self_laundromat_lat": 37.51416086,
        "self_laundromat_lon": 126.9212659,
        "self_laundromat_type": "셀프 빨래방",
        "self_laundromat_name": "셀빨래방 신길점",
        "distance": 457.1637264166603,
        "walking_time": "약 7분"
      },
      {
        "self_laundromat_lat": 37.51120601,
        "self_laundromat_lon": 126.9169112,
        "self_laundromat_type": "셀프 빨래방",
        "self_laundromat_name": "호텔런드리셀프빨래방",
        "distance": 486.06478834283325,
        "walking_time": "약 8분"
      },
      {
        "self_laundromat_lat": 37.51120601,
        "self_laundromat_lon": 126.9169112,
        "self_laundromat_type": "셀프 빨래방",
        "self_laundromat_name": "호텔런드리셀프빨래방",
        "distance": 486.06478834283325,
        "walking_time": "약 8분"
      },
      {
        "self_laundromat_lat": 37.51368016,
        "self_laundromat_lon": 126.9187163,
        "self_laundromat_type": "셀프 빨래방",
        "self_laundromat_name": "워시프렌즈 셀프빨래방 신길삼거리점",
        "distance": 503.4926942412835,
        "walking_time": "약 8분"
      },
      {
        "self_laundromat_lat": 37.51368016,
        "self_laundromat_lon": 126.9187163,
        "self_laundromat_type": "셀프 빨래방",
        "self_laundromat_name": "워시프렌즈 셀프빨래방 신길삼거리점",
        "distance": 503.4926942412835,
        "walking_time": "약 8분"
      },
      {
        "self_laundromat_lat": 37.51676248,
        "self_laundromat_lon": 126.9146045,
        "self_laundromat_type": "셀프 빨래방",
        "self_laundromat_name": "뽀송한빨래방",
        "distance": 999.8125030308968,
        "walking_time": "약 15분"
      },
      {
        "self_laundromat_lat": 37.51676248,
        "self_laundromat_lon": 126.9146045,
        "self_laundromat_type": "셀프 빨래방",
        "self_laundromat_name": "뽀송한빨래방",
        "distance": 999.8125030308968,
        "walking_time": "약 15분"
      }
    ],
    "subway": [
      {
        "subway_lat": 37.5176677017212,
        "subway_lon": 126.914336937521,
        "subway_type": "지하철",
        "subway_name": "5호선-신길역",
        "distance": 1091.2064194800937,
        "walking_time": "약 17분"
      },
      {
        "subway_lat": 37.5218423045786,
        "subway_lon": 126.924484687694,
        "subway_type": "지하철",
        "subway_name": "5호선-여의도역",
        "distance": 1317.7929340088351,
        "walking_time": "약 20분"
      },
      {
        "subway_lat": 37.5046658024741,
        "subway_lon": 126.938744364462,
        "subway_type": "지하철",
        "subway_name": "7호선-장승배기역",
        "distance": 1576.4255822931368,
        "walking_time": "약 24분"
      },
      {
        "subway_lat": 37.5270851610199,
        "subway_lon": 126.932863954929,
        "subway_type": "지하철",
        "subway_name": "5호선-여의나루역",
        "distance": 2105.474900956939,
        "walking_time": "약 32분"
      }
    ],
    "supermarket": [
      {
        "supermarket_lat": 37.51115621,
        "supermarket_lon": 126.9175856,
        "supermarket_type": "마트",
        "supermarket_name": "대신시장",
        "distance": 427.1620474861902,
        "walking_time": "약 7분"
      },
      {
        "supermarket_lat": 37.51241243,
        "supermarket_lon": 126.9262404,
        "supermarket_type": "마트",
        "supermarket_name": "(주)홈플러스 대방점",
        "distance": 434.2592399053341,
        "walking_time": "약 7분"
      },
      {
        "supermarket_lat": 37.51412159,
        "supermarket_lon": 126.918361,
        "supermarket_type": "마트",
        "supermarket_name": "홈플러스(주) 익스프레스 신길2점",
        "distance": 561.4701319204696,
        "walking_time": "약 9분"
      },
      {
        "supermarket_lat": 37.51811729,
        "supermarket_lon": 126.925196,
        "supermarket_type": "마트",
        "supermarket_name": "(주)이마트 여의도점",
        "distance": 925.96574180782,
        "walking_time": "약 14분"
      },
      {
        "supermarket_lat": 37.51811729,
        "supermarket_lon": 126.925196,
        "supermarket_type": "마트",
        "supermarket_name": "신세계 이마트 여의도점",
        "distance": 925.96574180782,
        "walking_time": "약 14분"
      },
      {
        "supermarket_lat": 37.50667661,
        "supermarket_lon": 126.911387,
        "supermarket_type": "마트",
        "supermarket_name": "GS THE FRESH 신길사러가점",
        "distance": 1032.0803068612636,
        "walking_time": "약 16분"
      },
      {
        "supermarket_lat": 37.51419429,
        "supermarket_lon": 126.9385861,
        "supermarket_type": "마트",
        "supermarket_name": "노량진 드림스퀘어",
        "distance": 1510.2416423092582,
        "walking_time": "약 23분"
      },
      {
        "supermarket_lat": 37.52517752,
        "supermarket_lon": 126.9248767,
        "supermarket_type": "마트",
        "supermarket_name": "아이에프씨몰(IFC Mall)",
        "distance": 1689.785551358776,
        "walking_time": "약 26분"
      },
      {
        "supermarket_lat": 37.52519132,
        "supermarket_lon": 126.9291128,
        "supermarket_type": "마트",
        "supermarket_name": "THE HYUNDAI SEOUL",
        "distance": 1781.338496263479,
        "walking_time": "약 27분"
      }
    ],
    "theater": [
      {
        "theater_lat": 37.5251775245928,
        "theater_lon": 126.924876706923,
        "theater_type": "영화관",
        "theater_name": "CGV여의도",
        "distance": 1689.7861409268853,
        "walking_time": "약 26분"
      }
    ]
  }
}