{
  "클러스터_위도": 37.59709916697404,
  "클러스터_경도": 127.05621733271688,
  "클러스터_level": 4.0,
  "facilities": {
    "bus": [
      {
        "bus_lat": 37.59674067,
        "bus_lon": 127.0567462,
        "bus_type": "버스정류장",
        "bus_name": "미니슈퍼",
        "distance": 61.31965039045719,
        "walking_time": "약 1분"
      },
      {
        "bus_lat": 37.59667122,
        "bus_lon": 127.0568673,
        "bus_type": "버스정류장",
        "bus_name": "미니슈퍼",
        "distance": 74.45470099711555,
        "walking_time": "약 2분"
      },
      {
        "bus_lat": 37.59830395,
        "bus_lon": 127.0569625,
        "bus_type": "버스정류장",
        "bus_name": "외대.경희대후문",
        "distance": 149.18704873381034,
        "walking_time": "약 3분"
      },
      {
        "bus_lat": 37.59831287,
        "bus_lon": 127.0571505,
        "bus_type": "버스정류장",
        "bus_name": "외대.경희대후문",
        "distance": 158.0271441391775,
        "walking_time": "약 3분"
      },
      {
        "bus_lat": 37.59565568,
        "bus_lon": 127.0569107,
        "bus_type": "버스정류장",
        "bus_name": "딩동슈퍼",
        "distance": 171.74008530685705,
        "walking_time": "약 3분"
      },
      {
        "bus_lat": 37.59561508,
        "bus_lon": 127.0570001,
        "bus_type": "버스정류장",
        "bus_name": "경희맨션",
        "distance": 178.8536114312876,
        "walking_time": "약 3분"
      },
      {
        "bus_lat": 37.59888267,
        "bus_lon": 127.057755,
        "bus_type": "버스정류장",
        "bus_name": "33번지앞",
        "distance": 240.1698227725207,
        "walking_time": "약 4분"
      },
      {
        "bus_lat": 37.59465124,
        "bus_lon": 127.0563426,
        "bus_type": "버스정류장",
        "bus_name": "경희중고",
        "distance": 272.4207106498619,
        "walking_time": "약 5분"
      },
      {
        "bus_lat": 37.59435924,
        "bus_lon": 127.0564273,
        "bus_type": "버스정류장",
        "bus_name": "경희중고",
        "distance": 305.2270750909759,
        "walking_time": "약 5분"
      },
      {
        "bus_lat": 37.59991182,
        "bus_lon": 127.0573676,
        "bus_type": "버스정류장",
        "bus_name": "삼성래미안",
        "distance": 328.7611070131843,
        "walking_time": "약 5분"
      }
    ],
    "community_center": [
      {
        "community_center_lat": 37.59080616,
        "community_center_lon": 127.0553779,
        "community_center_type": "주민센터",
        "community_center_name": "회기동 자치회관",
        "distance": 703.6480667883999,
        "walking_time": "약 11분"
      },
      {
        "community_center_lat": 37.5978135,
        "community_center_lon": 127.065483,
        "community_center_type": "주민센터",
        "community_center_name": "휘경1동 자치회관",
        "distance": 820.1754046134283,
        "walking_time": "약 13분"
      },
      {
        "community_center_lat": 37.5978135,
        "community_center_lon": 127.065483,
        "community_center_type": "주민센터",
        "community_center_name": "이문1동 자치회관",
        "distance": 820.1754046134283,
        "walking_time": "약 13분"
      },
      {
        "community_center_lat": 37.60339461,
        "community_center_lon": 127.0651361,
        "community_center_type": "주민센터",
        "community_center_name": "이문2동 자치회관",
        "distance": 1052.3301118416227,
        "walking_time": "약 16분"
      },
      {
        "community_center_lat": 37.60577914,
        "community_center_lon": 127.0478706,
        "community_center_type": "주민센터",
        "community_center_name": "월곡2동 자치회관",
        "distance": 1213.3624017327584,
        "walking_time": "약 19분"
      },
      {
        "community_center_lat": 37.59013384,
        "community_center_lon": 127.0685918,
        "community_center_type": "주민센터",
        "community_center_name": "휘경2동 자치회관",
        "distance": 1337.365153095628,
        "walking_time": "약 20분"
      },
      {
        "community_center_lat": 37.58627625,
        "community_center_lon": 127.0472854,
        "community_center_type": "주민센터",
        "community_center_name": "청량리동 자치회관",
        "distance": 1437.9275009930573,
        "walking_time": "약 22분"
      }
    ],
    "convenience_store": [
      {
        "convenience_store_lat": 37.59679267,
        "convenience_store_lon": 127.0566134,
        "convenience_store_type": "편의점",
        "convenience_store_name": "세븐일레븐 외대미니점",
        "distance": 48.77630108621948,
        "walking_time": "약 1분"
      },
      {
        "convenience_store_lat": 37.59863824,
        "convenience_store_lon": 127.0573848,
        "convenience_store_type": "편의점",
        "convenience_store_name": "CU 이문1호점",
        "distance": 199.66746461200532,
        "walking_time": "약 3분"
      },
      {
        "convenience_store_lat": 37.59872541,
        "convenience_store_lon": 127.0576811,
        "convenience_store_type": "편의점",
        "convenience_store_name": "세븐일레븐 이문대화점",
        "distance": 222.1036229788448,
        "walking_time": "약 4분"
      },
      {
        "convenience_store_lat": 37.59925972,
        "convenience_store_lon": 127.0574522,
        "convenience_store_type": "편의점",
        "convenience_store_name": "GS25 외대후레쉬점",
        "distance": 263.7277633767433,
        "walking_time": "약 4분"
      },
      {
        "convenience_store_lat": 37.59490582,
        "convenience_store_lon": 127.0580862,
        "convenience_store_type": "편의점",
        "convenience_store_name": "CU 외대얄개점",
        "distance": 294.26623834455086,
        "walking_time": "약 5분"
      },
      {
        "convenience_store_lat": 37.59594226,
        "convenience_store_lon": 127.0610583,
        "convenience_store_type": "편의점",
        "convenience_store_name": "GS25 외대2점",
        "distance": 445.48069429157096,
        "walking_time": "약 7분"
      },
      {
        "convenience_store_lat": 37.59465182,
        "convenience_store_lon": 127.0607873,
        "convenience_store_type": "편의점",
        "convenience_store_name": "CU 외대이문점",
        "distance": 485.97020505795393,
        "walking_time": "약 8분"
      },
      {
        "convenience_store_lat": 37.59237579,
        "convenience_store_lon": 127.0577983,
        "convenience_store_type": "편의점",
        "convenience_store_name": "세븐일레븐 이문경희점",
        "distance": 543.3721724971608,
        "walking_time": "약 9분"
      },
      {
        "convenience_store_lat": 37.59232415,
        "convenience_store_lon": 127.0542267,
        "convenience_store_type": "편의점",
        "convenience_store_name": "GS25 경희외대점",
        "distance": 559.1741463382214,
        "walking_time": "약 9분"
      },
      {
        "convenience_store_lat": 37.59249251,
        "convenience_store_lon": 127.0535112,
        "convenience_store_type": "편의점",
        "convenience_store_name": "CU 경희대점",
        "distance": 565.0063922784188,
        "walking_time": "약 9분"
      }
    ],
    "daycare": [
      {
        "daycare_lat": 37.59621368,
        "daycare_lon": 127.0548411,
        "daycare_type": "어린이집",
        "daycare_name": "경희대학교직장어린이집",
        "distance": 156.19272050171634,
        "walking_time": "약 3분"
      },
      {
        "daycare_lat": 37.598485672505454,
        "daycare_lon": 127.05699152673697,
        "daycare_type": "어린이집",
        "daycare_name": "한빛어린이집",
        "distance": 168.5864044113252,
        "walking_time": "약 3분"
      },
      {
        "daycare_lat": 37.59905168,
        "daycare_lon": 127.0570817,
        "daycare_type": "어린이집",
        "daycare_name": "한국외국어대학교어린이집",
        "distance": 230.077390543318,
        "walking_time": "약 4분"
      },
      {
        "daycare_lat": 37.59550116,
        "daycare_lon": 127.0584738,
        "daycare_type": "어린이집",
        "daycare_name": "리틀짐랜드어린이집",
        "distance": 266.638060515822,
        "walking_time": "약 4분"
      },
      {
        "daycare_lat": 37.59891563,
        "daycare_lon": 127.0541343,
        "daycare_type": "어린이집",
        "daycare_name": "내마음의어린이집",
        "distance": 272.9011954676264,
        "walking_time": "약 5분"
      },
      {
        "daycare_lat": 37.59535226,
        "daycare_lon": 127.0592367,
        "daycare_type": "어린이집",
        "daycare_name": "짐랜드어린이집",
        "distance": 329.38763325982217,
        "walking_time": "약 5분"
      },
      {
        "daycare_lat": 37.59802536,
        "daycare_lon": 127.0601067,
        "daycare_type": "어린이집",
        "daycare_name": "보인푸른숲어린이집",
        "distance": 357.80121327631804,
        "walking_time": "약 6분"
      },
      {
        "daycare_lat": 37.59341711,
        "daycare_lon": 127.0570133,
        "daycare_type": "어린이집",
        "daycare_name": "샛별어린이집",
        "distance": 415.38854087764935,
        "walking_time": "약 7분"
      },
      {
        "daycare_lat": 37.59522345,
        "daycare_lon": 127.0605983,
        "daycare_type": "어린이집",
        "daycare_name": "누리어린이집",
        "distance": 438.725127180788,
        "walking_time": "약 7분"
      },
      {
        "daycare_lat": 37.59423642,
        "daycare_lon": 127.0606628,
        "daycare_type": "어린이집",
        "daycare_name": "솜송이어린이집",
        "distance": 504.7066185998633,
        "walking_time": "약 8분"
      }
    ],
    "education": [
      {
        "education_lat": 37.59782541765426,
        "education_lon": 127.0552089479752,
        "education_type": "박물관/기념관",
        "education_name": "경희대학교 자연사박물관",
        "distance": 120.05845486597896,
        "walking_time": "약 2분"
      },
      {
        "education_lat": 37.59583018210771,
        "education_lon": 127.05421667214812,
        "education_type": "박물관/기념관",
        "education_name": "경희대학교한의학역사박물관",
        "distance": 225.7862688519948,
        "walking_time": "약 4분"
      },
      {
        "education_lat": 37.59889444,
        "education_lon": 127.0538436,
        "education_type": "도서관",
        "education_name": "이문어린이도서관",
        "distance": 289.11038958977906,
        "walking_time": "약 5분"
      },
      {
        "education_lat": 37.59713729362956,
        "education_lon": 127.05272856110398,
        "education_type": "박물관/기념관",
        "education_name": "경희대학교 중앙박물관",
        "distance": 307.39699622068485,
        "walking_time": "약 5분"
      },
      {
        "education_lat": 37.60500291,
        "education_lon": 127.0507422,
        "education_type": "도서관",
        "education_name": "성북정보도서관",
        "distance": 1002.5190531610564,
        "walking_time": "약 15분"
      },
      {
        "education_lat": 37.60497289,
        "education_lon": 127.0505855,
        "education_type": "공연장",
        "education_name": "천장산우화극장",
        "distance": 1006.3281240424888,
        "walking_time": "약 16분"
      },
      {
        "education_lat": 37.58996951,
        "education_lon": 127.0472897,
        "education_type": "도서관",
        "education_name": "동대문구정보화도서관",
        "distance": 1116.7860988446505,
        "walking_time": "약 17분"
      },
      {
        "education_lat": 37.59099289,
        "education_lon": 127.0427032,
        "education_type": "박물관/기념관",
        "education_name": "세종대왕기념관",
        "distance": 1370.664617224976,
        "walking_time": "약 21분"
      },
      {
        "education_lat": 37.59070597134996,
        "education_lon": 127.04281951646152,
        "education_type": "박물관/기념관",
        "education_name": "김희수아트센터",
        "distance": 1377.958668023858,
        "walking_time": "약 21분"
      },
      {
        "education_lat": 37.60411979670712,
        "education_lon": 127.04192972112838,
        "education_type": "도서관",
        "education_name": "월곡꿈그림도서관",
        "distance": 1481.1393043773478,
        "walking_time": "약 23분"
      }
    ],
    "electric_gas_station": [
      {
        "electric_gas_station_lat": 37.59849172,
        "electric_gas_station_lon": 127.0618858,
        "electric_gas_station_type": "전기차 충전소",
        "electric_gas_station_name": "이마트 이문점",
        "distance": 522.8537542353862,
        "walking_time": "약 8분"
      },
      {
        "electric_gas_station_lat": 37.60939144,
        "electric_gas_station_lon": 127.0532211,
        "electric_gas_station_type": "전기차 충전소",
        "electric_gas_station_name": "성북벤처빌딩 공영주차장",
        "distance": 1392.091251329639,
        "walking_time": "약 21분"
      },
      {
        "electric_gas_station_lat": 37.60182774,
        "electric_gas_station_lon": 127.0404635,
        "electric_gas_station_type": "전기차 충전소",
        "electric_gas_station_name": "홈플러스 월곡점",
        "distance": 1484.1584308327951,
        "walking_time": "약 23분"
      },
      {
        "electric_gas_station_lat": 37.5841974,
        "electric_gas_station_lon": 127.051145,
        "electric_gas_station_type": "전기차 충전소",
        "electric_gas_station_name": "청량리롯데백화점",
        "distance": 1502.6136076148805,
        "walking_time": "약 23분"
      }
    ],
    "fitness": [
      {
        "fitness_lat": 37.59938424,
        "fitness_lon": 127.0574333,
        "fitness_type": "운동시설",
        "fitness_name": "에스라인 휘트니스",
        "distance": 275.7485959841403,
        "walking_time": "약 5분"
      },
      {
        "fitness_lat": 37.59383905,
        "fitness_lon": 127.0582469,
        "fitness_type": "운동시설",
        "fitness_name": "헬스파크",
        "distance": 404.210889297644,
        "walking_time": "약 7분"
      },
      {
        "fitness_lat": 37.59637723,
        "fitness_lon": 127.0609451,
        "fitness_type": "운동시설",
        "fitness_name": "팻다운핏",
        "distance": 424.1929653991,
        "walking_time": "약 7분"
      },
      {
        "fitness_lat": 37.59601668,
        "fitness_lon": 127.0617436,
        "fitness_type": "운동시설",
        "fitness_name": "짐구공 외대점",
        "distance": 501.5369029686781,
        "walking_time": "약 8분"
      },
      {
        "fitness_lat": 37.59262596,
        "fitness_lon": 127.057882,
        "fitness_type": "운동시설",
        "fitness_name": "동네 운동장",
        "distance": 518.5704426184703,
        "walking_time": "약 8분"
      },
      {
        "fitness_lat": 37.59849172,
        "fitness_lon": 127.0618858,
        "fitness_type": "운동시설",
        "fitness_name": "미라클 휘트니스",
        "distance": 522.8537542353862,
        "walking_time": "약 8분"
      },
      {
        "fitness_lat": 37.59590016,
        "fitness_lon": 127.0619628,
        "fitness_type": "운동시설",
        "fitness_name": "TRUST GYM",
        "distance": 523.4547345278761,
        "walking_time": "약 8분"
      },
      {
        "fitness_lat": 37.59326695,
        "fitness_lon": 127.0522213,
        "fitness_type": "운동시설",
        "fitness_name": "101퍼센트짐",
        "distance": 552.7499461462799,
        "walking_time": "약 9분"
      },
      {
        "fitness_lat": 37.59266973,
        "fitness_lon": 127.0529207,
        "fitness_type": "운동시설",
        "fitness_name": "회기동헬스학교 경희대학교점",
        "distance": 571.792907776705,
        "walking_time": "약 9분"
      },
      {
        "fitness_lat": 37.59229015,
        "fitness_lon": 127.0534968,
        "fitness_type": "운동시설",
        "fitness_name": "나봄PT&필라테스",
        "distance": 586.0011782043484,
        "walking_time": "약 9분"
      }
    ],
    "gas_station": [
      {
        "gas_station_lat": 37.60364823,
        "gas_station_lon": 127.0618006,
        "gas_station_type": "주유소",
        "gas_station_name": "㈜경동주유소",
        "distance": 878.7773520867589,
        "walking_time": "약 14분"
      },
      {
        "gas_station_lat": 37.58842532,
        "gas_station_lon": 127.0573955,
        "gas_station_type": "주유소",
        "gas_station_name": "한영주유소",
        "distance": 970.0578054770764,
        "walking_time": "약 15분"
      },
      {
        "gas_station_lat": 37.59018314,
        "gas_station_lon": 127.0632353,
        "gas_station_type": "주유소",
        "gas_station_name": "㈜안국에너지 삼원주유소",
        "distance": 986.7773597007738,
        "walking_time": "약 15분"
      },
      {
        "gas_station_lat": 37.59754374,
        "gas_station_lon": 127.0680386,
        "gas_station_type": "주유소",
        "gas_station_name": "동서울고속주유소",
        "distance": 1042.6470118323346,
        "walking_time": "약 16분"
      },
      {
        "gas_station_lat": 37.59122764,
        "gas_station_lon": 127.0670365,
        "gas_station_type": "주유소",
        "gas_station_name": "㈜파랑에너지",
        "distance": 1155.3793369091209,
        "walking_time": "약 18분"
      },
      {
        "gas_station_lat": 37.60690716,
        "gas_station_lon": 127.0500906,
        "gas_station_type": "주유소",
        "gas_station_name": "㈜신용구도일주유소 화랑로",
        "distance": 1216.8515588858488,
        "walking_time": "약 19분"
      },
      {
        "gas_station_lat": 37.58646996,
        "gas_station_lon": 127.0516032,
        "gas_station_type": "주유소",
        "gas_station_name": "대성산업㈜청량리주유소",
        "distance": 1249.879205724736,
        "walking_time": "약 19분"
      },
      {
        "gas_station_lat": 37.60786905,
        "gas_station_lon": 127.0507396,
        "gas_station_type": "주유소",
        "gas_station_name": "지에스칼텍스(주)화랑주유소",
        "distance": 1291.1272692939822,
        "walking_time": "약 20분"
      },
      {
        "gas_station_lat": 37.60346378,
        "gas_station_lon": 127.043444,
        "gas_station_type": "주유소",
        "gas_station_name": "장위주유소",
        "distance": 1329.351746161695,
        "walking_time": "약 20분"
      },
      {
        "gas_station_lat": 37.58800922,
        "gas_station_lon": 127.042553,
        "gas_station_type": "주유소",
        "gas_station_name": "㈜홍릉주유소",
        "distance": 1571.9645144045753,
        "walking_time": "약 24분"
      }
    ],
    "hospital": [
      {
        "hospital_lat": 37.59473864,
        "hospital_lon": 127.0588947,
        "hospital_type": "병원",
        "hospital_name": "경희장수한의원",
        "distance": 352.8978088834613,
        "walking_time": "약 6분"
      },
      {
        "hospital_lat": 37.59532172,
        "hospital_lon": 127.0597043,
        "hospital_type": "병원",
        "hospital_name": "아라현치과의원",
        "distance": 365.29759923252425,
        "walking_time": "약 6분"
      },
      {
        "hospital_lat": 37.59552679,
        "hospital_lon": 127.0598725,
        "hospital_type": "병원",
        "hospital_name": "서울현정신건강의학과의원",
        "distance": 366.4329868642339,
        "walking_time": "약 6분"
      },
      {
        "hospital_lat": 37.59467108,
        "hospital_lon": 127.0594083,
        "hospital_type": "병원",
        "hospital_name": "동안비전내과의원",
        "distance": 389.7847483411393,
        "walking_time": "약 6분"
      },
      {
        "hospital_lat": 37.59467108,
        "hospital_lon": 127.0594083,
        "hospital_type": "병원",
        "hospital_name": "서울베스트정형외과의원",
        "distance": 389.7847483411393,
        "walking_time": "약 6분"
      },
      {
        "hospital_lat": 37.59673505,
        "hospital_lon": 127.0606824,
        "hospital_type": "병원",
        "hospital_name": "미체로의원",
        "distance": 395.4605007961985,
        "walking_time": "약 6분"
      },
      {
        "hospital_lat": 37.59750288,
        "hospital_lon": 127.0606852,
        "hospital_type": "병원",
        "hospital_name": "보인내과의원",
        "distance": 396.17857887636455,
        "walking_time": "약 6분"
      },
      {
        "hospital_lat": 37.59605576,
        "hospital_lon": 127.0607499,
        "hospital_type": "병원",
        "hospital_name": "서울아트피부과의원",
        "distance": 415.8441652760568,
        "walking_time": "약 7분"
      },
      {
        "hospital_lat": 37.59605576,
        "hospital_lon": 127.0607499,
        "hospital_type": "병원",
        "hospital_name": "에이블치과의원",
        "distance": 415.8441652760568,
        "walking_time": "약 7분"
      },
      {
        "hospital_lat": 37.59788505,
        "hospital_lon": 127.0609121,
        "hospital_type": "병원",
        "hospital_name": "NYU이문치과의원",
        "distance": 422.7467371533816,
        "walking_time": "약 7분"
      }
    ],
    "music_room": [
      {
        "music_room_lat": 37.59538187,
        "music_room_lon": 127.0592314,
        "music_room_type": "노래방",
        "music_room_name": "고래고래코인노래연습장",
        "distance": 327.07751806975887,
        "walking_time": "약 5분"
      },
      {
        "music_room_lat": 37.5956973,
        "music_room_lon": 127.0599621,
        "music_room_type": "노래방",
        "music_room_name": "리코스타코인노래연습장(외대2호점)",
        "distance": 364.8959105378616,
        "walking_time": "약 6분"
      },
      {
        "music_room_lat": 37.59618322,
        "music_room_lon": 127.060295,
        "music_room_type": "노래방",
        "music_room_name": "외대락코인노래연습장",
        "distance": 373.4110752780055,
        "walking_time": "약 6분"
      },
      {
        "music_room_lat": 37.59712948,
        "music_room_lon": 127.0609188,
        "music_room_type": "노래방",
        "music_room_name": "리코스타 코인노래연습장",
        "distance": 414.22241133981294,
        "walking_time": "약 7분"
      },
      {
        "music_room_lat": 37.59623476,
        "music_room_lon": 127.0611603,
        "music_room_type": "노래방",
        "music_room_name": "뉴쟁반",
        "distance": 445.9690132867562,
        "walking_time": "약 7분"
      },
      {
        "music_room_lat": 37.59269055,
        "music_room_lon": 127.0527132,
        "music_room_type": "노래방",
        "music_room_name": "세븐스타코인노래연습장(경희대점)",
        "distance": 579.3323628098007,
        "walking_time": "약 9분"
      },
      {
        "music_room_lat": 37.59555123,
        "music_room_lon": 127.0626107,
        "music_room_type": "노래방",
        "music_room_name": "노래야노래야코인노래연습장",
        "distance": 588.9858635997095,
        "walking_time": "약 9분"
      },
      {
        "music_room_lat": 37.59232468,
        "music_room_lon": 127.0526451,
        "music_room_type": "노래방",
        "music_room_name": "스위트",
        "distance": 617.1783212006915,
        "walking_time": "약 10분"
      },
      {
        "music_room_lat": 37.5921582,
        "music_room_lon": 127.0526049,
        "music_room_type": "노래방",
        "music_room_name": "딩가",
        "distance": 634.9406924122374,
        "walking_time": "약 10분"
      },
      {
        "music_room_lat": 37.59215487,
        "music_room_lon": 127.0521861,
        "music_room_type": "노래방",
        "music_room_name": "라이트 코인노래연습장",
        "distance": 654.5270795094556,
        "walking_time": "약 10분"
      }
    ],
    "park": [
      {
        "park_lat": 37.6020055,
        "park_lon": 127.0511145,
        "park_type": "공원",
        "park_name": "청량공원",
        "distance": 706.919197282397,
        "walking_time": "약 11분"
      },
      {
        "park_lat": 37.5812324,
        "park_lon": 127.0641623,
        "park_type": "공원",
        "park_name": "배봉산근린공원",
        "distance": 1898.111642587609,
        "walking_time": "약 29분"
      }
    ],
    "park_station": [
      {
        "park_station_lat": 37.59207318,
        "park_station_lon": 127.0554804,
        "park_station_type": "주차장",
        "park_station_name": "회기동 공영주차장",
        "distance": 562.623166725028,
        "walking_time": "약 9분"
      },
      {
        "park_station_lat": 37.59503649,
        "park_station_lon": 127.062614,
        "park_station_type": "주차장",
        "park_station_name": "외대역주차빌딩 공영",
        "distance": 608.451784422032,
        "walking_time": "약 10분"
      },
      {
        "park_station_lat": 37.5900855,
        "park_station_lon": 127.0566249,
        "park_station_type": "주차장",
        "park_station_name": "회기역주변 공영주차장",
        "distance": 780.7104532286609,
        "walking_time": "약 12분"
      },
      {
        "park_station_lat": 37.59548055,
        "park_station_lon": 127.0651718,
        "park_station_type": "주차장",
        "park_station_name": "이경시장 공영주차장",
        "distance": 809.1852809786078,
        "walking_time": "약 13분"
      },
      {
        "park_station_lat": 37.58804584,
        "park_station_lon": 127.0580993,
        "park_station_type": "주차장",
        "park_station_name": "휘경마을 공영주차장",
        "distance": 1020.24870412171,
        "walking_time": "약 16분"
      },
      {
        "park_station_lat": 37.58690804,
        "park_station_lon": 127.0620476,
        "park_station_type": "주차장",
        "park_station_name": "배봉공영주차장",
        "distance": 1244.197304875796,
        "walking_time": "약 19분"
      },
      {
        "park_station_lat": 37.60939144,
        "park_station_lon": 127.0532211,
        "park_station_type": "주차장",
        "park_station_name": "벤처빌딩",
        "distance": 1392.091251329639,
        "walking_time": "약 21분"
      },
      {
        "park_station_lat": 37.58985933,
        "park_station_lon": 127.0693296,
        "park_station_type": "주차장",
        "park_station_name": "휘경유수지",
        "distance": 1408.096291240913,
        "walking_time": "약 22분"
      },
      {
        "park_station_lat": 37.58909598,
        "park_station_lon": 127.0690624,
        "park_station_type": "주차장",
        "park_station_name": "견인보관소",
        "distance": 1439.7137948802176,
        "walking_time": "약 22분"
      },
      {
        "park_station_lat": 37.58918427,
        "park_station_lon": 127.0696973,
        "park_station_type": "주차장",
        "park_station_name": "휘경유수지 공영주차장",
        "distance": 1478.2228766204414,
        "walking_time": "약 23분"
      }
    ],
    "pc_room": [
      {
        "pc_room_lat": 37.5983004756761,
        "pc_room_lon": 127.056800748936,
        "pc_room_type": "PC방",
        "pc_room_name": "3POP PC방",
        "distance": 143.12720787885607,
        "walking_time": "약 3분"
      },
      {
        "pc_room_lat": 37.5986382449798,
        "pc_room_lon": 127.057384751368,
        "pc_room_type": "PC방",
        "pc_room_name": "리얼PC",
        "distance": 199.66573215492164,
        "walking_time": "약 3분"
      },
      {
        "pc_room_lat": 37.5953818714405,
        "pc_room_lon": 127.05923135853,
        "pc_room_type": "PC방",
        "pc_room_name": "1% PC아레나",
        "distance": 327.07445823828084,
        "walking_time": "약 5분"
      },
      {
        "pc_room_lat": 37.5950014960546,
        "pc_room_lon": 127.059005156761,
        "pc_room_type": "PC방",
        "pc_room_name": "제너스PC 외대점",
        "distance": 338.7228204692923,
        "walking_time": "약 6분"
      },
      {
        "pc_room_lat": 37.5967350539561,
        "pc_room_lon": 127.060682416152,
        "pc_room_type": "PC방",
        "pc_room_name": "VRIZ PC CAFE",
        "distance": 395.4618712983186,
        "walking_time": "약 6분"
      },
      {
        "pc_room_lat": 37.5961287575383,
        "pc_room_lon": 127.061416705231,
        "pc_room_type": "PC방",
        "pc_room_name": "아이센스리그PC 외대점",
        "distance": 470.6156244072784,
        "walking_time": "약 8분"
      },
      {
        "pc_room_lat": 37.5957907777139,
        "pc_room_lon": 127.062480944175,
        "pc_room_type": "PC방",
        "pc_room_name": "해리PC방",
        "distance": 570.6973854829083,
        "walking_time": "약 9분"
      },
      {
        "pc_room_lat": 37.5921664231806,
        "pc_room_lon": 127.051733055169,
        "pc_room_type": "PC방",
        "pc_room_name": "에이플 PC CAFE",
        "distance": 675.974636054145,
        "walking_time": "약 11분"
      },
      {
        "pc_room_lat": 37.5918832479684,
        "pc_room_lon": 127.051923309488,
        "pc_room_type": "PC방",
        "pc_room_name": "GEEK STAR PC CAFE",
        "distance": 692.4674958034681,
        "walking_time": "약 11분"
      },
      {
        "pc_room_lat": 37.5918420916189,
        "pc_room_lon": 127.051674744477,
        "pc_room_type": "PC방",
        "pc_room_name": "EXIT PC CAFE",
        "distance": 708.4425550960732,
        "walking_time": "약 11분"
      }
    ],
    "police_office": [
      {
        "police_office_lat": 37.59108473,
        "police_office_lon": 127.0518493,
        "police_office_type": "경찰소",
        "police_office_name": "회기파출소",
        "distance": 771.600853645959,
        "walking_time": "약 12분"
      },
      {
        "police_office_lat": 37.59648386,
        "police_office_lon": 127.0681153,
        "police_office_type": "경찰소",
        "police_office_name": "이문지구대",
        "distance": 1050.4698232591245,
        "walking_time": "약 16분"
      },
      {
        "police_office_lat": 37.58637309,
        "police_office_lon": 127.0542292,
        "police_office_type": "경찰소",
        "police_office_name": "전농2파출소",
        "distance": 1205.4805073660243,
        "walking_time": "약 18분"
      },
      {
        "police_office_lat": 37.60895875,
        "police_office_lon": 127.0552686,
        "police_office_type": "경찰소",
        "police_office_name": "석관파출소",
        "distance": 1321.3713463980491,
        "walking_time": "약 20분"
      },
      {
        "police_office_lat": 37.58467452,
        "police_office_lon": 127.0680238,
        "police_office_type": "경찰소",
        "police_office_name": "휘경파출소",
        "distance": 1729.4055602631606,
        "walking_time": "약 26분"
      },
      {
        "police_office_lat": 37.58410673,
        "police_office_lon": 127.0452724,
        "police_office_type": "경찰소",
        "police_office_name": "청량리파출소",
        "distance": 1736.985447962091,
        "walking_time": "약 26분"
      },
      {
        "police_office_lat": 37.58556267,
        "police_office_lon": 127.0420264,
        "police_office_type": "경찰소",
        "police_office_name": "제기파출소",
        "distance": 1791.3522229718417,
        "walking_time": "약 27분"
      }
    ],
    "post_office": [
      {
        "post_office_lat": 37.59829668,
        "post_office_lon": 127.0579424,
        "post_office_type": "우체국",
        "post_office_name": "한국외국어대학교우편취급국",
        "distance": 202.0619157584369,
        "walking_time": "약 4분"
      },
      {
        "post_office_lat": 37.59394914,
        "post_office_lon": 127.054891,
        "post_office_type": "우체국",
        "post_office_name": "경희대학교우편취급국",
        "distance": 369.245299799509,
        "walking_time": "약 6분"
      },
      {
        "post_office_lat": 37.59853967,
        "post_office_lon": 127.0611615,
        "post_office_type": "우체국",
        "post_office_name": "서울이문동우체국",
        "distance": 464.10399958848416,
        "walking_time": "약 7분"
      },
      {
        "post_office_lat": 37.59032721,
        "post_office_lon": 127.0581584,
        "post_office_type": "우체국",
        "post_office_name": "서울휘경동우체국",
        "distance": 772.1837103331085,
        "walking_time": "약 12분"
      },
      {
        "post_office_lat": 37.60876795,
        "post_office_lon": 127.0524242,
        "post_office_type": "우체국",
        "post_office_name": "서울석관동우체국",
        "distance": 1339.8475182071468,
        "walking_time": "약 20분"
      },
      {
        "post_office_lat": 37.58257758,
        "post_office_lon": 127.0599881,
        "post_office_type": "우체국",
        "post_office_name": "서울시립대학교우편취급국",
        "distance": 1648.5536492552546,
        "walking_time": "약 25분"
      },
      {
        "post_office_lat": 37.6061912,
        "post_office_lon": 127.0405704,
        "post_office_type": "우체국",
        "post_office_name": "서울월곡1동우편취급국",
        "distance": 1709.4442175899449,
        "walking_time": "약 26분"
      },
      {
        "post_office_lat": 37.58129117,
        "post_office_lon": 127.0451456,
        "post_office_type": "우체국",
        "post_office_name": "서울청량리우체국",
        "distance": 2010.333655769488,
        "walking_time": "약 31분"
      }
    ],
    "school": [
      {
        "school_lat": 37.5939491407769,
        "school_lon": 127.054890960564,
        "school_type": "고등학교",
        "school_name": "경희고등학교",
        "distance": 369.2463174316412,
        "walking_time": "약 6분"
      },
      {
        "school_lat": 37.5939491407769,
        "school_lon": 127.054890960564,
        "school_type": "고등학교",
        "school_name": "경희여자고등학교",
        "distance": 369.2463174316412,
        "walking_time": "약 6분"
      },
      {
        "school_lat": 37.5939491407769,
        "school_lon": 127.054890960564,
        "school_type": "중학교",
        "school_name": "경희중학교",
        "distance": 369.2463174316412,
        "walking_time": "약 6분"
      },
      {
        "school_lat": 37.5939491407769,
        "school_lon": 127.054890960564,
        "school_type": "중학교",
        "school_name": "경희여자중학교",
        "distance": 369.2463174316412,
        "walking_time": "약 6분"
      },
      {
        "school_lat": 37.5939491407769,
        "school_lon": 127.054890960564,
        "school_type": "초등학교",
        "school_name": "경희초등학교",
        "distance": 369.2463174316412,
        "walking_time": "약 6분"
      },
      {
        "school_lat": 37.5923093987643,
        "school_lon": 127.055908478798,
        "school_type": "초등학교",
        "school_name": "서울청량초등학교",
        "distance": 533.2926184022726,
        "walking_time": "약 8분"
      },
      {
        "school_lat": 37.6018964867149,
        "school_lon": 127.064885003959,
        "school_type": "초등학교",
        "school_name": "서울이문초등학교",
        "distance": 931.4844007471372,
        "walking_time": "약 14분"
      },
      {
        "school_lat": 37.5888860047887,
        "school_lon": 127.051310950177,
        "school_type": "고등학교",
        "school_name": "청량고등학교",
        "distance": 1010.4052052982396,
        "walking_time": "약 16분"
      },
      {
        "school_lat": 37.5906875196186,
        "school_lon": 127.047705124334,
        "school_type": "초등학교",
        "school_name": "서울홍릉초등학교",
        "distance": 1034.7704438814658,
        "walking_time": "약 16분"
      },
      {
        "school_lat": 37.5896941349867,
        "school_lon": 127.0482485373,
        "school_type": "초등학교",
        "school_name": "서울삼육초등학교",
        "distance": 1082.0988678765916,
        "walking_time": "약 17분"
      }
    ],
    "self_laundromat": [
      {
        "self_laundromat_lat": 37.60719853,
        "self_laundromat_lon": 127.051166,
        "self_laundromat_type": "셀프 빨래방",
        "self_laundromat_name": "워시테리아 석관점",
        "distance": 1207.953440421796,
        "walking_time": "약 19분"
      },
      {
        "self_laundromat_lat": 37.60719853,
        "self_laundromat_lon": 127.051166,
        "self_laundromat_type": "셀프 빨래방",
        "self_laundromat_name": "워시테리아 석관점",
        "distance": 1207.953440421796,
        "walking_time": "약 19분"
      },
      {
        "self_laundromat_lat": 37.60922779,
        "self_laundromat_lon": 127.0563821,
        "self_laundromat_type": "셀프 빨래방",
        "self_laundromat_name": "런드리데이",
        "distance": 1348.7194571756995,
        "walking_time": "약 21분"
      },
      {
        "self_laundromat_lat": 37.60922779,
        "self_laundromat_lon": 127.0563821,
        "self_laundromat_type": "셀프 빨래방",
        "self_laundromat_name": "빨래하는날",
        "distance": 1348.7194571756995,
        "walking_time": "약 21분"
      },
      {
        "self_laundromat_lat": 37.60922779,
        "self_laundromat_lon": 127.0563821,
        "self_laundromat_type": "셀프 빨래방",
        "self_laundromat_name": "런드리데이",
        "distance": 1348.7194571756995,
        "walking_time": "약 21분"
      },
      {
        "self_laundromat_lat": 37.60922779,
        "self_laundromat_lon": 127.0563821,
        "self_laundromat_type": "셀프 빨래방",
        "self_laundromat_name": "빨래하는날",
        "distance": 1348.7194571756995,
        "walking_time": "약 21분"
      },
      {
        "self_laundromat_lat": 37.60577676,
        "self_laundromat_lon": 127.0445272,
        "self_laundromat_type": "셀프 빨래방",
        "self_laundromat_name": "화이트365 동덕여대점",
        "distance": 1411.2621282601135,
        "walking_time": "약 22분"
      },
      {
        "self_laundromat_lat": 37.60577676,
        "self_laundromat_lon": 127.0445272,
        "self_laundromat_type": "셀프 빨래방",
        "self_laundromat_name": "화이트365 동덕여대점",
        "distance": 1411.2621282601135,
        "walking_time": "약 22분"
      },
      {
        "self_laundromat_lat": 37.60551285,
        "self_laundromat_lon": 127.0438348,
        "self_laundromat_type": "셀프 빨래방",
        "self_laundromat_name": "크린업24 동덕여대점",
        "distance": 1437.0997742758632,
        "walking_time": "약 22분"
      },
      {
        "self_laundromat_lat": 37.60551285,
        "self_laundromat_lon": 127.0438348,
        "self_laundromat_type": "셀프 빨래방",
        "self_laundromat_name": "크린업24 동덕여대점",
        "distance": 1437.0997742758632,
        "walking_time": "약 22분"
      }
    ],
    "subway": [
      {
        "subway_lat": 37.6062641394281,
        "subway_lon": 127.048326622029,
        "subway_type": "지하철",
        "subway_name": "6호선-상월곡(한국과학기술연구원)역",
        "distance": 1233.6076638926072,
        "walking_time": "약 19분"
      },
      {
        "subway_lat": 37.6014210523409,
        "subway_lon": 127.041184766468,
        "subway_type": "지하철",
        "subway_name": "6호선-월곡(동덕여대)역",
        "distance": 1408.8581719492931,
        "walking_time": "약 22분"
      },
      {
        "subway_lat": 37.5808935779959,
        "subway_lon": 127.045572642704,
        "subway_type": "지하철",
        "subway_name": "1호선-청량리(서울시립대입구)역",
        "distance": 2031.4587898790487,
        "walking_time": "약 31분"
      }
    ],
    "supermarket": [
      {
        "supermarket_lat": 37.59467108,
        "supermarket_lon": 127.0594083,
        "supermarket_type": "마트",
        "supermarket_name": "롯데쇼핑(주) 롯데마켓 999 이문점",
        "distance": 389.7847483411393,
        "walking_time": "약 6분"
      },
      {
        "supermarket_lat": 37.59336179,
        "supermarket_lon": 127.052916,
        "supermarket_type": "마트",
        "supermarket_name": "홈플러스 익스프레스 서울회기점",
        "distance": 507.252297407203,
        "walking_time": "약 8분"
      },
      {
        "supermarket_lat": 37.59849172,
        "supermarket_lon": 127.0618858,
        "supermarket_type": "마트",
        "supermarket_name": "이문제일시장",
        "distance": 522.8537542353862,
        "walking_time": "약 8분"
      },
      {
        "supermarket_lat": 37.59849172,
        "supermarket_lon": 127.0618858,
        "supermarket_type": "마트",
        "supermarket_name": "이문동웰츠타워",
        "distance": 522.8537542353862,
        "walking_time": "약 8분"
      },
      {
        "supermarket_lat": 37.59849172,
        "supermarket_lon": 127.0618858,
        "supermarket_type": "마트",
        "supermarket_name": "이마트에브리데이 이문점",
        "distance": 522.8537542353862,
        "walking_time": "약 8분"
      },
      {
        "supermarket_lat": 37.59982336,
        "supermarket_lon": 127.0612412,
        "supermarket_type": "마트",
        "supermarket_name": "GS THE FRESH 이문라그란데점",
        "distance": 536.3369793053002,
        "walking_time": "약 9분"
      },
      {
        "supermarket_lat": 37.59080113,
        "supermarket_lon": 127.0561174,
        "supermarket_type": "마트",
        "supermarket_name": "베라체캠퍼스 에비뉴",
        "distance": 700.3651053758689,
        "walking_time": "약 11분"
      },
      {
        "supermarket_lat": 37.59459717,
        "supermarket_lon": 127.0665577,
        "supermarket_type": "마트",
        "supermarket_name": "이경시장",
        "distance": 952.5558396099632,
        "walking_time": "약 15분"
      },
      {
        "supermarket_lat": 37.60896519,
        "supermarket_lon": 127.0603166,
        "supermarket_type": "마트",
        "supermarket_name": "석관시장",
        "distance": 1367.968294171964,
        "walking_time": "약 21분"
      },
      {
        "supermarket_lat": 37.60182774,
        "supermarket_lon": 127.0404635,
        "supermarket_type": "마트",
        "supermarket_name": "홈플러스 월곡점",
        "distance": 1484.1584308327951,
        "walking_time": "약 23분"
      }
    ],
    "tax_office": [
      {
        "tax_office_lat": 37.58324212,
        "tax_office_lon": 127.0478161,
        "tax_office_type": "세무서",
        "tax_office_name": "동대문세무서",
        "distance": 1709.419334191724,
        "walking_time": "약 26분"
      }
    ],
    "theater": [
      {
        "theater_lat": 37.584197400389,
        "theater_lon": 127.05114503929,
        "theater_type": "영화관",
        "theater_name": "롯데시네마청량리",
        "distance": 1502.6125366709855,
        "walking_time": "약 23분"
      }
    ],
    "university": [
      {
        "university_lat": 37.5982966771548,
        "university_lon": 127.057942413722,
        "university_type": "대학교",
        "university_name": "한국외국어대학교",
        "distance": 202.06261657000124,
        "walking_time": "약 4분"
      },
      {
        "university_lat": 37.5982966771548,
        "university_lon": 127.057942413722,
        "university_type": "대학교",
        "university_name": "사이버한국외국어대학교",
        "distance": 202.06261657000124,
        "walking_time": "약 4분"
      },
      {
        "university_lat": 37.5939491407769,
        "university_lon": 127.054890960564,
        "university_type": "대학교",
        "university_name": "경희대학교",
        "distance": 369.2463174316412,
        "walking_time": "약 6분"
      },
      {
        "university_lat": 37.5901076994928,
        "university_lon": 127.068614843098,
        "university_type": "전문대학교(3년제)",
        "university_name": "삼육보건대학교",
        "distance": 1340.7043161229944,
        "walking_time": "약 21분"
      },
      {
        "university_lat": 37.5825775765293,
        "university_lon": 127.059988126984,
        "university_type": "대학교",
        "university_name": "서울시립대학교",
        "distance": 1648.5545064329683,
        "walking_time": "약 25분"
      },
      {
        "university_lat": 37.6068148327539,
        "university_lon": 127.041176301847,
        "university_type": "대학교",
        "university_name": "동덕여자대학교",
        "distance": 1709.6489346990588,
        "walking_time": "약 26분"
      }
    ]
  }
}