{
  "클러스터_위도": 37.64545200152481,
  "클러스터_경도": 127.035272497205,
  "클러스터_level": 4.0,
  "facilities": {
    "bus": [
      {
        "bus_lat": 37.64598169,
        "bus_lon": 127.0348523,
        "bus_type": "버스정류장",
        "bus_name": "한신아파트101동앞",
        "distance": 69.55400133807342,
        "walking_time": "약 2분"
      },
      {
        "bus_lat": 37.64599615,
        "bus_lon": 127.0347141,
        "bus_type": "버스정류장",
        "bus_name": "창동한신아파트",
        "distance": 77.96228293006413,
        "walking_time": "약 2분"
      },
      {
        "bus_lat": 37.64619248,
        "bus_lon": 127.035124,
        "bus_type": "버스정류장",
        "bus_name": "KT도봉지점",
        "distance": 83.36902184842255,
        "walking_time": "약 2분"
      },
      {
        "bus_lat": 37.646154,
        "bus_lon": 127.0371449,
        "bus_type": "버스정류장",
        "bus_name": "창동중앙약국",
        "distance": 182.4010468388434,
        "walking_time": "약 3분"
      },
      {
        "bus_lat": 37.64615397,
        "bus_lon": 127.0372571,
        "bus_type": "버스정류장",
        "bus_name": "창2동한일아파트",
        "distance": 191.37466034805217,
        "walking_time": "약 3분"
      },
      {
        "bus_lat": 37.64637979,
        "bus_lon": 127.037608,
        "bus_type": "버스정류장",
        "bus_name": "창1동제1공영주차장입구",
        "distance": 230.0559570366174,
        "walking_time": "약 4분"
      },
      {
        "bus_lat": 37.645293,
        "bus_lon": 127.0326524,
        "bus_type": "버스정류장",
        "bus_name": "우이1교앞",
        "distance": 231.36255190838915,
        "walking_time": "약 4분"
      },
      {
        "bus_lat": 37.64753181,
        "bus_lon": 127.03428,
        "bus_type": "버스정류장",
        "bus_name": "쌍문역.쌍리단길",
        "distance": 247.22233891932828,
        "walking_time": "약 4분"
      },
      {
        "bus_lat": 37.644652,
        "bus_lon": 127.03242,
        "bus_type": "버스정류장",
        "bus_name": "우이1교앞",
        "distance": 266.43737257095694,
        "walking_time": "약 4분"
      },
      {
        "bus_lat": 37.64807141,
        "bus_lon": 127.0344601,
        "bus_type": "버스정류장",
        "bus_name": "쌍문역",
        "distance": 299.9187151798538,
        "walking_time": "약 5분"
      }
    ],
    "community_center": [
      {
        "community_center_lat": 37.64141508,
        "community_center_lon": 127.035653,
        "community_center_type": "주민센터",
        "community_center_name": "창2동 자치회관",
        "distance": 450.133660604351,
        "walking_time": "약 7분"
      },
      {
        "community_center_lat": 37.64898155,
        "community_center_lon": 127.0279211,
        "community_center_type": "주민센터",
        "community_center_name": "쌍문3동 자치회관",
        "distance": 756.9320319558838,
        "walking_time": "약 12분"
      },
      {
        "community_center_lat": 37.64837711,
        "community_center_lon": 127.0438238,
        "community_center_type": "주민센터",
        "community_center_name": "창1동 자치회관",
        "distance": 820.1366858889162,
        "walking_time": "약 13분"
      },
      {
        "community_center_lat": 37.64803784,
        "community_center_lon": 127.0260513,
        "community_center_type": "주민센터",
        "community_center_name": "쌍문1동 자치회관",
        "distance": 861.2766804615695,
        "walking_time": "약 13분"
      },
      {
        "community_center_lat": 37.63789129,
        "community_center_lon": 127.0288472,
        "community_center_type": "주민센터",
        "community_center_name": "번1동 자치회관",
        "distance": 1013.34220755233,
        "walking_time": "약 16분"
      },
      {
        "community_center_lat": 37.63799988,
        "community_center_lon": 127.0429904,
        "community_center_type": "주민센터",
        "community_center_name": "창3동 자치회관",
        "distance": 1071.65100752369,
        "walking_time": "약 16분"
      },
      {
        "community_center_lat": 37.6387147,
        "community_center_lon": 127.0231464,
        "community_center_type": "주민센터",
        "community_center_name": "수유3동 자치회관",
        "distance": 1304.2959515411626,
        "walking_time": "약 20분"
      },
      {
        "community_center_lat": 37.65646373,
        "community_center_lon": 127.0284052,
        "community_center_type": "주민센터",
        "community_center_name": "쌍문4동 자치회관",
        "distance": 1365.5754272263473,
        "walking_time": "약 21분"
      },
      {
        "community_center_lat": 37.65633441,
        "community_center_lon": 127.0435868,
        "community_center_type": "주민센터",
        "community_center_name": "창5동 자치회관",
        "distance": 1414.2334939444884,
        "walking_time": "약 22분"
      },
      {
        "community_center_lat": 37.65793243,
        "community_center_lon": 127.0388203,
        "community_center_type": "주민센터",
        "community_center_name": "쌍문2동 자치회관",
        "distance": 1422.4747669332628,
        "walking_time": "약 22분"
      }
    ],
    "convenience_store": [
      {
        "convenience_store_lat": 37.64686755,
        "convenience_store_lon": 127.0329143,
        "convenience_store_type": "편의점",
        "convenience_store_name": "GS25 쌍문스마트점",
        "distance": 260.54447073812173,
        "walking_time": "약 4분"
      },
      {
        "convenience_store_lat": 37.64760727,
        "convenience_store_lon": 127.0365367,
        "convenience_store_type": "편의점",
        "convenience_store_name": "CU 도봉창동점",
        "distance": 264.24087008332003,
        "walking_time": "약 4분"
      },
      {
        "convenience_store_lat": 37.64565221,
        "convenience_store_lon": 127.038554,
        "convenience_store_type": "편의점",
        "convenience_store_name": "세븐일레븐 도봉창2동점",
        "distance": 289.77509105395086,
        "walking_time": "약 5분"
      },
      {
        "convenience_store_lat": 37.64753302,
        "convenience_store_lon": 127.0374219,
        "convenience_store_type": "편의점",
        "convenience_store_name": "GS25 창동중앙점",
        "distance": 298.9272450685187,
        "walking_time": "약 5분"
      },
      {
        "convenience_store_lat": 37.64817238,
        "convenience_store_lon": 127.0355899,
        "convenience_store_type": "편의점",
        "convenience_store_name": "GS25 창동쌍문점",
        "distance": 303.7803697547666,
        "walking_time": "약 5분"
      },
      {
        "convenience_store_lat": 37.64793663,
        "convenience_store_lon": 127.0336235,
        "convenience_store_type": "편의점",
        "convenience_store_name": "세븐일레븐 쌍문안길점",
        "distance": 312.1020848161979,
        "walking_time": "약 5분"
      },
      {
        "convenience_store_lat": 37.64320468,
        "convenience_store_lon": 127.0329434,
        "convenience_store_type": "편의점",
        "convenience_store_name": "세븐일레븐 창동태영점",
        "distance": 323.2618375303675,
        "walking_time": "약 5분"
      },
      {
        "convenience_store_lat": 37.64492915,
        "convenience_store_lon": 127.0316588,
        "convenience_store_type": "편의점",
        "convenience_store_name": "CU 쌍문사랑점",
        "distance": 323.43631674018627,
        "walking_time": "약 5분"
      },
      {
        "convenience_store_lat": 37.64891698,
        "convenience_store_lon": 127.035797,
        "convenience_store_type": "편의점",
        "convenience_store_name": "CU 창동쌍문점",
        "distance": 388.04552619039646,
        "walking_time": "약 6분"
      },
      {
        "convenience_store_lat": 37.6471138,
        "convenience_store_lon": 127.0308374,
        "convenience_store_type": "편의점",
        "convenience_store_name": "세븐일레븐 쌍문2호점",
        "distance": 431.9972636423108,
        "walking_time": "약 7분"
      }
    ],
    "daycare": [
      {
        "daycare_lat": 37.64575008,
        "daycare_lon": 127.0350668,
        "daycare_type": "어린이집",
        "daycare_name": "꼬마화가어린이집",
        "distance": 37.76995720036487,
        "walking_time": "약 1분"
      },
      {
        "daycare_lat": 37.64464079,
        "daycare_lon": 127.0347219,
        "daycare_type": "어린이집",
        "daycare_name": "창2동새샘어린이집",
        "distance": 102.40397234049676,
        "walking_time": "약 2분"
      },
      {
        "daycare_lat": 37.64446064,
        "daycare_lon": 127.0351685,
        "daycare_type": "어린이집",
        "daycare_name": "노벨어린이집",
        "distance": 110.61400310730424,
        "walking_time": "약 2분"
      },
      {
        "daycare_lat": 37.64354865680211,
        "daycare_lon": 127.03326994042202,
        "daycare_type": "어린이집",
        "daycare_name": "태영어린이집",
        "distance": 275.4634010893216,
        "walking_time": "약 5분"
      },
      {
        "daycare_lat": 37.64581186,
        "daycare_lon": 127.0384406,
        "daycare_type": "어린이집",
        "daycare_name": "상상어린이집",
        "distance": 281.7896278108434,
        "walking_time": "약 5분"
      },
      {
        "daycare_lat": 37.64378258446123,
        "daycare_lon": 127.0379862518088,
        "daycare_type": "어린이집",
        "daycare_name": "한빛어린이집",
        "distance": 302.5697560474265,
        "walking_time": "약 5분"
      },
      {
        "daycare_lat": 37.64283172,
        "daycare_lon": 127.0334253,
        "daycare_type": "어린이집",
        "daycare_name": "창2동엘리트어린이집",
        "distance": 333.6813196320107,
        "walking_time": "약 5분"
      },
      {
        "daycare_lat": 37.64283172,
        "daycare_lon": 127.0334253,
        "daycare_type": "어린이집",
        "daycare_name": "딸기어린이집",
        "distance": 333.6813196320107,
        "walking_time": "약 5분"
      },
      {
        "daycare_lat": 37.64283172,
        "daycare_lon": 127.0334253,
        "daycare_type": "어린이집",
        "daycare_name": "예닮누리 어린이집",
        "distance": 333.6813196320107,
        "walking_time": "약 5분"
      },
      {
        "daycare_lat": 37.64283172,
        "daycare_lon": 127.0334253,
        "daycare_type": "어린이집",
        "daycare_name": "태영영재어린이집",
        "distance": 333.6813196320107,
        "walking_time": "약 5분"
      }
    ],
    "education": [
      {
        "education_lat": 37.64856049,
        "education_lon": 127.0338822,
        "education_type": "공연장",
        "education_name": "극단 대학로극장",
        "distance": 366.6821796618312,
        "walking_time": "약 6분"
      },
      {
        "education_lat": 37.64469094,
        "education_lon": 127.0437683,
        "education_type": "도서관",
        "education_name": "도봉문화정보도서관",
        "distance": 752.7864292999567,
        "walking_time": "약 12분"
      },
      {
        "education_lat": 37.64704212,
        "education_lon": 127.0262302,
        "education_type": "도서관",
        "education_name": "쌍문채움도서관",
        "distance": 815.5164284001995,
        "walking_time": "약 13분"
      },
      {
        "education_lat": 37.65296162,
        "education_lon": 127.0347964,
        "education_type": "박물관/기념관",
        "education_name": "함석헌기념관",
        "distance": 836.0828271990217,
        "walking_time": "약 13분"
      },
      {
        "education_lat": 37.65419928,
        "education_lon": 127.0388705,
        "education_type": "문화원",
        "education_name": "도봉문화원",
        "distance": 1022.9344525093378,
        "walking_time": "약 16분"
      },
      {
        "education_lat": 37.65242986,
        "education_lon": 127.0276385,
        "education_type": "박물관/기념관",
        "education_name": "둘리뮤지엄",
        "distance": 1026.5210001355256,
        "walking_time": "약 16분"
      },
      {
        "education_lat": 37.65992371,
        "education_lon": 127.0238016,
        "education_type": "박물관/기념관",
        "education_name": "김수영문학관",
        "distance": 1899.8070193279093,
        "walking_time": "약 29분"
      },
      {
        "education_lat": 37.6590571,
        "education_lon": 127.049575,
        "education_type": "도서관",
        "education_name": "도봉아이나라도서관",
        "distance": 1968.2641371514576,
        "walking_time": "약 30분"
      }
    ],
    "electric_gas_station": [
      {
        "electric_gas_station_lat": 37.6446776,
        "electric_gas_station_lon": 127.0351607,
        "electric_gas_station_type": "전기차 충전소",
        "electric_gas_station_name": "빅마켓 도봉점",
        "distance": 86.6702849364973,
        "walking_time": "약 2분"
      }
    ],
    "fitness": [
      {
        "fitness_lat": 37.64623663,
        "fitness_lon": 127.0337089,
        "fitness_type": "운동시설",
        "fitness_name": "크로스핏 앤츠",
        "distance": 162.98421845796747,
        "walking_time": "약 3분"
      },
      {
        "fitness_lat": 37.64714472,
        "fitness_lon": 127.034682,
        "fitness_type": "운동시설",
        "fitness_name": "워라밸피트니스 24시 쌍문역점",
        "distance": 195.26988342159083,
        "walking_time": "약 3분"
      },
      {
        "fitness_lat": 37.64641958,
        "fitness_lon": 127.0371393,
        "fitness_type": "운동시설",
        "fitness_name": "휘트니스W창동점",
        "distance": 196.4437300206678,
        "walking_time": "약 3분"
      },
      {
        "fitness_lat": 37.64738619,
        "fitness_lon": 127.0343726,
        "fitness_type": "운동시설",
        "fitness_name": "쌍문역점 스포애니 주)케이디스포츠",
        "distance": 229.2015791554493,
        "walking_time": "약 4분"
      },
      {
        "fitness_lat": 37.64333589,
        "fitness_lon": 127.0350214,
        "fitness_type": "운동시설",
        "fitness_name": "휴먼(HUMAN)휘트니스",
        "distance": 236.33718636332813,
        "walking_time": "약 4분"
      },
      {
        "fitness_lat": 37.64586709,
        "fitness_lon": 127.0325907,
        "fitness_type": "운동시설",
        "fitness_name": "건운재 피트니스 센터",
        "distance": 240.58639943673165,
        "walking_time": "약 4분"
      },
      {
        "fitness_lat": 37.64705627,
        "fitness_lon": 127.0333636,
        "fitness_type": "운동시설",
        "fitness_name": "고핏짐",
        "distance": 245.0879680497753,
        "walking_time": "약 4분"
      },
      {
        "fitness_lat": 37.6454118,
        "fitness_lon": 127.0323702,
        "fitness_type": "운동시설",
        "fitness_name": "피넛짐 PT",
        "distance": 255.5711705569937,
        "walking_time": "약 4분"
      },
      {
        "fitness_lat": 37.64355227,
        "fitness_lon": 127.0371951,
        "fitness_type": "운동시설",
        "fitness_name": "짐박스피트니스 쌍문점",
        "distance": 270.6978614512307,
        "walking_time": "약 5분"
      },
      {
        "fitness_lat": 37.64787675,
        "fitness_lon": 127.0347625,
        "fitness_type": "운동시설",
        "fitness_name": "글램피트니스",
        "distance": 273.3330812155342,
        "walking_time": "약 5분"
      }
    ],
    "gas_station": [
      {
        "gas_station_lat": 37.64463064,
        "gas_station_lon": 127.032708,
        "gas_station_type": "주유소",
        "gas_station_name": "동일석유㈜ 창동주유소",
        "distance": 243.56375732795536,
        "walking_time": "약 4분"
      },
      {
        "gas_station_lat": 37.64497226,
        "gas_station_lon": 127.0321589,
        "gas_station_type": "주유소",
        "gas_station_name": "삼미상사㈜ 북부주유소",
        "distance": 279.2787570108212,
        "walking_time": "약 5분"
      },
      {
        "gas_station_lat": 37.64684419,
        "gas_station_lon": 127.0394451,
        "gas_station_type": "주유소",
        "gas_station_name": "구도일주유소 파크빌",
        "distance": 398.6562018452028,
        "walking_time": "약 6분"
      },
      {
        "gas_station_lat": 37.64222693,
        "gas_station_lon": 127.029534,
        "gas_station_type": "주유소",
        "gas_station_name": "수유동주유소",
        "distance": 619.5848276998626,
        "walking_time": "약 10분"
      },
      {
        "gas_station_lat": 37.6414534,
        "gas_station_lon": 127.0402982,
        "gas_station_type": "주유소",
        "gas_station_name": "대성산업㈜ 신창주유소",
        "distance": 627.2923560851518,
        "walking_time": "약 10분"
      },
      {
        "gas_station_lat": 37.64908371,
        "gas_station_lon": 127.0268164,
        "gas_station_type": "주유소",
        "gas_station_name": "현대오일뱅크(주)직영 쌍문셀프주유소",
        "distance": 846.9663543722871,
        "walking_time": "약 13분"
      },
      {
        "gas_station_lat": 37.6540051,
        "gas_station_lon": 127.0375376,
        "gas_station_type": "주유소",
        "gas_station_name": "한이에너지㈜ 쌍문주유소",
        "distance": 971.743394534872,
        "walking_time": "약 15분"
      },
      {
        "gas_station_lat": 37.63556362,
        "gas_station_lon": 127.0328871,
        "gas_station_type": "주유소",
        "gas_station_name": "현대오일뱅크㈜ 번동셀프주유소",
        "distance": 1119.4188128660023,
        "walking_time": "약 17분"
      },
      {
        "gas_station_lat": 37.63501625,
        "gas_station_lon": 127.0313097,
        "gas_station_type": "주유소",
        "gas_station_name": "㈜미래아스팔트 덕릉로주유소",
        "distance": 1211.7280936108386,
        "walking_time": "약 19분"
      },
      {
        "gas_station_lat": 37.63426997,
        "gas_station_lon": 127.0377638,
        "gas_station_type": "주유소",
        "gas_station_name": "세원주유소",
        "distance": 1262.5872846072211,
        "walking_time": "약 19분"
      }
    ],
    "hospital": [
      {
        "hospital_lat": 37.64588544,
        "hospital_lon": 127.0340019,
        "hospital_type": "병원",
        "hospital_name": "바른몸힘한의원",
        "distance": 121.80952208293964,
        "walking_time": "약 2분"
      },
      {
        "hospital_lat": 37.64566253,
        "hospital_lon": 127.0333771,
        "hospital_type": "병원",
        "hospital_name": "의료법인상원의료재단강북힘찬병원",
        "distance": 168.51346434913216,
        "walking_time": "약 3분"
      },
      {
        "hospital_lat": 37.64655761,
        "hospital_lon": 127.0338736,
        "hospital_type": "병원",
        "hospital_name": "원치과의원",
        "distance": 174.0209462208739,
        "walking_time": "약 3분"
      },
      {
        "hospital_lat": 37.64670075,
        "hospital_lon": 127.0339457,
        "hospital_type": "병원",
        "hospital_name": "제일한의원",
        "distance": 181.4570839846599,
        "walking_time": "약 3분"
      },
      {
        "hospital_lat": 37.64670075,
        "hospital_lon": 127.0339457,
        "hospital_type": "병원",
        "hospital_name": "제일한의원",
        "distance": 181.4570839846599,
        "walking_time": "약 3분"
      },
      {
        "hospital_lat": 37.64670075,
        "hospital_lon": 127.0339457,
        "hospital_type": "병원",
        "hospital_name": "제일한의원",
        "distance": 181.4570839846599,
        "walking_time": "약 3분"
      },
      {
        "hospital_lat": 37.64738619,
        "hospital_lon": 127.0343726,
        "hospital_type": "병원",
        "hospital_name": "김종권비뇨기과의원",
        "distance": 229.2015791554493,
        "walking_time": "약 4분"
      },
      {
        "hospital_lat": 37.64738619,
        "hospital_lon": 127.0343726,
        "hospital_type": "병원",
        "hospital_name": "남상민내과의원",
        "distance": 229.2015791554493,
        "walking_time": "약 4분"
      },
      {
        "hospital_lat": 37.64738619,
        "hospital_lon": 127.0343726,
        "hospital_type": "병원",
        "hospital_name": "더블유의원",
        "distance": 229.2015791554493,
        "walking_time": "약 4분"
      },
      {
        "hospital_lat": 37.64738619,
        "hospital_lon": 127.0343726,
        "hospital_type": "병원",
        "hospital_name": "상쾌한이비인후과의원",
        "distance": 229.2015791554493,
        "walking_time": "약 4분"
      }
    ],
    "music_room": [
      {
        "music_room_lat": 37.64672339,
        "music_room_lon": 127.0354022,
        "music_room_type": "노래방",
        "music_room_name": "대박노래연습장",
        "distance": 141.83241483226973,
        "walking_time": "약 3분"
      },
      {
        "music_room_lat": 37.64676522,
        "music_room_lon": 127.0340785,
        "music_room_type": "노래방",
        "music_room_name": "아트 노래연습장",
        "distance": 179.92746070563155,
        "walking_time": "약 3분"
      },
      {
        "music_room_lat": 37.64683756,
        "music_room_lon": 127.0341187,
        "music_room_type": "노래방",
        "music_room_name": "팝콘노래연습장",
        "distance": 184.54305801130093,
        "walking_time": "약 3분"
      },
      {
        "music_room_lat": 37.64699945,
        "music_room_lon": 127.0341945,
        "music_room_type": "노래방",
        "music_room_name": "쿨 노래연습장",
        "distance": 196.5086209606424,
        "walking_time": "약 3분"
      },
      {
        "music_room_lat": 37.64611597,
        "music_room_lon": 127.0373748,
        "music_room_type": "노래방",
        "music_room_name": "MBC 노래연습장",
        "distance": 199.2770471311051,
        "walking_time": "약 3분"
      },
      {
        "music_room_lat": 37.64731904,
        "music_room_lon": 127.0347754,
        "music_room_type": "노래방",
        "music_room_name": "팡팡노래연습장",
        "distance": 212.1683431198376,
        "walking_time": "약 4분"
      },
      {
        "music_room_lat": 37.64731904,
        "music_room_lon": 127.0347754,
        "music_room_type": "노래방",
        "music_room_name": "팡팡노래연습장",
        "distance": 212.1683431198376,
        "walking_time": "약 4분"
      },
      {
        "music_room_lat": 37.64738619,
        "music_room_lon": 127.0343726,
        "music_room_type": "노래방",
        "music_room_name": "가왕코인노래연습장",
        "distance": 229.2015791554493,
        "walking_time": "약 4분"
      },
      {
        "music_room_lat": 37.64677573,
        "music_room_lon": 127.0332546,
        "music_room_type": "노래방",
        "music_room_name": "SBS노래연습장",
        "distance": 230.7158991623457,
        "walking_time": "약 4분"
      },
      {
        "music_room_lat": 37.64755586,
        "music_room_lon": 127.035534,
        "music_room_type": "노래방",
        "music_room_name": "파티 파티 노래연습장",
        "distance": 235.06862152290043,
        "walking_time": "약 4분"
      }
    ],
    "park": [
      {
        "park_lat": 37.6479483,
        "park_lon": 127.0405382,
        "park_type": "공원",
        "park_name": "초안산생태공원",
        "distance": 540.3537606510079,
        "walking_time": "약 9분"
      },
      {
        "park_lat": 37.648316,
        "park_lon": 127.0455446,
        "park_type": "공원",
        "park_name": "초안산근린공원",
        "distance": 958.819218919733,
        "walking_time": "약 15분"
      },
      {
        "park_lat": 37.6531456,
        "park_lon": 127.0271316,
        "park_type": "공원",
        "park_name": "쌍문근린공원",
        "distance": 1116.0456410330207,
        "walking_time": "약 17분"
      },
      {
        "park_lat": 37.6327957,
        "park_lon": 127.0317269,
        "park_type": "공원",
        "park_name": "오동근린공원",
        "distance": 1441.5294789757152,
        "walking_time": "약 22분"
      },
      {
        "park_lat": 37.6597135,
        "park_lon": 127.031982,
        "park_type": "공원",
        "park_name": "발바닥공원",
        "distance": 1612.0477282494712,
        "walking_time": "약 25분"
      }
    ],
    "park_station": [
      {
        "park_station_lat": 37.64756826,
        "park_station_lon": 127.0359277,
        "park_station_type": "주차장",
        "park_station_name": "창동 쌍리단길 상점가 공영주차장",
        "distance": 242.28475192629227,
        "walking_time": "약 4분"
      },
      {
        "park_station_lat": 37.64712558,
        "park_station_lon": 127.0371832,
        "park_station_type": "주차장",
        "park_station_name": "창1동 1공영주차장",
        "distance": 250.85965062897745,
        "walking_time": "약 4분"
      },
      {
        "park_station_lat": 37.64126334,
        "park_station_lon": 127.036287,
        "park_station_type": "주차장",
        "park_station_name": "창2동4공영주차장",
        "distance": 474.2459657989032,
        "walking_time": "약 8분"
      },
      {
        "park_station_lat": 37.64915283,
        "park_station_lon": 127.0400853,
        "park_station_type": "주차장",
        "park_station_name": "초안산 창골주차장",
        "distance": 590.6704250471532,
        "walking_time": "약 9분"
      },
      {
        "park_station_lat": 37.64222734,
        "park_station_lon": 127.0421345,
        "park_station_type": "주차장",
        "park_station_name": "초안산꽃동산공영주차장",
        "distance": 702.565770813399,
        "walking_time": "약 11분"
      },
      {
        "park_station_lat": 37.65325029,
        "park_station_lon": 127.0335631,
        "park_station_type": "주차장",
        "park_station_name": "쌍문2동 2공영주차장",
        "distance": 880.0929163640121,
        "walking_time": "약 14분"
      },
      {
        "park_station_lat": 37.63709454,
        "park_station_lon": 127.0329989,
        "park_station_type": "주차장",
        "park_station_name": "수송초등학교 공영주차장",
        "distance": 950.6250300176378,
        "walking_time": "약 15분"
      },
      {
        "park_station_lat": 37.63963922,
        "park_station_lon": 127.0268633,
        "park_station_type": "주차장",
        "park_station_name": "구청앞",
        "distance": 982.845043782858,
        "walking_time": "약 15분"
      },
      {
        "park_station_lat": 37.64006723,
        "park_station_lon": 127.025884,
        "park_station_type": "주차장",
        "park_station_name": "시범 공영주차장",
        "distance": 1020.7069389664376,
        "walking_time": "약 16분"
      },
      {
        "park_station_lat": 37.64604831,
        "park_station_lon": 127.0219257,
        "park_station_type": "주차장",
        "park_station_name": "수유2동 공영주차장",
        "distance": 1176.9797871138005,
        "walking_time": "약 18분"
      }
    ],
    "pc_room": [
      {
        "pc_room_lat": 37.6471447222566,
        "pc_room_lon": 127.034681963129,
        "pc_room_type": "PC방",
        "pc_room_name": "엔탑PC방",
        "distance": 195.27098961047224,
        "walking_time": "약 3분"
      },
      {
        "pc_room_lat": 37.6463435232231,
        "pc_room_lon": 127.032950876452,
        "pc_room_type": "PC방",
        "pc_room_name": "클릭하우스",
        "distance": 227.17571299115696,
        "walking_time": "약 4분"
      },
      {
        "pc_room_lat": 37.6463435232231,
        "pc_room_lon": 127.032950876452,
        "pc_room_type": "PC방",
        "pc_room_name": "스타일PC방",
        "distance": 227.17571299115696,
        "walking_time": "약 4분"
      },
      {
        "pc_room_lat": 37.6473861862855,
        "pc_room_lon": 127.034372618396,
        "pc_room_type": "PC방",
        "pc_room_name": "레드포스PC아레나 쌍문점",
        "distance": 229.2006317101076,
        "walking_time": "약 4분"
      },
      {
        "pc_room_lat": 37.6433358929241,
        "pc_room_lon": 127.035021358294,
        "pc_room_type": "PC방",
        "pc_room_name": "니코PC방 창동점",
        "distance": 236.3372061740453,
        "walking_time": "약 4분"
      },
      {
        "pc_room_lat": 37.6449291522688,
        "pc_room_lon": 127.031658755928,
        "pc_room_type": "PC방",
        "pc_room_name": "짱 PC방",
        "distance": 323.4400885078727,
        "walking_time": "약 5분"
      },
      {
        "pc_room_lat": 37.6468393644257,
        "pc_room_lon": 127.031857975796,
        "pc_room_type": "PC방",
        "pc_room_name": "24시 게임방",
        "distance": 337.8988436685788,
        "walking_time": "약 6분"
      },
      {
        "pc_room_lat": 37.6470564588623,
        "pc_room_lon": 127.031681641411,
        "pc_room_type": "PC방",
        "pc_room_name": "오렌지존 PC방",
        "distance": 363.0174620054352,
        "walking_time": "약 6분"
      },
      {
        "pc_room_lat": 37.6469005717283,
        "pc_room_lon": 127.031408153406,
        "pc_room_type": "PC방",
        "pc_room_name": "마르까 PC방",
        "distance": 376.4338198120842,
        "walking_time": "약 6분"
      },
      {
        "pc_room_lat": 37.6471209388252,
        "pc_room_lon": 127.031119073191,
        "pc_room_type": "PC방",
        "pc_room_name": "MIT인터넷PC게임",
        "distance": 410.0768658882079,
        "walking_time": "약 7분"
      }
    ],
    "police_office": [
      {
        "police_office_lat": 37.64351954,
        "police_office_lon": 127.0346164,
        "police_office_type": "경찰소",
        "police_office_name": "신창파출소",
        "distance": 222.5092490166353,
        "walking_time": "약 4분"
      },
      {
        "police_office_lat": 37.64433521,
        "police_office_lon": 127.0265847,
        "police_office_type": "경찰소",
        "police_office_name": "수유3파출소",
        "distance": 774.9352116320762,
        "walking_time": "약 12분"
      },
      {
        "police_office_lat": 37.64751276,
        "police_office_lon": 127.0255828,
        "police_office_type": "경찰소",
        "police_office_name": "숭미파출소",
        "distance": 883.3533324369052,
        "walking_time": "약 14분"
      },
      {
        "police_office_lat": 37.6359778,
        "police_office_lon": 127.0325802,
        "police_office_type": "경찰소",
        "police_office_name": "번동파출소",
        "distance": 1079.8254944832224,
        "walking_time": "약 17분"
      },
      {
        "police_office_lat": 37.65759555,
        "police_office_lon": 127.0380024,
        "police_office_type": "경찰소",
        "police_office_name": "쌍문파출소",
        "distance": 1371.5221985460028,
        "walking_time": "약 21분"
      },
      {
        "police_office_lat": 37.65850997,
        "police_office_lon": 127.0271851,
        "police_office_type": "경찰소",
        "police_office_name": "신방학파출소",
        "distance": 1617.1504277177787,
        "walking_time": "약 25분"
      }
    ],
    "post_office": [
      {
        "post_office_lat": 37.64492915,
        "post_office_lon": 127.0316588,
        "post_office_type": "우체국",
        "post_office_name": "서울쌍문한양우편취급국",
        "distance": 323.43631674018627,
        "walking_time": "약 5분"
      },
      {
        "post_office_lat": 37.64122994,
        "post_office_lon": 127.0286569,
        "post_office_type": "우체국",
        "post_office_name": "서울수유3동우체국",
        "distance": 748.1261082133823,
        "walking_time": "약 12분"
      },
      {
        "post_office_lat": 37.63895292,
        "post_office_lon": 127.0377962,
        "post_office_type": "우체국",
        "post_office_name": "서울창2동우편취급국",
        "distance": 756.0563178281902,
        "walking_time": "약 12분"
      },
      {
        "post_office_lat": 37.6479235,
        "post_office_lon": 127.0272422,
        "post_office_type": "우체국",
        "post_office_name": "서울도봉우체국",
        "distance": 758.5468430916109,
        "walking_time": "약 12분"
      },
      {
        "post_office_lat": 37.65183368,
        "post_office_lon": 127.0427337,
        "post_office_type": "우체국",
        "post_office_name": "서울창5동우체국",
        "distance": 966.981437833077,
        "walking_time": "약 15분"
      },
      {
        "post_office_lat": 37.65634292,
        "post_office_lon": 127.0377161,
        "post_office_type": "우체국",
        "post_office_name": "서울쌍문2동우체국",
        "distance": 1229.9748845355891,
        "walking_time": "약 19분"
      },
      {
        "post_office_lat": 37.63180799,
        "post_office_lon": 127.037878,
        "post_office_type": "우체국",
        "post_office_name": "서울번2동우체국",
        "distance": 1534.3933422394105,
        "walking_time": "약 23분"
      },
      {
        "post_office_lat": 37.63560227,
        "post_office_lon": 127.0200628,
        "post_office_type": "우체국",
        "post_office_name": "서울인수동우편취급국",
        "distance": 1730.0486313794718,
        "walking_time": "약 26분"
      }
    ],
    "public_health_center": [
      {
        "public_health_center_lat": 37.64141508,
        "public_health_center_lon": 127.035653,
        "public_health_center_type": "보건소",
        "public_health_center_name": "창동 보건지소",
        "distance": 450.133660604351,
        "walking_time": "약 7분"
      },
      {
        "public_health_center_lat": 37.65793243,
        "public_health_center_lon": 127.0388203,
        "public_health_center_type": "보건소",
        "public_health_center_name": "도봉구 보건소",
        "distance": 1422.4747669332628,
        "walking_time": "약 22분"
      },
      {
        "public_health_center_lat": 37.6318813,
        "public_health_center_lon": 127.0390622,
        "public_health_center_type": "보건소",
        "public_health_center_name": "강북구보건소",
        "distance": 1545.4487894236556,
        "walking_time": "약 24분"
      }
    ],
    "school": [
      {
        "school_lat": 37.6495947287047,
        "school_lon": 127.03324806776,
        "school_type": "중학교",
        "school_name": "신도봉중학교",
        "distance": 493.9296548032097,
        "walking_time": "약 8분"
      },
      {
        "school_lat": 37.6491157717023,
        "school_lon": 127.038832940575,
        "school_type": "중학교",
        "school_name": "창북중학교",
        "distance": 514.0355837732511,
        "walking_time": "약 8분"
      },
      {
        "school_lat": 37.6432370796248,
        "school_lon": 127.041604074164,
        "school_type": "초등학교",
        "school_name": "서울창림초등학교",
        "distance": 609.4514100489035,
        "walking_time": "약 10분"
      },
      {
        "school_lat": 37.6510357712645,
        "school_lon": 127.038819095625,
        "school_type": "고등학교",
        "school_name": "창동고등학교",
        "distance": 694.9813412675603,
        "walking_time": "약 11분"
      },
      {
        "school_lat": 37.6449158953693,
        "school_lon": 127.025373389048,
        "school_type": "중학교",
        "school_name": "강북중학교",
        "distance": 873.6038143801884,
        "walking_time": "약 14분"
      },
      {
        "school_lat": 37.6510234416817,
        "school_lon": 127.027944278021,
        "school_type": "초등학교",
        "school_name": "서울숭미초등학교",
        "distance": 894.4641601961386,
        "walking_time": "약 14분"
      },
      {
        "school_lat": 37.6526440884387,
        "school_lon": 127.039979883482,
        "school_type": "초등학교",
        "school_name": "서울창원초등학교",
        "distance": 900.7323449273716,
        "walking_time": "약 14분"
      },
      {
        "school_lat": 37.6533558400471,
        "school_lon": 127.032427255133,
        "school_type": "고등학교",
        "school_name": "정의여자고등학교",
        "distance": 913.8679529681856,
        "walking_time": "약 14분"
      },
      {
        "school_lat": 37.6533558400471,
        "school_lon": 127.032427255133,
        "school_type": "중학교",
        "school_name": "정의여자중학교",
        "distance": 913.8679529681856,
        "walking_time": "약 14분"
      },
      {
        "school_lat": 37.6533558400471,
        "school_lon": 127.032427255133,
        "school_type": "초등학교",
        "school_name": "한신초등학교",
        "distance": 913.8679529681856,
        "walking_time": "약 14분"
      }
    ],
    "subway": [
      {
        "subway_lat": 37.6488498649136,
        "subway_lon": 127.034880717215,
        "subway_type": "지하철",
        "subway_name": "4호선-쌍문역",
        "distance": 379.3964317816741,
        "walking_time": "약 6분"
      },
      {
        "subway_lat": 37.6377452337445,
        "subway_lon": 127.025356901379,
        "subway_type": "지하철",
        "subway_name": "4호선-수유(강북구청)역",
        "distance": 1223.3582381943645,
        "walking_time": "약 19분"
      },
      {
        "subway_lat": 37.6532084846758,
        "subway_lon": 127.04768378525,
        "subway_type": "지하철",
        "subway_name": "4호선-창동역",
        "distance": 1392.0665728026268,
        "walking_time": "약 21분"
      }
    ],
    "supermarket": [
      {
        "supermarket_lat": 37.64641958,
        "supermarket_lon": 127.0371393,
        "supermarket_type": "마트",
        "supermarket_name": "롯데프레쉬 창동점",
        "distance": 196.4437300206678,
        "walking_time": "약 3분"
      },
      {
        "supermarket_lat": 37.64333589,
        "supermarket_lon": 127.0350214,
        "supermarket_type": "마트",
        "supermarket_name": "(주)에브리데이리테일 창동점",
        "distance": 236.33718636332813,
        "walking_time": "약 4분"
      },
      {
        "supermarket_lat": 37.64333589,
        "supermarket_lon": 127.0350214,
        "supermarket_type": "마트",
        "supermarket_name": "(주)이마트에브리데이 창동점",
        "distance": 236.33718636332813,
        "walking_time": "약 4분"
      },
      {
        "supermarket_lat": 37.64333589,
        "supermarket_lon": 127.0350214,
        "supermarket_type": "마트",
        "supermarket_name": "(주)에브리데이리테일 창동점",
        "distance": 236.33718636332813,
        "walking_time": "약 4분"
      },
      {
        "supermarket_lat": 37.64260638,
        "supermarket_lon": 127.0373306,
        "supermarket_type": "마트",
        "supermarket_name": "대우상가",
        "distance": 364.6331508756408,
        "walking_time": "약 6분"
      },
      {
        "supermarket_lat": 37.64003977,
        "supermarket_lon": 127.0372354,
        "supermarket_type": "마트",
        "supermarket_name": "삼익쇼핑",
        "distance": 626.1378191545807,
        "walking_time": "약 10분"
      },
      {
        "supermarket_lat": 37.65371821,
        "supermarket_lon": 127.0413661,
        "supermarket_type": "마트",
        "supermarket_name": "GS THE FRESH 창동점",
        "distance": 1064.2680684042068,
        "walking_time": "약 16분"
      },
      {
        "supermarket_lat": 37.63623599,
        "supermarket_lon": 127.0303422,
        "supermarket_type": "마트",
        "supermarket_name": "북부시장",
        "distance": 1112.9312027943158,
        "walking_time": "약 17분"
      },
      {
        "supermarket_lat": 37.63623599,
        "supermarket_lon": 127.0303422,
        "supermarket_type": "마트",
        "supermarket_name": "강북 북부시장",
        "distance": 1112.9312027943158,
        "walking_time": "약 17분"
      },
      {
        "supermarket_lat": 37.65163612,
        "supermarket_lon": 127.0466993,
        "supermarket_type": "마트",
        "supermarket_name": "(주) 이마트 창동점",
        "distance": 1218.5830651532465,
        "walking_time": "약 19분"
      }
    ],
    "theater": [
      {
        "theater_lat": 37.6424075100379,
        "theater_lon": 127.029806166339,
        "theater_type": "영화관",
        "theater_name": "CGV 수유",
        "distance": 588.4262670151323,
        "walking_time": "약 9분"
      },
      {
        "theater_lat": 37.6546022496976,
        "theater_lon": 127.038732219793,
        "theater_type": "영화관",
        "theater_name": "메가박스 창동",
        "distance": 1062.0749936288505,
        "walking_time": "약 16분"
      },
      {
        "theater_lat": 37.6356640949861,
        "theater_lon": 127.02383520999,
        "theater_type": "영화관",
        "theater_name": "(주)써니트 롯데시네마 수유",
        "distance": 1482.8041179560614,
        "walking_time": "약 23분"
      }
    ]
  }
}