{
  "클러스터_위도": 37.53165138,
  "클러스터_경도": 126.9725865,
  "클러스터_level": 4.0,
  "facilities": {
    "bus": [
      {
        "bus_lat": 37.53205037,
        "bus_lon": 126.9705641,
        "bus_type": "버스정류장",
        "bus_name": "용산우체국",
        "distance": 183.76943903792025,
        "walking_time": "약 3분"
      },
      {
        "bus_lat": 37.53137629,
        "bus_lon": 126.9703154,
        "bus_type": "버스정류장",
        "bus_name": "용산우체국",
        "distance": 202.5873361150047,
        "walking_time": "약 4분"
      },
      {
        "bus_lat": 37.53149701,
        "bus_lon": 126.970235,
        "bus_type": "버스정류장",
        "bus_name": "용산우체국",
        "distance": 208.0634810702531,
        "walking_time": "약 4분"
      },
      {
        "bus_lat": 37.53450655,
        "bus_lon": 126.9732731,
        "bus_type": "버스정류장",
        "bus_name": "삼각지역",
        "distance": 323.20156849482146,
        "walking_time": "약 5분"
      },
      {
        "bus_lat": 37.53518014,
        "bus_lon": 126.9736858,
        "bus_type": "버스정류장",
        "bus_name": "삼각지역",
        "distance": 404.1760878854767,
        "walking_time": "약 7분"
      },
      {
        "bus_lat": 37.53465117,
        "bus_lon": 126.9753831,
        "bus_type": "버스정류장",
        "bus_name": "전쟁기념관",
        "distance": 414.81762291646726,
        "walking_time": "약 7분"
      },
      {
        "bus_lat": 37.53003386,
        "bus_lon": 126.9676785,
        "bus_type": "버스정류장",
        "bus_name": "신용산역5번출구",
        "distance": 468.67510911519537,
        "walking_time": "약 7분"
      },
      {
        "bus_lat": 37.52991665,
        "bus_lon": 126.9674545,
        "bus_type": "버스정류장",
        "bus_name": "신용산역",
        "distance": 491.9372536823212,
        "walking_time": "약 8분"
      },
      {
        "bus_lat": 37.5359845,
        "bus_lon": 126.9741609,
        "bus_type": "버스정류장",
        "bus_name": "삼각지역",
        "distance": 501.4219929474834,
        "walking_time": "약 8분"
      },
      {
        "bus_lat": 37.53475867,
        "bus_lon": 126.9768578,
        "bus_type": "버스정류장",
        "bus_name": "전쟁기념관",
        "distance": 511.1095867209017,
        "walking_time": "약 8분"
      }
    ],
    "community_center": [
      {
        "community_center_lat": 37.52814026,
        "community_center_lon": 126.9692278,
        "community_center_type": "주민센터",
        "community_center_name": "한강로동 자치회관",
        "distance": 490.0475543256849,
        "walking_time": "약 8분"
      },
      {
        "community_center_lat": 37.53724193,
        "community_center_lon": 126.9676278,
        "community_center_type": "주민센터",
        "community_center_name": "원효로1동 자치회관",
        "distance": 760.0100700995212,
        "walking_time": "약 12분"
      },
      {
        "community_center_lat": 37.5213567,
        "community_center_lon": 126.9732982,
        "community_center_type": "주민센터",
        "community_center_name": "이촌1동 자치회관",
        "distance": 1146.4354210666993,
        "walking_time": "약 18분"
      },
      {
        "community_center_lat": 37.54250834,
        "community_center_lon": 126.9618379,
        "community_center_type": "주민센터",
        "community_center_name": "효창동 자치회관",
        "distance": 1534.8063783323073,
        "walking_time": "약 23분"
      },
      {
        "community_center_lat": 37.5454791,
        "community_center_lon": 126.9698731,
        "community_center_type": "주민센터",
        "community_center_name": "청파동 자치회관",
        "distance": 1556.073997148231,
        "walking_time": "약 24분"
      },
      {
        "community_center_lat": 37.54581642,
        "community_center_lon": 126.9748227,
        "community_center_type": "주민센터",
        "community_center_name": "남영동 자치회관",
        "distance": 1587.3733447961358,
        "walking_time": "약 24분"
      },
      {
        "community_center_lat": 37.54869884,
        "community_center_lon": 126.9781522,
        "community_center_type": "주민센터",
        "community_center_name": "후암동 자치회관",
        "distance": 1958.0796299311648,
        "walking_time": "약 30분"
      },
      {
        "community_center_lat": 37.54611267,
        "community_center_lon": 126.9855836,
        "community_center_type": "주민센터",
        "community_center_name": "용산2가동 자치회관",
        "distance": 1974.5818191525368,
        "walking_time": "약 30분"
      }
    ],
    "convenience_store": [
      {
        "convenience_store_lat": 37.53165324,
        "convenience_store_lon": 126.9716371,
        "convenience_store_type": "편의점",
        "convenience_store_name": "GS25 삼각지점",
        "distance": 83.71783280719602,
        "walking_time": "약 2분"
      },
      {
        "convenience_store_lat": 37.53289586,
        "convenience_store_lon": 126.9734039,
        "convenience_store_type": "편의점",
        "convenience_store_name": "CU 용산삼각지점",
        "distance": 156.02602924873196,
        "walking_time": "약 3분"
      },
      {
        "convenience_store_lat": 37.53189541,
        "convenience_store_lon": 126.9708175,
        "convenience_store_type": "편의점",
        "convenience_store_name": "CU 신용산점",
        "distance": 158.33172654534215,
        "walking_time": "약 3분"
      },
      {
        "convenience_store_lat": 37.53070552,
        "convenience_store_lon": 126.9707211,
        "convenience_store_type": "편의점",
        "convenience_store_name": "미니스톱 한강로점",
        "distance": 195.2409704940903,
        "walking_time": "약 3분"
      },
      {
        "convenience_store_lat": 37.53070552,
        "convenience_store_lon": 126.9707211,
        "convenience_store_type": "편의점",
        "convenience_store_name": "CU 한강로마루점",
        "distance": 195.2409704940903,
        "walking_time": "약 3분"
      },
      {
        "convenience_store_lat": 37.53258233,
        "convenience_store_lon": 126.969753,
        "convenience_store_type": "편의점",
        "convenience_store_name": "CU 한강로벽산점",
        "distance": 270.4500730194298,
        "walking_time": "약 5분"
      },
      {
        "convenience_store_lat": 37.53039539,
        "convenience_store_lon": 126.9696071,
        "convenience_store_type": "편의점",
        "convenience_store_name": "세븐일레븐 신용산점",
        "distance": 297.53787134006274,
        "walking_time": "약 5분"
      },
      {
        "convenience_store_lat": 37.53414007,
        "convenience_store_lon": 126.973875,
        "convenience_store_type": "편의점",
        "convenience_store_name": "GS25 용산삼각지점",
        "distance": 299.145829475376,
        "walking_time": "약 5분"
      },
      {
        "convenience_store_lat": 37.53156323,
        "convenience_store_lon": 126.9691466,
        "convenience_store_type": "편의점",
        "convenience_store_name": "CU 용산한강로점",
        "distance": 303.48702826059247,
        "walking_time": "약 5분"
      },
      {
        "convenience_store_lat": 37.53440187,
        "convenience_store_lon": 126.9733591,
        "convenience_store_type": "편의점",
        "convenience_store_name": "GS25 S6삼각지역점",
        "distance": 313.3362576977461,
        "walking_time": "약 5분"
      }
    ],
    "daycare": [
      {
        "daycare_lat": 37.53408944063891,
        "daycare_lon": 126.971579,
        "daycare_type": "어린이집",
        "daycare_name": "용산소방서직장어린이집",
        "distance": 285.2851669184996,
        "walking_time": "약 5분"
      },
      {
        "daycare_lat": 37.53409042,
        "daycare_lon": 126.9753212,
        "daycare_type": "어린이집",
        "daycare_name": "소망어린이집",
        "distance": 362.9090204264887,
        "walking_time": "약 6분"
      },
      {
        "daycare_lat": 37.52917342,
        "daycare_lon": 126.969107,
        "daycare_type": "어린이집",
        "daycare_name": "아모레퍼시픽 서울어린이집",
        "distance": 412.38611703009417,
        "walking_time": "약 7분"
      },
      {
        "daycare_lat": 37.52879082,
        "daycare_lon": 126.9686757,
        "daycare_type": "어린이집",
        "daycare_name": "아모레퍼시픽 서울어린이집",
        "distance": 469.1506726625944,
        "walking_time": "약 8분"
      },
      {
        "daycare_lat": 37.53582388324484,
        "daycare_lon": 126.97164618985347,
        "daycare_type": "어린이집",
        "daycare_name": "삼각지어린이집",
        "distance": 471.3116516301236,
        "walking_time": "약 8분"
      },
      {
        "daycare_lat": 37.528142242670505,
        "daycare_lon": 126.96922807094676,
        "daycare_type": "어린이집",
        "daycare_name": "용산어린이집",
        "distance": 489.8574832675441,
        "walking_time": "약 8분"
      },
      {
        "daycare_lat": 37.53358278,
        "daycare_lon": 126.9776714,
        "daycare_type": "어린이집",
        "daycare_name": "국방부청사어린이집",
        "distance": 497.1573489066173,
        "walking_time": "약 8분"
      },
      {
        "daycare_lat": 37.52954731337001,
        "daycare_lon": 126.96739471952138,
        "daycare_type": "어린이집",
        "daycare_name": "삼일어린이집",
        "distance": 514.13270431207,
        "walking_time": "약 8분"
      },
      {
        "daycare_lat": 37.5367195,
        "daycare_lon": 126.9685765,
        "daycare_type": "어린이집",
        "daycare_name": "누리터어린이집",
        "distance": 665.2908677214463,
        "walking_time": "약 10분"
      },
      {
        "daycare_lat": 37.53620570102583,
        "daycare_lon": 126.96735787747312,
        "daycare_type": "어린이집",
        "daycare_name": "신계이편한어린이집",
        "distance": 684.8498004497011,
        "walking_time": "약 11분"
      }
    ],
    "education": [
      {
        "education_lat": 37.53113488,
        "education_lon": 126.9705005,
        "education_type": "미술관/갤러리",
        "education_name": "Art Space Loo",
        "distance": 192.7004883967484,
        "walking_time": "약 3분"
      },
      {
        "education_lat": 37.5297718,
        "education_lon": 126.9647415,
        "education_type": "공연장",
        "education_name": "대원 콘텐츠 라이브",
        "distance": 722.6587890724961,
        "walking_time": "약 11분"
      },
      {
        "education_lat": 37.52690561,
        "education_lon": 126.9665662,
        "education_type": "박물관/기념관",
        "education_name": "용산도시기억전시관",
        "distance": 748.538998283688,
        "walking_time": "약 12분"
      },
      {
        "education_lat": 37.53731405,
        "education_lon": 126.9784661,
        "education_type": "박물관/기념관",
        "education_name": "전쟁기념관",
        "distance": 815.6299674933757,
        "walking_time": "약 13분"
      },
      {
        "education_lat": 37.52470224,
        "education_lon": 126.9777402,
        "education_type": "공연장",
        "education_name": "국립중앙박물관 극장 용",
        "distance": 896.4506962135181,
        "walking_time": "약 14분"
      },
      {
        "education_lat": 37.52566804,
        "education_lon": 126.9657694,
        "education_type": "박물관/기념관",
        "education_name": "용산역사박물관",
        "distance": 896.6776836949176,
        "walking_time": "약 14분"
      },
      {
        "education_lat": 37.52460302,
        "education_lon": 126.9666,
        "education_type": "미술관/갤러리",
        "education_name": "디멘션크리에이션",
        "distance": 944.9558907361654,
        "walking_time": "약 15분"
      },
      {
        "education_lat": 37.53933889,
        "education_lon": 126.967218,
        "education_type": "미술관/갤러리",
        "education_name": "캡션 서울",
        "distance": 977.1284902351928,
        "walking_time": "약 15분"
      },
      {
        "education_lat": 37.52385582212769,
        "education_lon": 126.98020301648832,
        "education_type": "박물관/기념관",
        "education_name": "국립중앙박물관",
        "distance": 1096.5897737271548,
        "walking_time": "약 17분"
      },
      {
        "education_lat": 37.52116195,
        "education_lon": 126.98097295481348,
        "education_type": "박물관/기념관",
        "education_name": "국립한글박물관",
        "distance": 1381.078816107115,
        "walking_time": "약 21분"
      }
    ],
    "fitness": [
      {
        "fitness_lat": 37.53258233,
        "fitness_lon": 126.969753,
        "fitness_type": "운동시설",
        "fitness_name": "워너블짐",
        "distance": 270.4500730194298,
        "walking_time": "약 5분"
      },
      {
        "fitness_lat": 37.52879118,
        "fitness_lon": 126.9686736,
        "fitness_type": "운동시설",
        "fitness_name": "아모레퍼시픽 AP 피트니스",
        "distance": 469.25967822763016,
        "walking_time": "약 8분"
      },
      {
        "fitness_lat": 37.52690561,
        "fitness_lon": 126.9665662,
        "fitness_type": "운동시설",
        "fitness_name": "센트럴짐",
        "distance": 748.538998283688,
        "walking_time": "약 12분"
      },
      {
        "fitness_lat": 37.52690561,
        "fitness_lon": 126.9665662,
        "fitness_type": "운동시설",
        "fitness_name": "짐나우 신용산점",
        "distance": 748.538998283688,
        "walking_time": "약 12분"
      },
      {
        "fitness_lat": 37.52690561,
        "fitness_lon": 126.9665662,
        "fitness_type": "운동시설",
        "fitness_name": "모어피클",
        "distance": 748.538998283688,
        "walking_time": "약 12분"
      },
      {
        "fitness_lat": 37.53793867,
        "fitness_lon": 126.9679734,
        "fitness_type": "운동시설",
        "fitness_name": "내셔널짐 피티&골프",
        "distance": 808.8374322638032,
        "walking_time": "약 13분"
      },
      {
        "fitness_lat": 37.53793867,
        "fitness_lon": 126.9679734,
        "fitness_type": "운동시설",
        "fitness_name": "엘피PT&필라테스",
        "distance": 808.8374322638032,
        "walking_time": "약 13분"
      },
      {
        "fitness_lat": 37.53793867,
        "fitness_lon": 126.9679734,
        "fitness_type": "운동시설",
        "fitness_name": "내셔널짐",
        "distance": 808.8374322638032,
        "walking_time": "약 13분"
      },
      {
        "fitness_lat": 37.53793867,
        "fitness_lon": 126.9679734,
        "fitness_type": "운동시설",
        "fitness_name": "스포짐",
        "distance": 808.8374322638032,
        "walking_time": "약 13분"
      },
      {
        "fitness_lat": 37.52824913,
        "fitness_lon": 126.9642275,
        "fitness_type": "운동시설",
        "fitness_name": "드래곤힐스파휘트니스클럽",
        "distance": 828.5229165052448,
        "walking_time": "약 13분"
      }
    ],
    "gas_station": [
      {
        "gas_station_lat": 37.53558903,
        "gas_station_lon": 126.962709,
        "gas_station_type": "주유소",
        "gas_station_name": "㈜영원에너지 풍기주유소",
        "distance": 974.832191657554,
        "walking_time": "약 15분"
      },
      {
        "gas_station_lat": 37.52159215,
        "gas_station_lon": 126.9653605,
        "gas_station_type": "주유소",
        "gas_station_name": "한국석유공업㈜ 한석주유소",
        "distance": 1287.3152283730833,
        "walking_time": "약 20분"
      },
      {
        "gas_station_lat": 37.54702894,
        "gas_station_lon": 126.9722285,
        "gas_station_type": "주유소",
        "gas_station_name": "현대오일뱅크㈜ 직영갈월동주유소",
        "distance": 1710.1979772845243,
        "walking_time": "약 26분"
      }
    ],
    "hospital": [
      {
        "hospital_lat": 37.53097828,
        "hospital_lon": 126.9723047,
        "hospital_type": "병원",
        "hospital_name": "용산원치과의원",
        "distance": 78.86251745017051,
        "walking_time": "약 2분"
      },
      {
        "hospital_lat": 37.53097828,
        "hospital_lon": 126.9723047,
        "hospital_type": "병원",
        "hospital_name": "용산원한의원",
        "distance": 78.86251745017051,
        "walking_time": "약 2분"
      },
      {
        "hospital_lat": 37.53101517,
        "hospital_lon": 126.9702604,
        "hospital_type": "병원",
        "hospital_name": "형제한의원",
        "distance": 216.9719522988212,
        "walking_time": "약 4분"
      },
      {
        "hospital_lat": 37.53413145,
        "hospital_lon": 126.9732332,
        "hospital_type": "병원",
        "hospital_name": "최세원치과의원",
        "distance": 281.6053497757473,
        "walking_time": "약 5분"
      },
      {
        "hospital_lat": 37.53039539,
        "hospital_lon": 126.9696071,
        "hospital_type": "병원",
        "hospital_name": "보림한의원",
        "distance": 297.53787134006274,
        "walking_time": "약 5분"
      },
      {
        "hospital_lat": 37.53434341,
        "hospital_lon": 126.9722362,
        "hospital_type": "병원",
        "hospital_name": "믿음치과의원",
        "distance": 300.92955112860506,
        "walking_time": "약 5분"
      },
      {
        "hospital_lat": 37.53439363,
        "hospital_lon": 126.9723842,
        "hospital_type": "병원",
        "hospital_name": "수풀림한의원",
        "distance": 305.44562338107613,
        "walking_time": "약 5분"
      },
      {
        "hospital_lat": 37.53437956,
        "hospital_lon": 126.973915,
        "hospital_type": "병원",
        "hospital_name": "고른이치과의원",
        "distance": 325.1921474437551,
        "walking_time": "약 5분"
      },
      {
        "hospital_lat": 37.53027543,
        "hospital_lon": 126.9684371,
        "hospital_type": "병원",
        "hospital_name": "사랑한의원",
        "distance": 396.5953899660268,
        "walking_time": "약 6분"
      },
      {
        "hospital_lat": 37.53000469,
        "hospital_lon": 126.9681664,
        "hospital_type": "병원",
        "hospital_name": "뷰티라운지의원",
        "distance": 430.63291810206186,
        "walking_time": "약 7분"
      }
    ],
    "music_room": [
      {
        "music_room_lat": 37.53390102,
        "music_room_lon": 126.9738471,
        "music_room_type": "노래방",
        "music_room_name": "데코",
        "distance": 273.73391426318847,
        "walking_time": "약 5분"
      },
      {
        "music_room_lat": 37.53014662,
        "music_room_lon": 126.9699695,
        "music_room_type": "노래방",
        "music_room_name": "테마노래연습장",
        "distance": 285.04455931192604,
        "walking_time": "약 5분"
      },
      {
        "music_room_lat": 37.53414007,
        "music_room_lon": 126.973875,
        "music_room_type": "노래방",
        "music_room_name": "민들레",
        "distance": 299.145829475376,
        "walking_time": "약 5분"
      },
      {
        "music_room_lat": 37.53440187,
        "music_room_lon": 126.9733591,
        "music_room_type": "노래방",
        "music_room_name": "환타지",
        "distance": 313.3362576977461,
        "walking_time": "약 5분"
      },
      {
        "music_room_lat": 37.53428378,
        "music_room_lon": 126.9738708,
        "music_room_type": "노래방",
        "music_room_name": "낭낭노래연습장",
        "distance": 313.8530260086028,
        "walking_time": "약 5분"
      },
      {
        "music_room_lat": 37.53437956,
        "music_room_lon": 126.973915,
        "music_room_type": "노래방",
        "music_room_name": "한강노래연습장",
        "distance": 325.1921474437551,
        "walking_time": "약 5분"
      },
      {
        "music_room_lat": 37.53113706,
        "music_room_lon": 126.968124,
        "music_room_type": "노래방",
        "music_room_name": "아리수노래연습장",
        "distance": 397.63632359029054,
        "walking_time": "약 6분"
      },
      {
        "music_room_lat": 37.53088183,
        "music_room_lon": 126.9678952,
        "music_room_type": "노래방",
        "music_room_name": "발리노래연습장",
        "distance": 422.4358862237505,
        "walking_time": "약 7분"
      },
      {
        "music_room_lat": 37.53773532,
        "music_room_lon": 126.9663693,
        "music_room_type": "노래방",
        "music_room_name": "카니발",
        "distance": 870.7396548215594,
        "walking_time": "약 13분"
      },
      {
        "music_room_lat": 37.53457913,
        "music_room_lon": 126.9625332,
        "music_room_type": "노래방",
        "music_room_name": "키스노래연습장",
        "distance": 944.3649531399616,
        "walking_time": "약 15분"
      }
    ],
    "park": [
      {
        "park_lat": 37.522226,
        "park_lon": 126.983335,
        "park_type": "공원",
        "park_name": "용산가족공원",
        "distance": 1413.0996463638642,
        "walking_time": "약 22분"
      }
    ],
    "park_station": [
      {
        "park_station_lat": 37.53346823,
        "park_station_lon": 126.973627,
        "park_station_type": "주차장",
        "park_station_name": "삼각지역",
        "distance": 221.88260511659087,
        "walking_time": "약 4분"
      },
      {
        "park_station_lat": 37.52996702,
        "park_station_lon": 126.9709367,
        "park_station_type": "주차장",
        "park_station_name": "용산구 한강로2가 148-4",
        "distance": 237.1557805390323,
        "walking_time": "약 4분"
      },
      {
        "park_station_lat": 37.5344512,
        "park_station_lon": 126.9735538,
        "park_station_type": "주차장",
        "park_station_name": "용산구 한강로1가 236-5",
        "distance": 322.79850356268065,
        "walking_time": "약 5분"
      },
      {
        "park_station_lat": 37.52954446,
        "park_station_lon": 126.9698738,
        "park_station_type": "주차장",
        "park_station_name": "공유) 한강로동 22구간",
        "distance": 334.8237345598438,
        "walking_time": "약 5분"
      },
      {
        "park_station_lat": 37.53108607,
        "park_station_lon": 126.968831,
        "park_station_type": "주차장",
        "park_station_name": "용산구 한강로2가 2-39",
        "distance": 337.0723280523305,
        "walking_time": "약 6분"
      },
      {
        "park_station_lat": 37.528709,
        "park_station_lon": 126.969918,
        "park_station_type": "주차장",
        "park_station_name": "용산구 한강로2가 2-28",
        "distance": 403.0096536446589,
        "walking_time": "약 7분"
      },
      {
        "park_station_lat": 37.53356669,
        "park_station_lon": 126.9671211,
        "park_station_type": "주차장",
        "park_station_name": "공유) 한강로동 32구간",
        "distance": 526.8906456711694,
        "walking_time": "약 8분"
      },
      {
        "park_station_lat": 37.532052,
        "park_station_lon": 126.964791,
        "park_station_type": "주차장",
        "park_station_name": "용산전자상가1",
        "distance": 688.8430414419386,
        "walking_time": "약 11분"
      },
      {
        "park_station_lat": 37.53208412,
        "park_station_lon": 126.9647064,
        "park_station_type": "주차장",
        "park_station_name": "용산전자상가1",
        "distance": 696.5250273083906,
        "walking_time": "약 11분"
      },
      {
        "park_station_lat": 37.53722282,
        "park_station_lon": 126.9689486,
        "park_station_type": "주차장",
        "park_station_name": "삼각지고가밑 공영주차장",
        "distance": 697.6368622437778,
        "walking_time": "약 11분"
      }
    ],
    "pc_room": [
      {
        "pc_room_lat": 37.5282491342856,
        "pc_room_lon": 126.964227468456,
        "pc_room_type": "PC방",
        "pc_room_name": "드래곤힐스pc방",
        "distance": 828.525173588347,
        "walking_time": "약 13분"
      },
      {
        "pc_room_lat": 37.5417114040155,
        "pc_room_lon": 126.972130856033,
        "pc_room_type": "PC방",
        "pc_room_name": "제노PC방(갈월점)",
        "distance": 1119.3448620650613,
        "walking_time": "약 17분"
      },
      {
        "pc_room_lat": 37.5447583877858,
        "pc_room_lon": 126.971683656137,
        "pc_room_type": "PC방",
        "pc_room_name": "어메이징파크pc방",
        "distance": 1459.6051790388558,
        "walking_time": "약 22분"
      },
      {
        "pc_room_lat": 37.5449725093355,
        "pc_room_lon": 126.967646680698,
        "pc_room_type": "PC방",
        "pc_room_name": "놀숲PC",
        "distance": 1543.9504958741036,
        "walking_time": "약 24분"
      },
      {
        "pc_room_lat": 37.5389065292265,
        "pc_room_lon": 126.98763333746,
        "pc_room_type": "PC방",
        "pc_room_name": "리얼PC방",
        "distance": 1552.7742759262326,
        "walking_time": "약 24분"
      },
      {
        "pc_room_lat": 37.545067501628,
        "pc_room_lon": 126.966770459878,
        "pc_room_type": "PC방",
        "pc_room_name": "PC CLUB 블랙",
        "distance": 1577.4835520706818,
        "walking_time": "약 24분"
      },
      {
        "pc_room_lat": 37.5455760371033,
        "pc_room_lon": 126.96681153698,
        "pc_room_type": "PC방",
        "pc_room_name": "피씨나인",
        "distance": 1629.9268273032997,
        "walking_time": "약 25분"
      },
      {
        "pc_room_lat": 37.5493219003255,
        "pc_room_lon": 126.979266187454,
        "pc_room_type": "PC방",
        "pc_room_name": "3POP",
        "distance": 2051.237388538072,
        "walking_time": "약 31분"
      },
      {
        "pc_room_lat": 37.5499660777672,
        "pc_room_lon": 126.977586978891,
        "pc_room_type": "PC방",
        "pc_room_name": "액션",
        "distance": 2083.6789987724937,
        "walking_time": "약 32분"
      }
    ],
    "police_office": [
      {
        "police_office_lat": 37.53611011,
        "police_office_lon": 126.9747084,
        "police_office_type": "경찰소",
        "police_office_name": "삼각지파출소",
        "distance": 529.91811006292,
        "walking_time": "약 8분"
      },
      {
        "police_office_lat": 37.52486281,
        "police_office_lon": 126.9704127,
        "police_office_type": "경찰소",
        "police_office_name": "한강로지구대",
        "distance": 778.8142757312862,
        "walking_time": "약 12분"
      },
      {
        "police_office_lat": 37.5389038,
        "police_office_lon": 126.9650122,
        "police_office_type": "경찰소",
        "police_office_name": "원효지구대",
        "distance": 1047.0802247513036,
        "walking_time": "약 16분"
      },
      {
        "police_office_lat": 37.54915904,
        "police_office_lon": 126.9784794,
        "police_office_type": "경찰소",
        "police_office_name": "용중지구대",
        "distance": 2014.90467401888,
        "walking_time": "약 31분"
      }
    ],
    "post_office": [
      {
        "post_office_lat": 37.53000901,
        "post_office_lon": 126.9695106,
        "post_office_type": "우체국",
        "post_office_name": "서울용산우체국",
        "distance": 326.9850457049096,
        "walking_time": "약 5분"
      },
      {
        "post_office_lat": 37.5336104,
        "post_office_lon": 126.9775568,
        "post_office_type": "우체국",
        "post_office_name": "국방부구내우편취급국",
        "distance": 489.4222438801421,
        "walking_time": "약 8분"
      },
      {
        "post_office_lat": 37.52817593,
        "post_office_lon": 126.9675227,
        "post_office_type": "우체국",
        "post_office_name": "LS용산타워우편취급국",
        "distance": 590.5401532343656,
        "walking_time": "약 9분"
      },
      {
        "post_office_lat": 37.53865339,
        "post_office_lon": 126.9668187,
        "post_office_type": "우체국",
        "post_office_name": "서울원효로우체국",
        "distance": 929.973353726838,
        "walking_time": "약 14분"
      },
      {
        "post_office_lat": 37.52023531,
        "post_office_lon": 126.9749098,
        "post_office_type": "우체국",
        "post_office_name": "서울이촌동우체국",
        "distance": 1285.8368585540777,
        "walking_time": "약 20분"
      },
      {
        "post_office_lat": 37.53660425,
        "post_office_lon": 126.9872474,
        "post_office_type": "우체국",
        "post_office_name": "서울이태원우체국",
        "distance": 1405.1702898126152,
        "walking_time": "약 21분"
      },
      {
        "post_office_lat": 37.54470577,
        "post_office_lon": 126.9702237,
        "post_office_type": "우체국",
        "post_office_name": "서울청파3가우편취급국",
        "distance": 1466.455735827724,
        "walking_time": "약 22분"
      },
      {
        "post_office_lat": 37.5450495,
        "post_office_lon": 126.9728375,
        "post_office_type": "우체국",
        "post_office_name": "서울남영동우체국",
        "distance": 1489.9673401694602,
        "walking_time": "약 23분"
      },
      {
        "post_office_lat": 37.54584113,
        "post_office_lon": 126.985774,
        "post_office_type": "우체국",
        "post_office_name": "서울용산2가우편취급국",
        "distance": 1959.985542602449,
        "walking_time": "약 30분"
      }
    ],
    "school": [
      {
        "school_lat": 37.535613442977,
        "school_lon": 126.972550624529,
        "school_type": "초등학교",
        "school_name": "서울용산초등학교",
        "distance": 440.57265912684926,
        "walking_time": "약 7분"
      },
      {
        "school_lat": 37.5356738275449,
        "school_lon": 126.964803669293,
        "school_type": "초등학교",
        "school_name": "서울남정초등학교",
        "distance": 819.1571301701922,
        "walking_time": "약 13분"
      },
      {
        "school_lat": 37.5243416742733,
        "school_lon": 126.967358069696,
        "school_type": "고등학교",
        "school_name": "용산철도고등학교",
        "distance": 934.465761482788,
        "walking_time": "약 14분"
      },
      {
        "school_lat": 37.5252261730909,
        "school_lon": 126.965099429477,
        "school_type": "초등학교",
        "school_name": "서울한강초등학교",
        "distance": 972.8045396779607,
        "walking_time": "약 15분"
      },
      {
        "school_lat": 37.5215769321647,
        "school_lon": 126.975485292591,
        "school_type": "중학교",
        "school_name": "용강중학교",
        "distance": 1149.0243459842334,
        "walking_time": "약 18분"
      },
      {
        "school_lat": 37.5206295929735,
        "school_lon": 126.975366260146,
        "school_type": "초등학교",
        "school_name": "서울신용산초등학교",
        "distance": 1249.8422174162465,
        "walking_time": "약 19분"
      },
      {
        "school_lat": 37.5428998795519,
        "school_lon": 126.969447523164,
        "school_type": "고등학교",
        "school_name": "신광여자고등학교",
        "distance": 1281.0323072934525,
        "walking_time": "약 20분"
      },
      {
        "school_lat": 37.5428998795519,
        "school_lon": 126.969447523164,
        "school_type": "중학교",
        "school_name": "신광여자중학교",
        "distance": 1281.0323072934525,
        "walking_time": "약 20분"
      },
      {
        "school_lat": 37.5428998795519,
        "school_lon": 126.969447523164,
        "school_type": "초등학교",
        "school_name": "신광초등학교",
        "distance": 1281.0323072934525,
        "walking_time": "약 20분"
      },
      {
        "school_lat": 37.5427698351486,
        "school_lon": 126.966038693159,
        "school_type": "고등학교",
        "school_name": "선린인터넷고등학교",
        "distance": 1364.4768656473143,
        "walking_time": "약 21분"
      }
    ],
    "self_laundromat": [
      {
        "self_laundromat_lat": 37.53582586,
        "self_laundromat_lon": 126.9716393,
        "self_laundromat_type": "셀프 빨래방",
        "self_laundromat_name": "런드리24 용산트리스퀘어점",
        "distance": 471.6352370941586,
        "walking_time": "약 8분"
      },
      {
        "self_laundromat_lat": 37.53582586,
        "self_laundromat_lon": 126.9716393,
        "self_laundromat_type": "셀프 빨래방",
        "self_laundromat_name": "런드리24 용산트리스퀘어점",
        "distance": 471.6352370941586,
        "walking_time": "약 8분"
      },
      {
        "self_laundromat_lat": 37.52881739,
        "self_laundromat_lon": 126.9666538,
        "self_laundromat_type": "셀프 빨래방",
        "self_laundromat_name": "런드리24 펭귄하우스 래미안용산점",
        "distance": 610.7308745988955,
        "walking_time": "약 10분"
      },
      {
        "self_laundromat_lat": 37.52881739,
        "self_laundromat_lon": 126.9666538,
        "self_laundromat_type": "셀프 빨래방",
        "self_laundromat_name": "런드리24 펭귄하우스 래미안용산점",
        "distance": 610.7308745988955,
        "walking_time": "약 10분"
      },
      {
        "self_laundromat_lat": 37.52690561,
        "self_laundromat_lon": 126.9665662,
        "self_laundromat_type": "셀프 빨래방",
        "self_laundromat_name": "런드리24 헤링턴스퀘어점",
        "distance": 748.538998283688,
        "walking_time": "약 12분"
      },
      {
        "self_laundromat_lat": 37.52690561,
        "self_laundromat_lon": 126.9665662,
        "self_laundromat_type": "셀프 빨래방",
        "self_laundromat_name": "런드리24 헤링턴스퀘어점",
        "distance": 748.538998283688,
        "walking_time": "약 12분"
      },
      {
        "self_laundromat_lat": 37.53793867,
        "self_laundromat_lon": 126.9679734,
        "self_laundromat_type": "셀프 빨래방",
        "self_laundromat_name": "더화이트셀프빨래방 원효로점",
        "distance": 808.8374322638032,
        "walking_time": "약 13분"
      },
      {
        "self_laundromat_lat": 37.53793867,
        "self_laundromat_lon": 126.9679734,
        "self_laundromat_type": "셀프 빨래방",
        "self_laundromat_name": "더화이트셀프빨래방 원효로점",
        "distance": 808.8374322638032,
        "walking_time": "약 13분"
      },
      {
        "self_laundromat_lat": 37.52704046,
        "self_laundromat_lon": 126.9648922,
        "self_laundromat_type": "셀프 빨래방",
        "self_laundromat_name": "워시프레시 신용산점",
        "distance": 850.4322290350931,
        "walking_time": "약 13분"
      },
      {
        "self_laundromat_lat": 37.52704046,
        "self_laundromat_lon": 126.9648922,
        "self_laundromat_type": "셀프 빨래방",
        "self_laundromat_name": "워시프레시 신용산점",
        "distance": 850.4322290350931,
        "walking_time": "약 13분"
      }
    ],
    "subway": [
      {
        "subway_lat": 37.5344018722304,
        "subway_lon": 126.973359125512,
        "subway_type": "지하철",
        "subway_name": "4호선-삼각지역",
        "distance": 313.33698889122144,
        "walking_time": "약 5분"
      },
      {
        "subway_lat": 37.5352494090346,
        "subway_lon": 126.973206081204,
        "subway_type": "지하철",
        "subway_name": "6호선-삼각지역",
        "distance": 403.7955337476218,
        "walking_time": "약 7분"
      },
      {
        "subway_lat": 37.5296155628471,
        "subway_lon": 126.968215931799,
        "subway_type": "지하철",
        "subway_name": "4호선-신용산역",
        "distance": 446.9646265836181,
        "walking_time": "약 7분"
      },
      {
        "subway_lat": 37.522520254623,
        "subway_lon": 126.973683151228,
        "subway_type": "지하철",
        "subway_name": "4호선-이촌(국립중앙박물관)역",
        "distance": 1019.9300136740384,
        "walking_time": "약 16분"
      },
      {
        "subway_lat": 37.5348314193581,
        "subway_lon": 126.987028473368,
        "subway_type": "지하철",
        "subway_name": "6호선-녹사평(용산구청)역",
        "distance": 1321.6398408308082,
        "walking_time": "약 20분"
      },
      {
        "subway_lat": 37.5395980031473,
        "subway_lon": 126.961220193937,
        "subway_type": "지하철",
        "subway_name": "6호선-효창공원앞역",
        "distance": 1336.128460219366,
        "walking_time": "약 20분"
      },
      {
        "subway_lat": 37.545496888435,
        "subway_lon": 126.972238757796,
        "subway_type": "지하철",
        "subway_name": "4호선-숙대입구(갈월)역",
        "distance": 1539.8555774160552,
        "walking_time": "약 23분"
      }
    ],
    "supermarket": [
      {
        "supermarket_lat": 37.52817593,
        "supermarket_lon": 126.9675227,
        "supermarket_type": "마트",
        "supermarket_name": "LS Avenue",
        "distance": 590.5401532343656,
        "walking_time": "약 9분"
      },
      {
        "supermarket_lat": 37.53271721,
        "supermarket_lon": 126.9651782,
        "supermarket_type": "마트",
        "supermarket_name": "선인상가",
        "distance": 663.9187894622972,
        "walking_time": "약 10분"
      },
      {
        "supermarket_lat": 37.53388778,
        "supermarket_lon": 126.9654273,
        "supermarket_type": "마트",
        "supermarket_name": "나진상가 17,18동",
        "distance": 678.4987594197811,
        "walking_time": "약 11분"
      },
      {
        "supermarket_lat": 37.5297718,
        "supermarket_lon": 126.9647415,
        "supermarket_type": "마트",
        "supermarket_name": "아이파크몰(I PARK MALL)",
        "distance": 722.6587890724961,
        "walking_time": "약 11분"
      },
      {
        "supermarket_lat": 37.5297718,
        "supermarket_lon": 126.9647415,
        "supermarket_type": "마트",
        "supermarket_name": "아이파크(I PARK)백화점",
        "distance": 722.6587890724961,
        "walking_time": "약 11분"
      },
      {
        "supermarket_lat": 37.52690561,
        "supermarket_lon": 126.9665662,
        "supermarket_type": "마트",
        "supermarket_name": "GS THE FRESH 용산해링턴점",
        "distance": 748.538998283688,
        "walking_time": "약 12분"
      },
      {
        "supermarket_lat": 37.53305742,
        "supermarket_lon": 126.9639216,
        "supermarket_type": "마트",
        "supermarket_name": "나진상가 15동",
        "distance": 779.890858003503,
        "walking_time": "약 12분"
      },
      {
        "supermarket_lat": 37.53412322,
        "supermarket_lon": 126.9642615,
        "supermarket_type": "마트",
        "supermarket_name": "(주)전자타운",
        "distance": 783.8507463247082,
        "walking_time": "약 12분"
      },
      {
        "supermarket_lat": 37.53412322,
        "supermarket_lon": 126.9642615,
        "supermarket_type": "마트",
        "supermarket_name": "전자타운",
        "distance": 783.8507463247082,
        "walking_time": "약 12분"
      },
      {
        "supermarket_lat": 37.53793867,
        "supermarket_lon": 126.9679734,
        "supermarket_type": "마트",
        "supermarket_name": "롯데쇼핑(주)롯데슈퍼원효로점",
        "distance": 808.8374322638032,
        "walking_time": "약 13분"
      }
    ],
    "tax_office": [
      {
        "tax_office_lat": 37.5233032,
        "tax_office_lon": 126.9687627,
        "tax_office_type": "세무서",
        "tax_office_name": "용산세무서",
        "distance": 987.6226279837708,
        "walking_time": "약 15분"
      }
    ],
    "theater": [
      {
        "theater_lat": 37.5297718014452,
        "theater_lon": 126.964741503485,
        "theater_type": "영화관",
        "theater_name": "씨지브이 용산아이파크몰",
        "distance": 722.6584484139937,
        "walking_time": "약 11분"
      }
    ],
    "university": [
      {
        "university_lat": 37.5454740835781,
        "university_lon": 126.965074376341,
        "university_type": "대학교",
        "university_name": "숙명여자대학교",
        "distance": 1673.6564483068046,
        "walking_time": "약 25분"
      }
    ]
  }
}