{
  "클러스터_위도": 37.50083000066645,
  "클러스터_경도": 126.92455616892092,
  "클러스터_level": 4.0,
  "facilities": {
    "bus": [
      {
        "bus_lat": 37.50006127,
        "bus_lon": 126.9240184,
        "bus_type": "버스정류장",
        "bus_name": "범한택시",
        "distance": 97.76095882106866,
        "walking_time": "약 2분"
      },
      {
        "bus_lat": 37.49985536,
        "bus_lon": 126.9261279,
        "bus_type": "버스정류장",
        "bus_name": "대림초등학교",
        "distance": 175.9820802910939,
        "walking_time": "약 3분"
      },
      {
        "bus_lat": 37.49917007,
        "bus_lon": 126.9240091,
        "bus_type": "버스정류장",
        "bus_name": "코오롱하늘채아파트",
        "distance": 190.7808875097223,
        "walking_time": "약 3분"
      },
      {
        "bus_lat": 37.49960777,
        "bus_lon": 126.926481,
        "bus_type": "버스정류장",
        "bus_name": "대림초등학교",
        "distance": 217.4928558557157,
        "walking_time": "약 4분"
      },
      {
        "bus_lat": 37.4998233,
        "bus_lon": 126.9267443,
        "bus_type": "버스정류장",
        "bus_name": "7호선신대방삼거리역4번출구",
        "distance": 223.13862499226343,
        "walking_time": "약 4분"
      },
      {
        "bus_lat": 37.49977514,
        "bus_lon": 126.9223388,
        "bus_type": "버스정류장",
        "bus_name": "서울공업고등학교",
        "distance": 228.08081084375,
        "walking_time": "약 4분"
      },
      {
        "bus_lat": 37.50286916,
        "bus_lon": 126.9241105,
        "bus_type": "버스정류장",
        "bus_name": "강남중학교앞",
        "distance": 230.12725385121792,
        "walking_time": "약 4분"
      },
      {
        "bus_lat": 37.50296195,
        "bus_lon": 126.9254813,
        "bus_type": "버스정류장",
        "bus_name": "대방어린이도서관",
        "distance": 250.71612478646503,
        "walking_time": "약 4분"
      },
      {
        "bus_lat": 37.49996145,
        "bus_lon": 126.921571,
        "bus_type": "버스정류장",
        "bus_name": "서울공업고등학교",
        "distance": 280.492062727368,
        "walking_time": "약 5분"
      },
      {
        "bus_lat": 37.50272846,
        "bus_lon": 126.9267494,
        "bus_type": "버스정류장",
        "bus_name": "효주파크빌",
        "distance": 286.3486046752983,
        "walking_time": "약 5분"
      }
    ],
    "community_center": [
      {
        "community_center_lat": 37.49841253,
        "community_center_lon": 126.924544,
        "community_center_type": "주민센터",
        "community_center_name": "신대방2동 자치회관",
        "distance": 268.8126169716967,
        "walking_time": "약 5분"
      },
      {
        "community_center_lat": 37.49912572,
        "community_center_lon": 126.931404,
        "community_center_type": "주민센터",
        "community_center_name": "상도3동 자치회관",
        "distance": 633.1216782638877,
        "walking_time": "약 10분"
      },
      {
        "community_center_lat": 37.50639203,
        "community_center_lon": 126.9215141,
        "community_center_type": "주민센터",
        "community_center_name": "신길7동 자치회관",
        "distance": 674.1776739962577,
        "walking_time": "약 11분"
      },
      {
        "community_center_lat": 37.50815443,
        "community_center_lon": 126.9263229,
        "community_center_type": "주민센터",
        "community_center_name": "대방동 자치회관",
        "distance": 829.2162054268097,
        "walking_time": "약 13분"
      },
      {
        "community_center_lat": 37.50059942,
        "community_center_lon": 126.9377767,
        "community_center_type": "주민센터",
        "community_center_name": "상도4동 자치회관",
        "distance": 1166.5444580573223,
        "walking_time": "약 18분"
      },
      {
        "community_center_lat": 37.51116875,
        "community_center_lon": 126.9214422,
        "community_center_type": "주민센터",
        "community_center_name": "신길1동 자치회관",
        "distance": 1181.9765294244444,
        "walking_time": "약 18분"
      },
      {
        "community_center_lat": 37.51116875,
        "community_center_lon": 126.9214422,
        "community_center_type": "주민센터",
        "community_center_name": "신길6동 자치회관",
        "distance": 1181.9765294244444,
        "walking_time": "약 18분"
      },
      {
        "community_center_lat": 37.50851669,
        "community_center_lon": 126.9373567,
        "community_center_type": "주민센터",
        "community_center_name": "노량진2동 자치회관",
        "distance": 1416.168109850439,
        "walking_time": "약 22분"
      },
      {
        "community_center_lat": 37.50845067,
        "community_center_lon": 126.9113577,
        "community_center_type": "주민센터",
        "community_center_name": "신길4동 자치회관",
        "distance": 1439.980088477046,
        "walking_time": "약 22분"
      },
      {
        "community_center_lat": 37.51769391,
        "community_center_lon": 126.934614,
        "community_center_type": "주민센터",
        "community_center_name": "여의동 자치회관",
        "distance": 2074.4535958311167,
        "walking_time": "약 31분"
      }
    ],
    "convenience_store": [
      {
        "convenience_store_lat": 37.49958874,
        "convenience_store_lon": 126.9251614,
        "convenience_store_type": "편의점",
        "convenience_store_name": "GS25 신대방타운점",
        "distance": 147.98880901962028,
        "walking_time": "약 3분"
      },
      {
        "convenience_store_lat": 37.50025378,
        "convenience_store_lon": 126.9226535,
        "convenience_store_type": "편의점",
        "convenience_store_name": "GS25 대방서울점",
        "distance": 179.65994718593677,
        "walking_time": "약 3분"
      },
      {
        "convenience_store_lat": 37.50025378,
        "convenience_store_lon": 126.9226535,
        "convenience_store_type": "편의점",
        "convenience_store_name": "세븐일레븐 대방서울점",
        "distance": 179.65994718593677,
        "walking_time": "약 3분"
      },
      {
        "convenience_store_lat": 37.49960365,
        "convenience_store_lon": 126.926517,
        "convenience_store_type": "편의점",
        "convenience_store_name": "CU 신대방삼거리역점",
        "distance": 220.26456112070812,
        "walking_time": "약 4분"
      },
      {
        "convenience_store_lat": 37.49997581,
        "convenience_store_lon": 126.9268762,
        "convenience_store_type": "편의점",
        "convenience_store_name": "CU 신대방리안점",
        "distance": 225.63063717437328,
        "walking_time": "약 4분"
      },
      {
        "convenience_store_lat": 37.50058919,
        "convenience_store_lon": 126.9272873,
        "convenience_store_type": "편의점",
        "convenience_store_name": "세븐일레븐 대방동길점",
        "distance": 242.41296384659748,
        "walking_time": "약 4분"
      },
      {
        "convenience_store_lat": 37.49825826,
        "convenience_store_lon": 126.9239402,
        "convenience_store_type": "편의점",
        "convenience_store_name": "CU 신대방덕우점",
        "distance": 291.0815180640647,
        "walking_time": "약 5분"
      },
      {
        "convenience_store_lat": 37.49946331,
        "convenience_store_lon": 126.9278966,
        "convenience_store_type": "편의점",
        "convenience_store_name": "세븐일레븐 신대방삼거리점",
        "distance": 331.5598760062383,
        "walking_time": "약 5분"
      },
      {
        "convenience_store_lat": 37.49996051,
        "convenience_store_lon": 126.928376,
        "convenience_store_type": "편의점",
        "convenience_store_name": "미니스톱 대방점",
        "distance": 350.5674679351372,
        "walking_time": "약 6분"
      },
      {
        "convenience_store_lat": 37.50416354,
        "convenience_store_lon": 126.9243703,
        "convenience_store_type": "편의점",
        "convenience_store_name": "GS25 대방성남점",
        "distance": 371.0351173581311,
        "walking_time": "약 6분"
      }
    ],
    "daycare": [
      {
        "daycare_lat": 37.499273088391455,
        "daycare_lon": 126.92626063251257,
        "daycare_type": "어린이집",
        "daycare_name": "구립한결어린이집",
        "distance": 229.3024728055869,
        "walking_time": "약 4분"
      },
      {
        "daycare_lat": 37.50290971549072,
        "daycare_lon": 126.92438817801634,
        "daycare_type": "어린이집",
        "daycare_name": "구립대방보듬이나눔이어린이집",
        "distance": 231.7280766264896,
        "walking_time": "약 4분"
      },
      {
        "daycare_lat": 37.49884054570112,
        "daycare_lon": 126.9261649331774,
        "daycare_type": "어린이집",
        "daycare_name": "구립숲속자이어린이집",
        "distance": 262.8279071975373,
        "walking_time": "약 4분"
      },
      {
        "daycare_lat": 37.50220064011248,
        "daycare_lon": 126.92722014741366,
        "daycare_type": "어린이집",
        "daycare_name": "해이랑어린이집",
        "distance": 280.0976363405508,
        "walking_time": "약 5분"
      },
      {
        "daycare_lat": 37.50116975,
        "daycare_lon": 126.927892,
        "daycare_type": "어린이집",
        "daycare_name": "리틀엔젤어린이집",
        "distance": 296.6876894366085,
        "walking_time": "약 5분"
      },
      {
        "daycare_lat": 37.50370166,
        "daycare_lon": 126.9243461,
        "daycare_type": "어린이집",
        "daycare_name": "완두콩어린이집",
        "distance": 319.85121253251987,
        "walking_time": "약 5분"
      },
      {
        "daycare_lat": 37.49799026,
        "daycare_lon": 126.9270305,
        "daycare_type": "어린이집",
        "daycare_name": "정현어린이집",
        "distance": 383.8662561939828,
        "walking_time": "약 6분"
      },
      {
        "daycare_lat": 37.50261031782856,
        "daycare_lon": 126.9205540437632,
        "daycare_type": "어린이집",
        "daycare_name": "나라어린이집",
        "distance": 404.7605402971022,
        "walking_time": "약 7분"
      },
      {
        "daycare_lat": 37.49751525,
        "daycare_lon": 126.9223598,
        "daycare_type": "어린이집",
        "daycare_name": "구립보라매어린이집",
        "distance": 416.4087992962228,
        "walking_time": "약 7분"
      },
      {
        "daycare_lat": 37.49714146,
        "daycare_lon": 126.9235617,
        "daycare_type": "어린이집",
        "daycare_name": "미래어린이집",
        "distance": 419.4247768590239,
        "walking_time": "약 7분"
      }
    ],
    "education": [
      {
        "education_lat": 37.50302549,
        "education_lon": 126.9252227,
        "education_type": "도서관",
        "education_name": "대방어린이도서관",
        "distance": 251.10815155235568,
        "walking_time": "약 4분"
      },
      {
        "education_lat": 37.49379251,
        "education_lon": 126.9231084,
        "education_type": "미술관/갤러리",
        "education_name": "동작아트갤러리",
        "distance": 792.8879303790551,
        "walking_time": "약 12분"
      },
      {
        "education_lat": 37.51294863,
        "education_lon": 126.9370008,
        "education_type": "공연장",
        "education_name": "CTS 아트홀",
        "distance": 1738.055713484153,
        "walking_time": "약 26분"
      },
      {
        "education_lat": 37.51612662,
        "education_lon": 126.9121264,
        "education_type": "문화원",
        "education_name": "영등포문화원",
        "distance": 2023.6490446922724,
        "walking_time": "약 31분"
      },
      {
        "education_lat": 37.51976516,
        "education_lon": 126.9302412,
        "education_type": "박물관/기념관",
        "education_name": "한국잡지박물관",
        "distance": 2164.3826059624207,
        "walking_time": "약 33분"
      }
    ],
    "electric_gas_station": [
      {
        "electric_gas_station_lat": 37.51107647,
        "electric_gas_station_lon": 126.9175847,
        "electric_gas_station_type": "전기차 충전소",
        "electric_gas_station_name": "영등포구 대신시장(공중전화부스)",
        "distance": 1294.718823406277,
        "walking_time": "약 20분"
      },
      {
        "electric_gas_station_lat": 37.51394028,
        "electric_gas_station_lon": 126.9343584,
        "electric_gas_station_type": "전기차 충전소",
        "electric_gas_station_name": "현대차 남부서비스센터",
        "distance": 1694.923945226006,
        "walking_time": "약 26분"
      }
    ],
    "fitness": [
      {
        "fitness_lat": 37.50001128,
        "fitness_lon": 126.9246811,
        "fitness_type": "운동시설",
        "fitness_name": "파워 유도 피트니스",
        "distance": 91.7022544916386,
        "walking_time": "약 2분"
      },
      {
        "fitness_lat": 37.49855026,
        "fitness_lon": 126.9239182,
        "fitness_type": "운동시설",
        "fitness_name": "바디테일러 PT",
        "distance": 259.66794005895804,
        "walking_time": "약 4분"
      },
      {
        "fitness_lat": 37.49996798,
        "fitness_lon": 126.9273387,
        "fitness_type": "운동시설",
        "fitness_name": "피트니스 킹덤",
        "distance": 263.5159694589915,
        "walking_time": "약 4분"
      },
      {
        "fitness_lat": 37.49968769,
        "fitness_lon": 126.9211714,
        "fitness_type": "운동시설",
        "fitness_name": "펠리스짐",
        "distance": 324.486438738224,
        "walking_time": "약 5분"
      },
      {
        "fitness_lat": 37.49946331,
        "fitness_lon": 126.9278966,
        "fitness_type": "운동시설",
        "fitness_name": "프레토 휘트니스",
        "distance": 331.5598760062383,
        "walking_time": "약 5분"
      },
      {
        "fitness_lat": 37.49946331,
        "fitness_lon": 126.9278966,
        "fitness_type": "운동시설",
        "fitness_name": "프레토 휘트니스",
        "distance": 331.5598760062383,
        "walking_time": "약 5분"
      },
      {
        "fitness_lat": 37.49775674,
        "fitness_lon": 126.9250464,
        "fitness_type": "운동시설",
        "fitness_name": "왓어무브(WHAT A MOVE)",
        "distance": 344.45664547658816,
        "walking_time": "약 6분"
      },
      {
        "fitness_lat": 37.49789798,
        "fitness_lon": 126.9259836,
        "fitness_type": "운동시설",
        "fitness_name": "프롬 베이스먼트",
        "distance": 349.4994054405565,
        "walking_time": "약 6분"
      },
      {
        "fitness_lat": 37.49815136,
        "fitness_lon": 126.9271688,
        "fitness_type": "운동시설",
        "fitness_name": "주식회사 스포니스 신대방점",
        "distance": 376.61155087141833,
        "walking_time": "약 6분"
      },
      {
        "fitness_lat": 37.49902838,
        "fitness_lon": 126.920711,
        "fitness_type": "운동시설",
        "fitness_name": "Vamos Gym",
        "distance": 393.948394131046,
        "walking_time": "약 6분"
      }
    ],
    "gas_station": [
      {
        "gas_station_lat": 37.49838192,
        "gas_station_lon": 126.9197833,
        "gas_station_type": "주유소",
        "gas_station_name": "한경석유㈜경덕주유소",
        "distance": 501.381537035395,
        "walking_time": "약 8분"
      },
      {
        "gas_station_lat": 37.50573583,
        "gas_station_lon": 126.9228813,
        "gas_station_type": "주유소",
        "gas_station_name": "GS칼텍스㈜ 대방주유소",
        "distance": 565.1570824105028,
        "walking_time": "약 9분"
      },
      {
        "gas_station_lat": 37.50725792,
        "gas_station_lon": 126.9229157,
        "gas_station_type": "주유소",
        "gas_station_name": "씨엔에스유통(주)한성주유소",
        "distance": 729.2538638096389,
        "walking_time": "약 11분"
      },
      {
        "gas_station_lat": 37.49322282,
        "gas_station_lon": 126.9266746,
        "gas_station_type": "주유소",
        "gas_station_name": "㈜엠오티이엔지직영삼화주유소",
        "distance": 866.2795275243859,
        "walking_time": "약 13분"
      },
      {
        "gas_station_lat": 37.50286297,
        "gas_station_lon": 126.9351815,
        "gas_station_type": "주유소",
        "gas_station_name": "매일주유소",
        "distance": 964.1844904021544,
        "walking_time": "약 15분"
      },
      {
        "gas_station_lat": 37.49159774,
        "gas_station_lon": 126.927219,
        "gas_station_type": "주유소",
        "gas_station_name": "대양석유㈜보라매주유소",
        "distance": 1053.116486125343,
        "walking_time": "약 16분"
      },
      {
        "gas_station_lat": 37.51358212,
        "gas_station_lon": 126.9227248,
        "gas_station_type": "주유소",
        "gas_station_name": "㈜지에스이앤알 보라주유소",
        "distance": 1427.1431292834282,
        "walking_time": "약 22분"
      },
      {
        "gas_station_lat": 37.51304064,
        "gas_station_lon": 126.9183332,
        "gas_station_type": "주유소",
        "gas_station_name": "매봉주유소",
        "distance": 1464.5232325203135,
        "walking_time": "약 22분"
      },
      {
        "gas_station_lat": 37.51525021,
        "gas_station_lon": 126.916967,
        "gas_station_type": "주유소",
        "gas_station_name": "SK에너지(주)신길동주유소",
        "distance": 1737.5813803438325,
        "walking_time": "약 26분"
      },
      {
        "gas_station_lat": 37.51768011,
        "gas_station_lon": 126.9274789,
        "gas_station_type": "주유소",
        "gas_station_name": "현대오일뱅크㈜직영 여의도현대주유소",
        "distance": 1891.299508323592,
        "walking_time": "약 29분"
      }
    ],
    "hospital": [
      {
        "hospital_lat": 37.49956342,
        "hospital_lon": 126.9260192,
        "hospital_type": "병원",
        "hospital_name": "연세자연의원",
        "distance": 191.03033883624272,
        "walking_time": "약 3분"
      },
      {
        "hospital_lat": 37.50008507,
        "hospital_lon": 126.9220408,
        "hospital_type": "병원",
        "hospital_name": "서울봄날치과교정과치과의원",
        "distance": 236.85296695186767,
        "walking_time": "약 4분"
      },
      {
        "hospital_lat": 37.50008507,
        "hospital_lon": 126.9220408,
        "hospital_type": "병원",
        "hospital_name": "연세광정신건강의학과의원",
        "distance": 236.85296695186767,
        "walking_time": "약 4분"
      },
      {
        "hospital_lat": 37.4995662,
        "hospital_lon": 126.9268688,
        "hospital_type": "병원",
        "hospital_name": "연세큐원피부과의원",
        "distance": 247.72826240025108,
        "walking_time": "약 4분"
      },
      {
        "hospital_lat": 37.49956142,
        "hospital_lon": 126.9271532,
        "hospital_type": "병원",
        "hospital_name": "자라미소아청소년과의원",
        "distance": 269.04511547802787,
        "walking_time": "약 5분"
      },
      {
        "hospital_lat": 37.49996104,
        "hospital_lon": 126.9276283,
        "hospital_type": "병원",
        "hospital_name": "천성한의원",
        "distance": 287.7218971247636,
        "walking_time": "약 5분"
      },
      {
        "hospital_lat": 37.49998384,
        "hospital_lon": 126.927922,
        "hospital_type": "병원",
        "hospital_name": "반마취통증의학과의원",
        "distance": 311.4723845598592,
        "walking_time": "약 5분"
      },
      {
        "hospital_lat": 37.49998384,
        "hospital_lon": 126.927922,
        "hospital_type": "병원",
        "hospital_name": "삼성준소아청소년과의원",
        "distance": 311.4723845598592,
        "walking_time": "약 5분"
      },
      {
        "hospital_lat": 37.49998384,
        "hospital_lon": 126.927922,
        "hospital_type": "병원",
        "hospital_name": "소리숨이비인후과의원",
        "distance": 311.4723845598592,
        "walking_time": "약 5분"
      },
      {
        "hospital_lat": 37.49998384,
        "hospital_lon": 126.927922,
        "hospital_type": "병원",
        "hospital_name": "신항장외과의원",
        "distance": 311.4723845598592,
        "walking_time": "약 5분"
      }
    ],
    "music_room": [
      {
        "music_room_lat": 37.50020104,
        "music_room_lon": 126.9281644,
        "music_room_type": "노래방",
        "music_room_name": "오딧세이노래연습장",
        "distance": 325.8973178448009,
        "walking_time": "약 5분"
      },
      {
        "music_room_lat": 37.49798565,
        "music_room_lon": 126.9231623,
        "music_room_type": "노래방",
        "music_room_name": "청춘 노래연습장",
        "distance": 339.3397237550395,
        "walking_time": "약 6분"
      },
      {
        "music_room_lat": 37.49772936,
        "music_room_lon": 126.9244909,
        "music_room_type": "노래방",
        "music_room_name": "판타스틱 코인노래연습장 신대방점",
        "distance": 344.8235873995841,
        "walking_time": "약 6분"
      },
      {
        "music_room_lat": 37.49770626,
        "music_room_lon": 126.9242937,
        "music_room_type": "노래방",
        "music_room_name": "쿨노래연습장",
        "distance": 348.1150105053486,
        "walking_time": "약 6분"
      },
      {
        "music_room_lat": 37.49920916,
        "music_room_lon": 126.9211687,
        "music_room_type": "노래방",
        "music_room_name": "일번지노래연습장",
        "distance": 348.9742676900892,
        "walking_time": "약 6분"
      },
      {
        "music_room_lat": 37.49900851,
        "music_room_lon": 126.9211752,
        "music_room_type": "노래방",
        "music_room_name": "소리샘노래연습장",
        "distance": 360.5287481155873,
        "walking_time": "약 6분"
      },
      {
        "music_room_lat": 37.49902838,
        "music_room_lon": 126.920711,
        "music_room_type": "노래방",
        "music_room_name": "신바람2노래연습장",
        "distance": 393.948394131046,
        "walking_time": "약 6분"
      },
      {
        "music_room_lat": 37.49902838,
        "music_room_lon": 126.920711,
        "music_room_type": "노래방",
        "music_room_name": "신바람노래연습장",
        "distance": 393.948394131046,
        "walking_time": "약 6분"
      },
      {
        "music_room_lat": 37.49819849,
        "music_room_lon": 126.9277695,
        "music_room_type": "노래방",
        "music_room_name": "무조건 노래연습장",
        "distance": 407.403080068265,
        "walking_time": "약 7분"
      },
      {
        "music_room_lat": 37.49781682,
        "music_room_lon": 126.9218261,
        "music_room_type": "노래방",
        "music_room_name": "프라하 노래연습장",
        "distance": 412.6291633515237,
        "walking_time": "약 7분"
      }
    ],
    "park": [
      {
        "park_lat": 37.492333,
        "park_lon": 126.918289,
        "park_type": "공원",
        "park_name": "보라매근린공원",
        "distance": 1094.7074584095096,
        "walking_time": "약 17분"
      },
      {
        "park_lat": 37.510234,
        "park_lon": 126.928607,
        "park_type": "공원",
        "park_name": "노량진공원",
        "distance": 1105.0437467952245,
        "walking_time": "약 17분"
      },
      {
        "park_lat": 37.492299,
        "park_lon": 126.9385469,
        "park_type": "공원",
        "park_name": "상도근린공원",
        "distance": 1556.690364652562,
        "walking_time": "약 24분"
      },
      {
        "park_lat": 37.5177329,
        "park_lon": 126.9302895,
        "park_type": "공원",
        "park_name": "자매근린공원",
        "distance": 1946.3630470039448,
        "walking_time": "약 30분"
      },
      {
        "park_lat": 37.515423,
        "park_lon": 126.910662,
        "park_type": "공원",
        "park_name": "영등포근린공원",
        "distance": 2033.485514298103,
        "walking_time": "약 31분"
      },
      {
        "park_lat": 37.519832,
        "park_lon": 126.9112668,
        "park_type": "공원",
        "park_name": "중마루근린공원",
        "distance": 2416.292999655791,
        "walking_time": "약 37분"
      }
    ],
    "park_station": [
      {
        "park_station_lat": 37.50018041,
        "park_station_lon": 126.9262796,
        "park_station_type": "주차장",
        "park_station_name": "대방생태공영주차장",
        "distance": 168.32077222779668,
        "walking_time": "약 3분"
      },
      {
        "park_station_lat": 37.50272162,
        "park_station_lon": 126.9267231,
        "park_station_type": "주차장",
        "park_station_name": "공유) 서울공고",
        "distance": 284.22285424116353,
        "walking_time": "약 5분"
      },
      {
        "park_station_lat": 37.49872477,
        "park_station_lon": 126.9274762,
        "park_station_type": "주차장",
        "park_station_name": "구릉주차장",
        "distance": 348.0727979073005,
        "walking_time": "약 6분"
      },
      {
        "park_station_lat": 37.50431367,
        "park_station_lon": 126.9210968,
        "park_station_type": "주차장",
        "park_station_name": "해군본부앞 공영주차장",
        "distance": 493.13067965805465,
        "walking_time": "약 8분"
      },
      {
        "park_station_lat": 37.50734492,
        "park_station_lon": 126.9262555,
        "park_station_type": "주차장",
        "park_station_name": "공유) 대방동주민센터",
        "distance": 739.772561848406,
        "walking_time": "약 12분"
      },
      {
        "park_station_lat": 37.49725268,
        "park_station_lon": 126.9338844,
        "park_station_type": "주차장",
        "park_station_name": "공유) 성대주차장",
        "distance": 914.0146021992228,
        "walking_time": "약 14분"
      },
      {
        "park_station_lat": 37.49978486,
        "park_station_lon": 126.9354957,
        "park_station_type": "주차장",
        "park_station_name": "도화공영주차장",
        "distance": 972.0194595175147,
        "walking_time": "약 15분"
      },
      {
        "park_station_lat": 37.50576543,
        "park_station_lon": 126.9148182,
        "park_station_type": "주차장",
        "park_station_name": "대신시장앞",
        "distance": 1019.3540476042268,
        "walking_time": "약 16분"
      },
      {
        "park_station_lat": 37.50531623,
        "park_station_lon": 126.9351787,
        "park_station_type": "주차장",
        "park_station_name": "공유) 상도래미안",
        "distance": 1061.5582513552874,
        "walking_time": "약 16분"
      },
      {
        "park_station_lat": 37.49330922,
        "park_station_lon": 126.9336841,
        "park_station_type": "주차장",
        "park_station_name": "빙수골장미",
        "distance": 1160.952297463809,
        "walking_time": "약 18분"
      }
    ],
    "pc_room": [
      {
        "pc_room_lat": 37.4985502575167,
        "pc_room_lon": 126.923918172165,
        "pc_room_type": "PC방",
        "pc_room_name": "아이센스 PC방",
        "distance": 259.66874184173366,
        "walking_time": "약 4분"
      },
      {
        "pc_room_lat": 37.4977293578132,
        "pc_room_lon": 126.924490881768,
        "pc_room_type": "PC방",
        "pc_room_name": "로하스PC방 신대방2호점",
        "distance": 344.82385738770705,
        "walking_time": "약 6분"
      },
      {
        "pc_room_lat": 37.4999001041175,
        "pc_room_lon": 126.928915695415,
        "pc_room_type": "PC방",
        "pc_room_name": "어셈블",
        "distance": 398.2395529503752,
        "walking_time": "약 6분"
      },
      {
        "pc_room_lat": 37.4987738088069,
        "pc_room_lon": 126.928852981582,
        "pc_room_type": "PC방",
        "pc_room_name": "topstar PC",
        "distance": 442.6692551487116,
        "walking_time": "약 7분"
      },
      {
        "pc_room_lat": 37.4985308036648,
        "pc_room_lon": 126.928697264633,
        "pc_room_type": "PC방",
        "pc_room_name": "와우PC방",
        "distance": 445.889406523927,
        "walking_time": "약 7분"
      },
      {
        "pc_room_lat": 37.4975333042265,
        "pc_room_lon": 126.927667322196,
        "pc_room_type": "PC방",
        "pc_room_name": "NEOX PC",
        "distance": 457.9364117225017,
        "walking_time": "약 7분"
      },
      {
        "pc_room_lat": 37.4975333042265,
        "pc_room_lon": 126.927667322196,
        "pc_room_type": "PC방",
        "pc_room_name": "시즌아이PC방 신대방점",
        "distance": 457.9364117225017,
        "walking_time": "약 7분"
      },
      {
        "pc_room_lat": 37.4990136207961,
        "pc_room_lon": 126.929243360392,
        "pc_room_type": "PC방",
        "pc_room_name": "망고 PC",
        "distance": 460.1810252235956,
        "walking_time": "약 7분"
      },
      {
        "pc_room_lat": 37.4990136207961,
        "pc_room_lon": 126.929243360392,
        "pc_room_type": "PC방",
        "pc_room_name": "망고PC",
        "distance": 460.1810252235956,
        "walking_time": "약 7분"
      },
      {
        "pc_room_lat": 37.4994737677406,
        "pc_room_lon": 126.929701388226,
        "pc_room_type": "PC방",
        "pc_room_name": "콤마PC카페 신대방삼거리역점",
        "distance": 478.2911895241306,
        "walking_time": "약 8분"
      }
    ],
    "police_office": [
      {
        "police_office_lat": 37.49856527,
        "police_office_lon": 126.920574,
        "police_office_type": "경찰소",
        "police_office_name": "대방파출소",
        "distance": 432.2330578496024,
        "walking_time": "약 7분"
      },
      {
        "police_office_lat": 37.49909994,
        "police_office_lon": 126.9128049,
        "police_office_type": "경찰소",
        "police_office_name": "신풍지구대",
        "distance": 1054.359026972949,
        "walking_time": "약 16분"
      },
      {
        "police_office_lat": 37.50593298,
        "police_office_lon": 126.9362025,
        "police_office_type": "경찰소",
        "police_office_name": "상도지구대",
        "distance": 1173.6407340525575,
        "walking_time": "약 18분"
      },
      {
        "police_office_lat": 37.51297212,
        "police_office_lon": 126.9265078,
        "police_office_type": "경찰소",
        "police_office_name": "신길지구대",
        "distance": 1361.07293172429,
        "walking_time": "약 21분"
      },
      {
        "police_office_lat": 37.51114774,
        "police_office_lon": 126.9332977,
        "police_office_type": "경찰소",
        "police_office_name": "노량진지구대",
        "distance": 1382.3276303334744,
        "walking_time": "약 21분"
      }
    ],
    "post_office": [
      {
        "post_office_lat": 37.49791931,
        "post_office_lon": 126.9245212,
        "post_office_type": "우체국",
        "post_office_name": "서울동작우체국",
        "distance": 323.6687363854485,
        "walking_time": "약 5분"
      },
      {
        "post_office_lat": 37.50159201,
        "post_office_lon": 126.9205665,
        "post_office_type": "우체국",
        "post_office_name": "서울신길동우체국",
        "distance": 362.00623041200487,
        "walking_time": "약 6분"
      },
      {
        "post_office_lat": 37.49121134,
        "post_office_lon": 126.9249903,
        "post_office_type": "우체국",
        "post_office_name": "서울보라매우편취급국",
        "distance": 1070.2317910662546,
        "walking_time": "약 16분"
      },
      {
        "post_office_lat": 37.50041961,
        "post_office_lon": 126.9115445,
        "post_office_type": "우체국",
        "post_office_name": "서울신길7동우편취급국",
        "distance": 1148.7457932907794,
        "walking_time": "약 18분"
      },
      {
        "post_office_lat": 37.51150632,
        "post_office_lon": 126.9130319,
        "post_office_type": "우체국",
        "post_office_name": "서울신길2동우편취급국",
        "distance": 1562.916152842093,
        "walking_time": "약 24분"
      },
      {
        "post_office_lat": 37.51228683,
        "post_office_lon": 126.9353043,
        "post_office_type": "우체국",
        "post_office_name": "서울노량진2동우편취급국",
        "distance": 1588.0138834872112,
        "walking_time": "약 24분"
      },
      {
        "post_office_lat": 37.51913405,
        "post_office_lon": 126.9309282,
        "post_office_type": "우체국",
        "post_office_name": "서울여의대방로우편취급국",
        "distance": 2111.4952294660884,
        "walking_time": "약 32분"
      }
    ],
    "public_health_center": [
      {
        "public_health_center_lat": 37.49961665,
        "public_health_center_lon": 126.9242845,
        "public_health_center_type": "보건소",
        "public_health_center_name": "동작구보건지소",
        "distance": 137.03043540084866,
        "walking_time": "약 3분"
      }
    ],
    "school": [
      {
        "school_lat": 37.5006196717046,
        "school_lon": 126.924878133652,
        "school_type": "초등학교",
        "school_name": "서울대림초등학교",
        "distance": 36.792317281488565,
        "walking_time": "약 1분"
      },
      {
        "school_lat": 37.5019012578828,
        "school_lon": 126.922363030415,
        "school_type": "고등학교",
        "school_name": "서울공업고등학교",
        "distance": 227.19849542064568,
        "walking_time": "약 4분"
      },
      {
        "school_lat": 37.5027626308253,
        "school_lon": 126.923346619702,
        "school_type": "중학교",
        "school_name": "강남중학교",
        "distance": 239.92987271067105,
        "walking_time": "약 4분"
      },
      {
        "school_lat": 37.5052815748623,
        "school_lon": 126.926615278225,
        "school_type": "고등학교",
        "school_name": "성남고등학교",
        "distance": 527.2673881919362,
        "walking_time": "약 8분"
      },
      {
        "school_lat": 37.5052815748623,
        "school_lon": 126.926615278225,
        "school_type": "중학교",
        "school_name": "성남중학교",
        "distance": 527.2673881919362,
        "walking_time": "약 8분"
      },
      {
        "school_lat": 37.5029001208602,
        "school_lon": 126.919020182507,
        "school_type": "초등학교",
        "school_name": "서울대방초등학교",
        "distance": 539.8858856418325,
        "walking_time": "약 9분"
      },
      {
        "school_lat": 37.4958609410012,
        "school_lon": 126.922405470441,
        "school_type": "중학교",
        "school_name": "문창중학교",
        "distance": 584.2023053794966,
        "walking_time": "약 9분"
      },
      {
        "school_lat": 37.5031159857549,
        "school_lon": 126.930756309893,
        "school_type": "중학교",
        "school_name": "강현중학교",
        "distance": 603.1241055681089,
        "walking_time": "약 10분"
      },
      {
        "school_lat": 37.5020345359595,
        "school_lon": 126.915435514602,
        "school_type": "중학교",
        "school_name": "신길중학교",
        "distance": 815.6522536725042,
        "walking_time": "약 13분"
      },
      {
        "school_lat": 37.507364139341,
        "school_lon": 126.92924328346,
        "school_type": "고등학교",
        "school_name": "숭의여자고등학교",
        "distance": 835.968275790793,
        "walking_time": "약 13분"
      }
    ],
    "self_laundromat": [
      {
        "self_laundromat_lat": 37.49878935,
        "self_laundromat_lon": 126.917808,
        "self_laundromat_type": "셀프 빨래방",
        "self_laundromat_name": "이지셀프빨래방",
        "distance": 637.0830426040354,
        "walking_time": "약 10분"
      },
      {
        "self_laundromat_lat": 37.49878935,
        "self_laundromat_lon": 126.917808,
        "self_laundromat_type": "셀프 빨래방",
        "self_laundromat_name": "이지셀프빨래방",
        "distance": 637.0830426040354,
        "walking_time": "약 10분"
      },
      {
        "self_laundromat_lat": 37.51264258,
        "self_laundromat_lon": 126.9222195,
        "self_laundromat_type": "셀프 빨래방",
        "self_laundromat_name": "크린워시24셀프빨래방 신길점",
        "distance": 1329.5723893307756,
        "walking_time": "약 20분"
      },
      {
        "self_laundromat_lat": 37.51264258,
        "self_laundromat_lon": 126.9222195,
        "self_laundromat_type": "셀프 빨래방",
        "self_laundromat_name": "크린워시24셀프빨래방 신길점",
        "distance": 1329.5723893307756,
        "walking_time": "약 20분"
      },
      {
        "self_laundromat_lat": 37.51120601,
        "self_laundromat_lon": 126.9169112,
        "self_laundromat_type": "셀프 빨래방",
        "self_laundromat_name": "호텔런드리셀프빨래방",
        "distance": 1336.3845820878628,
        "walking_time": "약 20분"
      },
      {
        "self_laundromat_lat": 37.51120601,
        "self_laundromat_lon": 126.9169112,
        "self_laundromat_type": "셀프 빨래방",
        "self_laundromat_name": "호텔런드리셀프빨래방",
        "distance": 1336.3845820878628,
        "walking_time": "약 20분"
      },
      {
        "self_laundromat_lat": 37.51416086,
        "self_laundromat_lon": 126.9212659,
        "self_laundromat_type": "셀프 빨래방",
        "self_laundromat_name": "셀빨래방 신길점",
        "distance": 1510.4689851885737,
        "walking_time": "약 23분"
      },
      {
        "self_laundromat_lat": 37.51416086,
        "self_laundromat_lon": 126.9212659,
        "self_laundromat_type": "셀프 빨래방",
        "self_laundromat_name": "셀빨래방 신길점",
        "distance": 1510.4689851885737,
        "walking_time": "약 23분"
      },
      {
        "self_laundromat_lat": 37.51368016,
        "self_laundromat_lon": 126.9187163,
        "self_laundromat_type": "셀프 빨래방",
        "self_laundromat_name": "워시프렌즈 셀프빨래방 신길삼거리점",
        "distance": 1518.8911504030768,
        "walking_time": "약 23분"
      },
      {
        "self_laundromat_lat": 37.51368016,
        "self_laundromat_lon": 126.9187163,
        "self_laundromat_type": "셀프 빨래방",
        "self_laundromat_name": "워시프렌즈 셀프빨래방 신길삼거리점",
        "distance": 1518.8911504030768,
        "walking_time": "약 23분"
      }
    ],
    "subway": [
      {
        "subway_lat": 37.4997218266711,
        "subway_lon": 126.928222967016,
        "subway_type": "지하철",
        "subway_name": "7호선-신대방삼거리역",
        "distance": 346.1477717044863,
        "walking_time": "약 6분"
      },
      {
        "subway_lat": 37.499910050321,
        "subway_lon": 126.920489390309,
        "subway_type": "지하철",
        "subway_name": "7호선-보라매역",
        "distance": 373.0554716512751,
        "walking_time": "약 6분"
      },
      {
        "subway_lat": 37.5046658024741,
        "subway_lon": 126.938744364462,
        "subway_type": "지하철",
        "subway_name": "7호선-장승배기역",
        "distance": 1322.2721024725038,
        "walking_time": "약 20분"
      },
      {
        "subway_lat": 37.5176677017212,
        "subway_lon": 126.914336937521,
        "subway_type": "지하철",
        "subway_name": "5호선-신길역",
        "distance": 2077.955682196381,
        "walking_time": "약 32분"
      }
    ],
    "supermarket": [
      {
        "supermarket_lat": 37.49995131,
        "supermarket_lon": 126.9295592,
        "supermarket_type": "마트",
        "supermarket_name": "(주)이마트에브리데이 대방동점",
        "distance": 452.0351293124407,
        "walking_time": "약 7분"
      },
      {
        "supermarket_lat": 37.4999427,
        "supermarket_lon": 126.9317763,
        "supermarket_type": "마트",
        "supermarket_name": "성대종합시장",
        "distance": 644.5303941761941,
        "walking_time": "약 10분"
      },
      {
        "supermarket_lat": 37.49897519,
        "supermarket_lon": 126.9336619,
        "supermarket_type": "마트",
        "supermarket_name": "홈플러스(주) 익스프레스 상도점",
        "distance": 829.3347675140432,
        "walking_time": "약 13분"
      },
      {
        "supermarket_lat": 37.49732616,
        "supermarket_lon": 126.9130959,
        "supermarket_type": "마트",
        "supermarket_name": "홈플러스(주) 익스프레스 신길점",
        "distance": 1083.4756263303564,
        "walking_time": "약 17분"
      },
      {
        "supermarket_lat": 37.49049549,
        "supermarket_lon": 126.9249817,
        "supermarket_type": "마트",
        "supermarket_name": "롯데쇼핑(주) 관악점",
        "distance": 1149.7582049801113,
        "walking_time": "약 18분"
      },
      {
        "supermarket_lat": 37.51241243,
        "supermarket_lon": 126.9262404,
        "supermarket_type": "마트",
        "supermarket_name": "(주)홈플러스 대방점",
        "distance": 1296.44776374888,
        "walking_time": "약 20분"
      },
      {
        "supermarket_lat": 37.51115621,
        "supermarket_lon": 126.9175856,
        "supermarket_type": "마트",
        "supermarket_name": "대신시장",
        "distance": 1302.490698221921,
        "walking_time": "약 20분"
      },
      {
        "supermarket_lat": 37.50667661,
        "supermarket_lon": 126.911387,
        "supermarket_type": "마트",
        "supermarket_name": "GS THE FRESH 신길사러가점",
        "distance": 1331.2242407520707,
        "walking_time": "약 20분"
      },
      {
        "supermarket_lat": 37.51412159,
        "supermarket_lon": 126.918361,
        "supermarket_type": "마트",
        "supermarket_name": "홈플러스(주) 익스프레스 신길2점",
        "distance": 1575.7475432811298,
        "walking_time": "약 24분"
      },
      {
        "supermarket_lat": 37.51811729,
        "supermarket_lon": 126.925196,
        "supermarket_type": "마트",
        "supermarket_name": "(주)이마트 여의도점",
        "distance": 1923.087170469956,
        "walking_time": "약 29분"
      }
    ],
    "tax_office": [
      {
        "tax_office_lat": 37.49908057,
        "tax_office_lon": 126.9198001,
        "tax_office_type": "세무서",
        "tax_office_name": "동작세무서",
        "distance": 462.4678233675345,
        "walking_time": "약 7분"
      }
    ]
  }
}