{
  "클러스터_위도": 37.55533599999997,
  "클러스터_경도": 126.858617,
  "클러스터_level": 4.0,
  "facilities": {
    "bus": [
      {
        "bus_lat": 37.55484521,
        "bus_lon": 126.8560334,
        "bus_type": "버스정류장",
        "bus_name": "강서대학교.강서LG베스트샵",
        "distance": 234.19603586929307,
        "walking_time": "약 4분"
      },
      {
        "bus_lat": 37.55453407,
        "bus_lon": 126.8557935,
        "bus_type": "버스정류장",
        "bus_name": "하이웨이주유소.강서대학교",
        "distance": 264.3881269902887,
        "walking_time": "약 4분"
      },
      {
        "bus_lat": 37.55488738,
        "bus_lon": 126.8555268,
        "bus_type": "버스정류장",
        "bus_name": "강서구청사거리.서울디지털대학교",
        "distance": 276.9362794481369,
        "walking_time": "약 5분"
      },
      {
        "bus_lat": 37.55295219,
        "bus_lon": 126.8601041,
        "bus_type": "버스정류장",
        "bus_name": "등촌중학교.한국임업진흥원",
        "distance": 295.71263778692133,
        "walking_time": "약 5분"
      },
      {
        "bus_lat": 37.55290522,
        "bus_lon": 126.8606811,
        "bus_type": "버스정류장",
        "bus_name": "등촌중학교.백석초등학교",
        "distance": 325.8297478361257,
        "walking_time": "약 5분"
      },
      {
        "bus_lat": 37.55661729,
        "bus_lon": 126.8550856,
        "bus_type": "버스정류장",
        "bus_name": "등촌현대아파트",
        "distance": 342.34972952078846,
        "walking_time": "약 6분"
      },
      {
        "bus_lat": 37.55723078,
        "bus_lon": 126.8617195,
        "bus_type": "버스정류장",
        "bus_name": "증미역3번출구.강서소방서",
        "distance": 345.2318814992767,
        "walking_time": "약 6분"
      },
      {
        "bus_lat": 37.55786325,
        "bus_lon": 126.8614346,
        "bus_type": "버스정류장",
        "bus_name": "증미역1번출구.강서소방서",
        "distance": 375.0454315785724,
        "walking_time": "약 6분"
      },
      {
        "bus_lat": 37.55862474,
        "bus_lon": 126.8571485,
        "bus_type": "버스정류장",
        "bus_name": "등촌강변샤르망오피스텔",
        "distance": 387.9261829609845,
        "walking_time": "약 6분"
      },
      {
        "bus_lat": 37.55262621,
        "bus_lon": 126.8614386,
        "bus_type": "버스정류장",
        "bus_name": "등촌중학교.백석초등학교",
        "distance": 390.715499220204,
        "walking_time": "약 6분"
      }
    ],
    "community_center": [
      {
        "community_center_lat": 37.55582869,
        "community_center_lon": 126.8589098,
        "community_center_type": "주민센터",
        "community_center_name": "등촌1동 자치회관",
        "distance": 60.56026447333048,
        "walking_time": "약 1분"
      },
      {
        "community_center_lat": 37.56108697,
        "community_center_lon": 126.8605577,
        "community_center_type": "주민센터",
        "community_center_name": "가양3동 자치회관",
        "distance": 661.9649278171005,
        "walking_time": "약 10분"
      },
      {
        "community_center_lat": 37.55181666,
        "community_center_lon": 126.8500765,
        "community_center_type": "주민센터",
        "community_center_name": "화곡6동 자치회관",
        "distance": 848.5060030813044,
        "walking_time": "약 13분"
      },
      {
        "community_center_lat": 37.55888771,
        "community_center_lon": 126.8479185,
        "community_center_type": "주민센터",
        "community_center_name": "등촌3동 자치회관",
        "distance": 1022.4209044339802,
        "walking_time": "약 16분"
      },
      {
        "community_center_lat": 37.54474118,
        "community_center_lon": 126.8644362,
        "community_center_type": "주민센터",
        "community_center_name": "목3동 자치회관",
        "distance": 1284.9409186652977,
        "walking_time": "약 20분"
      },
      {
        "community_center_lat": 37.54265827,
        "community_center_lon": 126.8625035,
        "community_center_type": "주민센터",
        "community_center_name": "등촌2동 자치회관",
        "distance": 1450.740204061294,
        "walking_time": "약 22분"
      },
      {
        "community_center_lat": 37.56739892,
        "community_center_lon": 126.8512712,
        "community_center_type": "주민센터",
        "community_center_name": "가양2동 자치회관",
        "distance": 1489.437774397681,
        "walking_time": "약 23분"
      },
      {
        "community_center_lat": 37.54404823,
        "community_center_lon": 126.8476634,
        "community_center_type": "주민센터",
        "community_center_name": "화곡본동 자치회관",
        "distance": 1583.6227508844504,
        "walking_time": "약 24분"
      },
      {
        "community_center_lat": 37.54828859,
        "community_center_lon": 126.8418363,
        "community_center_type": "주민센터",
        "community_center_name": "우장산동 자치회관",
        "distance": 1674.052750161238,
        "walking_time": "약 25분"
      },
      {
        "community_center_lat": 37.56948816,
        "community_center_lon": 126.8447046,
        "community_center_type": "주민센터",
        "community_center_name": "가양1동 자치회관",
        "distance": 1995.027870881032,
        "walking_time": "약 30분"
      }
    ],
    "convenience_store": [
      {
        "convenience_store_lat": 37.55456253,
        "convenience_store_lon": 126.8599759,
        "convenience_store_type": "편의점",
        "convenience_store_name": "CU 등촌아름점",
        "distance": 147.46720412674438,
        "walking_time": "약 3분"
      },
      {
        "convenience_store_lat": 37.55499062,
        "convenience_store_lon": 126.8612166,
        "convenience_store_type": "편의점",
        "convenience_store_name": "GS25 등촌으뜸점",
        "distance": 232.3548388774196,
        "walking_time": "약 4분"
      },
      {
        "convenience_store_lat": 37.55753932,
        "convenience_store_lon": 126.8583018,
        "convenience_store_type": "편의점",
        "convenience_store_name": "GS25 강서IT밸리점",
        "distance": 246.56849951677407,
        "walking_time": "약 4분"
      },
      {
        "convenience_store_lat": 37.55680928,
        "convenience_store_lon": 126.8558082,
        "convenience_store_type": "편의점",
        "convenience_store_name": "미니스톱 등촌청림점",
        "distance": 296.88693198141823,
        "walking_time": "약 5분"
      },
      {
        "convenience_store_lat": 37.55708683,
        "convenience_store_lon": 126.8613313,
        "convenience_store_type": "편의점",
        "convenience_store_name": "CU 등촌두산점",
        "distance": 308.4642121023668,
        "walking_time": "약 5분"
      },
      {
        "convenience_store_lat": 37.55780286,
        "convenience_store_lon": 126.8607284,
        "convenience_store_type": "편의점",
        "convenience_store_name": "GS25 강서메디칼점",
        "distance": 331.48510425378515,
        "walking_time": "약 5분"
      },
      {
        "convenience_store_lat": 37.55771941,
        "convenience_store_lon": 126.8612469,
        "convenience_store_type": "편의점",
        "convenience_store_name": "CU 908증미역점",
        "distance": 352.1085632691573,
        "walking_time": "약 6분"
      },
      {
        "convenience_store_lat": 37.55606352,
        "convenience_store_lon": 126.8536778,
        "convenience_store_type": "편의점",
        "convenience_store_name": "GS25 강서메트로칸점",
        "distance": 442.8470420983933,
        "walking_time": "약 7분"
      },
      {
        "convenience_store_lat": 37.55910956,
        "convenience_store_lon": 126.8609412,
        "convenience_store_type": "편의점",
        "convenience_store_name": "미니스톱 비즈메트로점",
        "distance": 466.94658618256045,
        "walking_time": "약 7분"
      },
      {
        "convenience_store_lat": 37.55388983,
        "convenience_store_lon": 126.8638197,
        "convenience_store_type": "편의점",
        "convenience_store_name": "CU 등촌심미점",
        "distance": 486.0044134773993,
        "walking_time": "약 8분"
      }
    ],
    "daycare": [
      {
        "daycare_lat": 37.55553902943831,
        "daycare_lon": 126.85906734381064,
        "daycare_type": "어린이집",
        "daycare_name": "등촌제일어린이집",
        "distance": 45.66872143576582,
        "walking_time": "약 1분"
      },
      {
        "daycare_lat": 37.55552914956112,
        "daycare_lon": 126.85909339229742,
        "daycare_type": "어린이집",
        "daycare_name": "등촌제일어린이집",
        "distance": 47.16799964650036,
        "walking_time": "약 1분"
      },
      {
        "daycare_lat": 37.55698814757196,
        "daycare_lon": 126.85933170908925,
        "daycare_type": "어린이집",
        "daycare_name": "지니어스어린이집",
        "distance": 194.21319806695607,
        "walking_time": "약 3분"
      },
      {
        "daycare_lat": 37.5571658,
        "daycare_lon": 126.8601347,
        "daycare_type": "어린이집",
        "daycare_name": "성민가정어린이집",
        "distance": 243.50859717348067,
        "walking_time": "약 4분"
      },
      {
        "daycare_lat": 37.55718774,
        "daycare_lon": 126.8601325,
        "daycare_type": "어린이집",
        "daycare_name": "꽃그네어린이집",
        "distance": 245.44506771823657,
        "walking_time": "약 4분"
      },
      {
        "daycare_lat": 37.55622939,
        "daycare_lon": 126.8557897,
        "daycare_type": "어린이집",
        "daycare_name": "행복한어린이집",
        "distance": 268.29771901503455,
        "walking_time": "약 5분"
      },
      {
        "daycare_lat": 37.556075502769495,
        "daycare_lon": 126.85565299907712,
        "daycare_type": "어린이집",
        "daycare_name": "귀염둥이어린이집",
        "distance": 273.9136234022333,
        "walking_time": "약 5분"
      },
      {
        "daycare_lat": 37.55768754323786,
        "daycare_lon": 126.85763783742568,
        "daycare_type": "어린이집",
        "daycare_name": "구립 밤비어린이집",
        "distance": 275.3572171462896,
        "walking_time": "약 5분"
      },
      {
        "daycare_lat": 37.55452391,
        "daycare_lon": 126.8615866,
        "daycare_type": "어린이집",
        "daycare_name": "별빛어린이집",
        "distance": 276.9129843436559,
        "walking_time": "약 5분"
      },
      {
        "daycare_lat": 37.55769202,
        "daycare_lon": 126.8570259,
        "daycare_type": "어린이집",
        "daycare_name": "밤비어린이집",
        "distance": 297.15957968772085,
        "walking_time": "약 5분"
      }
    ],
    "education": [
      {
        "education_lat": 37.55362014,
        "education_lon": 126.8507501,
        "education_type": "박물관/기념관",
        "education_name": "기생충박물관",
        "distance": 719.2540569903698,
        "walking_time": "약 11분"
      },
      {
        "education_lat": 37.54790302,
        "education_lon": 126.8599277,
        "education_type": "도서관",
        "education_name": "서울특별시교육청 강서도서관",
        "distance": 834.5472275672262,
        "walking_time": "약 13분"
      },
      {
        "education_lat": 37.55797384,
        "education_lon": 126.8491891,
        "education_type": "공연장",
        "education_name": "스카이아트홀",
        "distance": 881.3103535735123,
        "walking_time": "약 14분"
      },
      {
        "education_lat": 37.56787245,
        "education_lon": 126.8510312,
        "education_type": "박물관/기념관",
        "education_name": "허준박물관",
        "distance": 1546.0564630008191,
        "walking_time": "약 24분"
      }
    ],
    "electric_gas_station": [
      {
        "electric_gas_station_lat": 37.56426405,
        "electric_gas_station_lon": 126.8499602,
        "electric_gas_station_type": "전기차 충전소",
        "electric_gas_station_name": "홈플러스 가양점",
        "distance": 1252.1287966317354,
        "walking_time": "약 19분"
      }
    ],
    "fitness": [
      {
        "fitness_lat": 37.55661672,
        "fitness_lon": 126.8574207,
        "fitness_type": "운동시설",
        "fitness_name": "무궁화체육관",
        "distance": 177.20376023966676,
        "walking_time": "약 3분"
      },
      {
        "fitness_lat": 37.55698878,
        "fitness_lon": 126.8593316,
        "fitness_type": "운동시설",
        "fitness_name": "S 메디스포",
        "distance": 194.2766009581672,
        "walking_time": "약 3분"
      },
      {
        "fitness_lat": 37.55667868,
        "fitness_lon": 126.8569548,
        "fitness_type": "운동시설",
        "fitness_name": "크로스핏 코알라",
        "distance": 209.1878117630405,
        "walking_time": "약 4분"
      },
      {
        "fitness_lat": 37.55512541,
        "fitness_lon": 126.8616023,
        "fitness_type": "운동시설",
        "fitness_name": "클라이짐",
        "distance": 264.1986711671905,
        "walking_time": "약 4분"
      },
      {
        "fitness_lat": 37.55607686,
        "fitness_lon": 126.8556547,
        "fitness_type": "운동시설",
        "fitness_name": "워싱턴짐",
        "distance": 273.8159693578895,
        "walking_time": "약 5분"
      },
      {
        "fitness_lat": 37.55680928,
        "fitness_lon": 126.8558082,
        "fitness_type": "운동시설",
        "fitness_name": "짐박스피트니스 가양점",
        "distance": 296.88693198141823,
        "walking_time": "약 5분"
      },
      {
        "fitness_lat": 37.557869,
        "fitness_lon": 126.8560012,
        "fitness_type": "운동시설",
        "fitness_name": "브리티시 클럽",
        "distance": 364.0039552503648,
        "walking_time": "약 6분"
      },
      {
        "fitness_lat": 37.55629256,
        "fitness_lon": 126.8545567,
        "fitness_type": "운동시설",
        "fitness_name": "여성전용헬스장 A",
        "distance": 373.3891622977314,
        "walking_time": "약 6분"
      },
      {
        "fitness_lat": 37.55483191,
        "fitness_lon": 126.8542297,
        "fitness_type": "운동시설",
        "fitness_name": "바디플렉스짐 강서구청 4거리점",
        "distance": 390.788940438113,
        "walking_time": "약 6분"
      },
      {
        "fitness_lat": 37.55505202,
        "fitness_lon": 126.863576,
        "fitness_type": "운동시설",
        "fitness_name": "좋은습관 PT STUDIO 등촌",
        "distance": 438.2828760384322,
        "walking_time": "약 7분"
      }
    ],
    "gas_station": [
      {
        "gas_station_lat": 37.55453989,
        "gas_station_lon": 126.8549516,
        "gas_station_type": "주유소",
        "gas_station_name": "하이웨이주유소",
        "distance": 335.019084941896,
        "walking_time": "약 6분"
      },
      {
        "gas_station_lat": 37.55672447,
        "gas_station_lon": 126.8627359,
        "gas_station_type": "주유소",
        "gas_station_name": "청룡주유소",
        "distance": 394.5456150622754,
        "walking_time": "약 6분"
      },
      {
        "gas_station_lat": 37.54873508,
        "gas_station_lon": 126.8629888,
        "gas_station_type": "주유소",
        "gas_station_name": "강서열린점",
        "distance": 829.018016010219,
        "walking_time": "약 13분"
      },
      {
        "gas_station_lat": 37.54685982,
        "gas_station_lon": 126.8625146,
        "gas_station_type": "주유소",
        "gas_station_name": "등촌주유소",
        "distance": 1003.1857999138028,
        "walking_time": "약 15분"
      },
      {
        "gas_station_lat": 37.54927915,
        "gas_station_lon": 126.8469649,
        "gas_station_type": "주유소",
        "gas_station_name": "현대오일뱅크㈜직영강서제일셀프주유소",
        "distance": 1228.2963676632032,
        "walking_time": "약 19분"
      },
      {
        "gas_station_lat": 37.55784243,
        "gas_station_lon": 126.8423952,
        "gas_station_type": "주유소",
        "gas_station_name": "대성석유㈜관문주유소",
        "distance": 1456.8579942301849,
        "walking_time": "약 22분"
      },
      {
        "gas_station_lat": 37.56749923,
        "gas_station_lon": 126.8503017,
        "gas_station_type": "주유소",
        "gas_station_name": "박물관주유소",
        "distance": 1538.3229441049857,
        "walking_time": "약 23분"
      },
      {
        "gas_station_lat": 37.56644179,
        "gas_station_lon": 126.8458593,
        "gas_station_type": "주유소",
        "gas_station_name": "현대오일뱅크(주)직영가양주유소",
        "distance": 1670.1961335665978,
        "walking_time": "약 25분"
      },
      {
        "gas_station_lat": 37.5662431,
        "gas_station_lon": 126.8404213,
        "gas_station_type": "주유소",
        "gas_station_name": "마곡대성주유소",
        "distance": 2010.792113477436,
        "walking_time": "약 31분"
      },
      {
        "gas_station_lat": 37.56746982,
        "gas_station_lon": 126.841439,
        "gas_station_type": "주유소",
        "gas_station_name": "대성주유소",
        "distance": 2028.058042191604,
        "walking_time": "약 31분"
      }
    ],
    "hospital": [
      {
        "hospital_lat": 37.55698878,
        "hospital_lon": 126.8593316,
        "hospital_type": "병원",
        "hospital_name": "행복한의원",
        "distance": 194.2766009581672,
        "walking_time": "약 3분"
      },
      {
        "hospital_lat": 37.55495408,
        "hospital_lon": 126.8559147,
        "hospital_type": "병원",
        "hospital_name": "굿모닝의원",
        "distance": 241.9681403203834,
        "walking_time": "약 4분"
      },
      {
        "hospital_lat": 37.55495408,
        "hospital_lon": 126.8559147,
        "hospital_type": "병원",
        "hospital_name": "운산한의원",
        "distance": 241.9681403203834,
        "walking_time": "약 4분"
      },
      {
        "hospital_lat": 37.55465374,
        "hospital_lon": 126.8612962,
        "hospital_type": "병원",
        "hospital_name": "경희돌고래한의원",
        "distance": 248.0617601418953,
        "walking_time": "약 4분"
      },
      {
        "hospital_lat": 37.55680928,
        "hospital_lon": 126.8558082,
        "hospital_type": "병원",
        "hospital_name": "연세두리치과의원",
        "distance": 296.88693198141823,
        "walking_time": "약 5분"
      },
      {
        "hospital_lat": 37.55680928,
        "hospital_lon": 126.8558082,
        "hospital_type": "병원",
        "hospital_name": "효선재한의원",
        "distance": 296.88693198141823,
        "walking_time": "약 5분"
      },
      {
        "hospital_lat": 37.55708683,
        "hospital_lon": 126.8613313,
        "hospital_type": "병원",
        "hospital_name": "성모안과의원",
        "distance": 308.4642121023668,
        "walking_time": "약 5분"
      },
      {
        "hospital_lat": 37.55708683,
        "hospital_lon": 126.8613313,
        "hospital_type": "병원",
        "hospital_name": "미래아이소아청소년과안과의원",
        "distance": 308.4642121023668,
        "walking_time": "약 5분"
      },
      {
        "hospital_lat": 37.55708683,
        "hospital_lon": 126.8613313,
        "hospital_type": "병원",
        "hospital_name": "연세이튼치과의원",
        "distance": 308.4642121023668,
        "walking_time": "약 5분"
      },
      {
        "hospital_lat": 37.55780286,
        "hospital_lon": 126.8607284,
        "hospital_type": "병원",
        "hospital_name": "유일치과의원",
        "distance": 331.48510425378515,
        "walking_time": "약 5분"
      }
    ],
    "music_room": [
      {
        "music_room_lat": 37.55653745,
        "music_room_lon": 126.8607557,
        "music_room_type": "노래방",
        "music_room_name": "굿 노래연습장",
        "distance": 231.06376586232807,
        "walking_time": "약 4분"
      },
      {
        "music_room_lat": 37.55758946,
        "music_room_lon": 126.8590939,
        "music_room_type": "노래방",
        "music_room_name": "엔젤스코인노래연습장 증미역점",
        "distance": 254.0752807983379,
        "walking_time": "약 4분"
      },
      {
        "music_room_lat": 37.55621949,
        "music_room_lon": 126.8552921,
        "music_room_type": "노래방",
        "music_room_name": "청춘노래연습장",
        "distance": 309.11896862943894,
        "walking_time": "약 5분"
      },
      {
        "music_room_lat": 37.55635757,
        "music_room_lon": 126.8552567,
        "music_room_type": "노래방",
        "music_room_name": "K노래연습장",
        "distance": 317.2471768970768,
        "walking_time": "약 5분"
      },
      {
        "music_room_lat": 37.55796271,
        "music_room_lon": 126.8569695,
        "music_room_type": "노래방",
        "music_room_name": "오르노래연습장",
        "distance": 326.18973030941027,
        "walking_time": "약 5분"
      },
      {
        "music_room_lat": 37.55556748,
        "music_room_lon": 126.8543717,
        "music_room_type": "노래방",
        "music_room_name": "야후노래연습장",
        "distance": 375.1128991495683,
        "walking_time": "약 6분"
      },
      {
        "music_room_lat": 37.55375657,
        "music_room_lon": 126.8632662,
        "music_room_type": "노래방",
        "music_room_name": "스타노래연습장",
        "distance": 445.8825387023638,
        "walking_time": "약 7분"
      },
      {
        "music_room_lat": 37.55437944,
        "music_room_lon": 126.8532197,
        "music_room_type": "노래방",
        "music_room_name": "인디아나노래연습장",
        "distance": 487.5272027712989,
        "walking_time": "약 8분"
      },
      {
        "music_room_lat": 37.55302101,
        "music_room_lon": 126.8638296,
        "music_room_type": "노래방",
        "music_room_name": "난노래연습장",
        "distance": 526.6951231043046,
        "walking_time": "약 8분"
      },
      {
        "music_room_lat": 37.55423914,
        "music_room_lon": 126.8527048,
        "music_room_type": "노래방",
        "music_room_name": "땡큐노래연습장",
        "distance": 535.2538188280159,
        "walking_time": "약 8분"
      }
    ],
    "park": [
      {
        "park_lat": 37.5575833,
        "park_lon": 126.86115,
        "park_type": "공원",
        "park_name": "매화근린공원",
        "distance": 335.1119964750062,
        "walking_time": "약 6분"
      },
      {
        "park_lat": 37.5579702,
        "park_lon": 126.8689817,
        "park_type": "공원",
        "park_name": "염창근린공원",
        "distance": 959.4515342310812,
        "walking_time": "약 15분"
      },
      {
        "park_lat": 37.5541932,
        "park_lon": 126.844932,
        "park_type": "공원",
        "park_name": "우장산근린공원",
        "distance": 1213.036095107631,
        "walking_time": "약 19분"
      },
      {
        "park_lat": 37.5679874,
        "park_lon": 126.8526745,
        "park_type": "공원",
        "park_name": "허준공원",
        "distance": 1501.1221740917806,
        "walking_time": "약 23분"
      },
      {
        "park_lat": 37.5421979,
        "park_lon": 126.8517836,
        "park_type": "공원",
        "park_name": "봉제산공원",
        "distance": 1580.2273015007995,
        "walking_time": "약 24분"
      }
    ],
    "park_station": [
      {
        "park_station_lat": 37.55415488,
        "park_station_lon": 126.8524742,
        "park_station_type": "주차장",
        "park_station_name": "화곡6동 방죽길",
        "distance": 557.2002458077977,
        "walking_time": "약 9분"
      },
      {
        "park_station_lat": 37.56032974,
        "park_station_lon": 126.8597643,
        "park_station_type": "주차장",
        "park_station_name": "가양3동 공영주차장",
        "distance": 564.4130654111973,
        "walking_time": "약 9분"
      },
      {
        "park_station_lat": 37.54980803,
        "park_station_lon": 126.8613309,
        "park_station_type": "주차장",
        "park_station_name": "등촌 2-1 공영주차장",
        "distance": 659.5994896780368,
        "walking_time": "약 10분"
      },
      {
        "park_station_lat": 37.56322912,
        "park_station_lon": 126.8592941,
        "park_station_type": "주차장",
        "park_station_name": "가양3동 황금내공원길",
        "distance": 879.7018989392403,
        "walking_time": "약 14분"
      },
      {
        "park_station_lat": 37.54825802,
        "park_station_lon": 126.8637044,
        "park_station_type": "주차장",
        "park_station_name": "깨비시장 고객주차장",
        "distance": 905.8486681707128,
        "walking_time": "약 14분"
      },
      {
        "park_station_lat": 37.5530332,
        "park_station_lon": 126.8484633,
        "park_station_type": "주차장",
        "park_station_name": "화곡6-1 공영주차장",
        "distance": 930.9832195446714,
        "walking_time": "약 14분"
      },
      {
        "park_station_lat": 37.54877408,
        "park_station_lon": 126.8662003,
        "park_station_type": "주차장",
        "park_station_name": "한두공영주차장",
        "distance": 989.593715201947,
        "walking_time": "약 15분"
      },
      {
        "park_station_lat": 37.56331723,
        "park_station_lon": 126.8530729,
        "park_station_type": "주차장",
        "park_station_name": "영보빌딩 공영주차장",
        "distance": 1013.1283987895292,
        "walking_time": "약 16분"
      },
      {
        "park_station_lat": 37.55983847,
        "park_station_lon": 126.8470287,
        "park_station_type": "주차장",
        "park_station_name": "등촌3동 꿈나무길",
        "distance": 1137.5866664271923,
        "walking_time": "약 17분"
      },
      {
        "park_station_lat": 37.55997909,
        "park_station_lon": 126.8463836,
        "park_station_type": "주차장",
        "park_station_name": "구암길",
        "distance": 1195.5793875577822,
        "walking_time": "약 18분"
      }
    ],
    "pc_room": [
      {
        "pc_room_lat": 37.5568092839784,
        "pc_room_lon": 126.855808218309,
        "pc_room_type": "PC방",
        "pc_room_name": "아쿠아PC방",
        "distance": 296.8858300838958,
        "walking_time": "약 5분"
      },
      {
        "pc_room_lat": 37.5579627106862,
        "pc_room_lon": 126.856969456017,
        "pc_room_type": "PC방",
        "pc_room_name": "텐지 피시방",
        "distance": 326.1915248194903,
        "walking_time": "약 5분"
      },
      {
        "pc_room_lat": 37.5558519610316,
        "pc_room_lon": 126.854621284509,
        "pc_room_type": "PC방",
        "pc_room_name": "명품PC",
        "distance": 356.86882616607454,
        "walking_time": "약 6분"
      },
      {
        "pc_room_lat": 37.5578690013942,
        "pc_room_lon": 126.856001180153,
        "pc_room_type": "PC방",
        "pc_room_name": "긱스타 피씨 카페",
        "distance": 364.00518345734383,
        "walking_time": "약 6분"
      },
      {
        "pc_room_lat": 37.5578690013942,
        "pc_room_lon": 126.856001180153,
        "pc_room_type": "PC방",
        "pc_room_name": "열정분식소X브리즈",
        "distance": 364.00518345734383,
        "walking_time": "약 6분"
      },
      {
        "pc_room_lat": 37.5541504250601,
        "pc_room_lon": 126.853888750093,
        "pc_room_type": "PC방",
        "pc_room_name": "대박PC게임장",
        "distance": 437.156570981381,
        "walking_time": "약 7분"
      },
      {
        "pc_room_lat": 37.5571161918617,
        "pc_room_lon": 126.864347419732,
        "pc_room_type": "PC방",
        "pc_room_name": "제나두PC 강서본점",
        "distance": 542.5391319424301,
        "walking_time": "약 9분"
      },
      {
        "pc_room_lat": 37.5534212395905,
        "pc_room_lon": 126.85228881538,
        "pc_room_type": "PC방",
        "pc_room_name": "강구PC",
        "distance": 597.0957372597496,
        "walking_time": "약 9분"
      },
      {
        "pc_room_lat": 37.5530401310881,
        "pc_room_lon": 126.851939760258,
        "pc_room_type": "PC방",
        "pc_room_name": "탑피시",
        "distance": 641.594060392851,
        "walking_time": "약 10분"
      },
      {
        "pc_room_lat": 37.5527995459334,
        "pc_room_lon": 126.85185286954,
        "pc_room_type": "PC방",
        "pc_room_name": "제로백PC강서구청점",
        "distance": 659.6169658018697,
        "walking_time": "약 10분"
      }
    ],
    "police_office": [
      {
        "police_office_lat": 37.55924913,
        "police_office_lon": 126.8501226,
        "police_office_type": "경찰소",
        "police_office_name": "가양지구대",
        "distance": 866.0208495742914,
        "walking_time": "약 13분"
      },
      {
        "police_office_lat": 37.55155817,
        "police_office_lon": 126.8496564,
        "police_office_type": "경찰소",
        "police_office_name": "화곡지구대",
        "distance": 894.662561877089,
        "walking_time": "약 14분"
      },
      {
        "police_office_lat": 37.54480866,
        "police_office_lon": 126.8618692,
        "police_office_type": "경찰소",
        "police_office_name": "등촌2파출소",
        "distance": 1205.1862964339134,
        "walking_time": "약 18분"
      },
      {
        "police_office_lat": 37.54452741,
        "police_office_lon": 126.8623644,
        "police_office_type": "경찰소",
        "police_office_name": "목2지구대",
        "distance": 1246.4380710126643,
        "walking_time": "약 19분"
      }
    ],
    "post_office": [
      {
        "post_office_lat": 37.55711619,
        "post_office_lon": 126.8643474,
        "post_office_type": "우체국",
        "post_office_name": "우림블루나인우편취급국",
        "distance": 542.5374369406618,
        "walking_time": "약 9분"
      },
      {
        "post_office_lat": 37.55050351,
        "post_office_lon": 126.8649021,
        "post_office_type": "우체국",
        "post_office_name": "서울목동동신우편취급국",
        "distance": 771.8317477188206,
        "walking_time": "약 12분"
      },
      {
        "post_office_lat": 37.55883564,
        "post_office_lon": 126.8482043,
        "post_office_type": "우체국",
        "post_office_name": "서울등촌동우체국",
        "distance": 996.956662331749,
        "walking_time": "약 15분"
      },
      {
        "post_office_lat": 37.55081092,
        "post_office_lon": 126.8473658,
        "post_office_type": "우체국",
        "post_office_name": "서울화곡본동우편취급국",
        "distance": 1112.1699291034909,
        "walking_time": "약 17분"
      },
      {
        "post_office_lat": 37.56723304,
        "post_office_lon": 126.8515566,
        "post_office_type": "우체국",
        "post_office_name": "서울가양동우체국",
        "distance": 1461.964383869182,
        "walking_time": "약 22분"
      },
      {
        "post_office_lat": 37.54400643,
        "post_office_lon": 126.8456597,
        "post_office_type": "우체국",
        "post_office_name": "화곡우체국",
        "distance": 1700.559525975442,
        "walking_time": "약 26분"
      },
      {
        "post_office_lat": 37.54125752,
        "post_office_lon": 126.8691165,
        "post_office_type": "우체국",
        "post_office_name": "서울목2동우편취급국",
        "distance": 1818.6392071065327,
        "walking_time": "약 28분"
      },
      {
        "post_office_lat": 37.56522555,
        "post_office_lon": 126.8409115,
        "post_office_type": "우체국",
        "post_office_name": "서울강서우체국",
        "distance": 1909.171245153169,
        "walking_time": "약 29분"
      },
      {
        "post_office_lat": 37.54304361,
        "post_office_lon": 126.840025,
        "post_office_type": "우체국",
        "post_office_name": "서울화곡5동우편취급국",
        "distance": 2134.18778576103,
        "walking_time": "약 32분"
      }
    ],
    "public_health_center": [
      {
        "public_health_center_lat": 37.5496484,
        "public_health_center_lon": 126.8682802,
        "public_health_center_type": "보건소",
        "public_health_center_name": "강서구보건소",
        "distance": 1060.9580225521102,
        "walking_time": "약 16분"
      },
      {
        "public_health_center_lat": 37.54008815,
        "public_health_center_lon": 126.8669731,
        "public_health_center_type": "보건소",
        "public_health_center_name": "목동보건지소",
        "distance": 1848.6098845048543,
        "walking_time": "약 28분"
      }
    ],
    "school": [
      {
        "school_lat": 37.5524822120704,
        "school_lon": 126.859214787423,
        "school_type": "중학교",
        "school_name": "등촌중학교",
        "distance": 321.67252945179814,
        "walking_time": "약 5분"
      },
      {
        "school_lat": 37.5536476529209,
        "school_lon": 126.862425846537,
        "school_type": "초등학교",
        "school_name": "서울백석초등학교",
        "distance": 384.6802193276006,
        "walking_time": "약 6분"
      },
      {
        "school_lat": 37.5518843920056,
        "school_lon": 126.855038093326,
        "school_type": "초등학교",
        "school_name": "서울등서초등학교",
        "distance": 496.82928960840746,
        "walking_time": "약 8분"
      },
      {
        "school_lat": 37.5580972589988,
        "school_lon": 126.852670273321,
        "school_type": "고등학교",
        "school_name": "경복비즈니스고등학교",
        "distance": 607.5038857809149,
        "walking_time": "약 10분"
      },
      {
        "school_lat": 37.5612418553699,
        "school_lon": 126.857763950485,
        "school_type": "중학교",
        "school_name": "경서중학교",
        "distance": 660.9921558141162,
        "walking_time": "약 10분"
      },
      {
        "school_lat": 37.5604306618095,
        "school_lon": 126.863621128106,
        "school_type": "고등학교",
        "school_name": "세현고등학교",
        "distance": 717.9814973719318,
        "walking_time": "약 11분"
      },
      {
        "school_lat": 37.5600277060889,
        "school_lon": 126.85286487714,
        "school_type": "고등학교",
        "school_name": "마포고등학교",
        "distance": 727.4999211290116,
        "walking_time": "약 11분"
      },
      {
        "school_lat": 37.5600277060889,
        "school_lon": 126.85286487714,
        "school_type": "중학교",
        "school_name": "마포중학교",
        "distance": 727.4999211290116,
        "walking_time": "약 11분"
      },
      {
        "school_lat": 37.560801806853,
        "school_lon": 126.853779444824,
        "school_type": "초등학교",
        "school_name": "유석초등학교",
        "distance": 742.4418945622504,
        "walking_time": "약 12분"
      },
      {
        "school_lat": 37.5578218303652,
        "school_lon": 126.850595718037,
        "school_type": "고등학교",
        "school_name": "경복여자고등학교",
        "distance": 759.1835630889681,
        "walking_time": "약 12분"
      }
    ],
    "self_laundromat": [
      {
        "self_laundromat_lat": 37.54273046,
        "self_laundromat_lon": 126.8631374,
        "self_laundromat_type": "셀프 빨래방",
        "self_laundromat_name": "코런24시셀프빨래방",
        "distance": 1457.2225916222678,
        "walking_time": "약 22분"
      },
      {
        "self_laundromat_lat": 37.54273046,
        "self_laundromat_lon": 126.8631374,
        "self_laundromat_type": "셀프 빨래방",
        "self_laundromat_name": "코런24시셀프빨래방",
        "distance": 1457.2225916222678,
        "walking_time": "약 22분"
      },
      {
        "self_laundromat_lat": 37.54181633,
        "self_laundromat_lon": 126.8689593,
        "self_laundromat_type": "셀프 빨래방",
        "self_laundromat_name": "더런드리셀프빨래방 목동점",
        "distance": 1758.2076912699465,
        "walking_time": "약 27분"
      },
      {
        "self_laundromat_lat": 37.54181633,
        "self_laundromat_lon": 126.8689593,
        "self_laundromat_type": "셀프 빨래방",
        "self_laundromat_name": "더런드리셀프빨래방 목동점",
        "distance": 1758.2076912699465,
        "walking_time": "약 27분"
      }
    ],
    "subway": [
      {
        "subway_lat": 37.5414336176977,
        "subway_lon": 126.840496450153,
        "subway_type": "지하철",
        "subway_name": "5호선-화곡역",
        "distance": 2223.002319512061,
        "walking_time": "약 34분"
      }
    ],
    "supermarket": [
      {
        "supermarket_lat": 37.55846996,
        "supermarket_lon": 126.854819,
        "supermarket_type": "마트",
        "supermarket_name": "홈플러스(주) 강서점",
        "distance": 483.2436438912139,
        "walking_time": "약 8분"
      },
      {
        "supermarket_lat": 37.55504777,
        "supermarket_lon": 126.8675197,
        "supermarket_type": "마트",
        "supermarket_name": "GS THE FRESH 강서증미역점",
        "distance": 785.441588972044,
        "walking_time": "약 12분"
      },
      {
        "supermarket_lat": 37.56160018,
        "supermarket_lon": 126.853272,
        "supermarket_type": "마트",
        "supermarket_name": "(주)이마트에브리데이 가양역점",
        "distance": 840.9262867530991,
        "walking_time": "약 13분"
      },
      {
        "supermarket_lat": 37.54902521,
        "supermarket_lon": 126.8644799,
        "supermarket_type": "마트",
        "supermarket_name": "신한이모르젠상가",
        "distance": 871.5220702968014,
        "walking_time": "약 14분"
      },
      {
        "supermarket_lat": 37.54513461,
        "supermarket_lon": 126.8626078,
        "supermarket_type": "마트",
        "supermarket_name": "홈플러스(주)익스프레스 목동2점",
        "distance": 1187.6489978313289,
        "walking_time": "약 18분"
      },
      {
        "supermarket_lat": 37.54754447,
        "supermarket_lon": 126.8492819,
        "supermarket_type": "마트",
        "supermarket_name": "홈플러스익스프레스 화곡2점",
        "distance": 1194.9273495397726,
        "walking_time": "약 18분"
      },
      {
        "supermarket_lat": 37.548838,
        "supermarket_lon": 126.8475014,
        "supermarket_type": "마트",
        "supermarket_name": "(주)이마트에브리데이 화곡동점",
        "distance": 1217.4862369428697,
        "walking_time": "약 19분"
      },
      {
        "supermarket_lat": 37.56426405,
        "supermarket_lon": 126.8499602,
        "supermarket_type": "마트",
        "supermarket_name": "홈플러스(주) 가양점",
        "distance": 1252.1287966317354,
        "walking_time": "약 19분"
      },
      {
        "supermarket_lat": 37.56481319,
        "supermarket_lon": 126.846514,
        "supermarket_type": "마트",
        "supermarket_name": "노브랜드 강서가양점",
        "distance": 1499.5504052862818,
        "walking_time": "약 23분"
      },
      {
        "supermarket_lat": 37.55993353,
        "supermarket_lon": 126.8404988,
        "supermarket_type": "마트",
        "supermarket_name": "(주) 이랜드리테일 강서점",
        "distance": 1676.9211664945672,
        "walking_time": "약 26분"
      }
    ],
    "theater": [
      {
        "theater_lat": 37.5578690013942,
        "theater_lon": 126.856001180153,
        "theater_type": "영화관",
        "theater_name": "CGV 등촌",
        "distance": 364.00518345734383,
        "walking_time": "약 6분"
      }
    ],
    "university": [
      {
        "university_lat": 37.5486692406973,
        "university_lon": 126.854134828868,
        "university_type": "대학교",
        "university_name": "강서대학교",
        "distance": 840.039297452027,
        "walking_time": "약 13분"
      },
      {
        "university_lat": 37.5504023690235,
        "university_lon": 126.843553181181,
        "university_type": "대학교",
        "university_name": "한국폴리텍 I 대학 서울강서캠퍼스",
        "distance": 1436.7966419470547,
        "walking_time": "약 22분"
      }
    ]
  }
}