{
  "클러스터_위도": 37.51549371429416,
  "클러스터_경도": 126.88560957140898,
  "클러스터_level": 4.0,
  "facilities": {
    "bus": [
      {
        "bus_lat": 37.51567355,
        "bus_lon": 126.8864004,
        "bus_type": "버스정류장",
        "bus_name": "문래동종점",
        "distance": 72.55973662940052,
        "walking_time": "약 2분"
      },
      {
        "bus_lat": 37.51554771,
        "bus_lon": 126.8867116,
        "bus_type": "버스정류장",
        "bus_name": "문래동시점",
        "distance": 97.38256171008976,
        "walking_time": "약 2분"
      },
      {
        "bus_lat": 37.51642062,
        "bus_lon": 126.8853096,
        "bus_type": "버스정류장",
        "bus_name": "두산위브진주아파트",
        "distance": 106.40872503547754,
        "walking_time": "약 2분"
      },
      {
        "bus_lat": 37.516298,
        "bus_lon": 126.884898,
        "bus_type": "버스정류장",
        "bus_name": "현대3차아파트",
        "distance": 109.25608344745754,
        "walking_time": "약 2분"
      },
      {
        "bus_lat": 37.5154221,
        "bus_lon": 126.8872632,
        "bus_type": "버스정류장",
        "bus_name": "KT&G영등포지사.문래동종점",
        "distance": 146.0649562230551,
        "walking_time": "약 3분"
      },
      {
        "bus_lat": 37.51457321,
        "bus_lon": 126.8831161,
        "bus_type": "버스정류장",
        "bus_name": "도림천역2번출구",
        "distance": 242.5742962055164,
        "walking_time": "약 4분"
      },
      {
        "bus_lat": 37.51676826,
        "bus_lon": 126.8884242,
        "bus_type": "버스정류장",
        "bus_name": "동양볼링장",
        "distance": 285.8505358517026,
        "walking_time": "약 5분"
      },
      {
        "bus_lat": 37.518198,
        "bus_lon": 126.884328,
        "bus_type": "버스정류장",
        "bus_name": "현대6차아파트",
        "distance": 321.2446796137457,
        "walking_time": "약 5분"
      },
      {
        "bus_lat": 37.51373547,
        "bus_lon": 126.8885414,
        "bus_type": "버스정류장",
        "bus_name": "신안인스빌아파트",
        "distance": 324.1760161233002,
        "walking_time": "약 5분"
      },
      {
        "bus_lat": 37.51841083,
        "bus_lon": 126.8845694,
        "bus_type": "버스정류장",
        "bus_name": "문래롯데캐슬",
        "distance": 337.0921208759999,
        "walking_time": "약 6분"
      }
    ],
    "community_center": [
      {
        "community_center_lat": 37.52364629,
        "community_center_lon": 126.8882263,
        "community_center_type": "주민센터",
        "community_center_name": "양평1동 자치회관",
        "distance": 935.4392897425664,
        "walking_time": "약 14분"
      },
      {
        "community_center_lat": 37.50777999,
        "community_center_lon": 126.8805952,
        "community_center_type": "주민센터",
        "community_center_name": "신도림동 자치회관",
        "distance": 965.0440580157268,
        "walking_time": "약 15분"
      },
      {
        "community_center_lat": 37.5094934,
        "community_center_lon": 126.8959996,
        "community_center_type": "주민센터",
        "community_center_name": "도림동 자치회관",
        "distance": 1133.574804043409,
        "walking_time": "약 17분"
      },
      {
        "community_center_lat": 37.51710975,
        "community_center_lon": 126.8995233,
        "community_center_type": "주민센터",
        "community_center_name": "문래동 자치회관",
        "distance": 1240.244271132265,
        "walking_time": "약 19분"
      },
      {
        "community_center_lat": 37.51921418,
        "community_center_lon": 126.870674,
        "community_center_type": "주민센터",
        "community_center_name": "신정2동 자치회관",
        "distance": 1380.698019906497,
        "walking_time": "약 21분"
      },
      {
        "community_center_lat": 37.52512811,
        "community_center_lon": 126.8974049,
        "community_center_type": "주민센터",
        "community_center_name": "당산1동 자치회관",
        "distance": 1493.2594435120652,
        "walking_time": "약 23분"
      },
      {
        "community_center_lat": 37.50010311,
        "community_center_lon": 126.8893378,
        "community_center_type": "주민센터",
        "community_center_name": "구로5동 자치회관",
        "distance": 1742.6677683432818,
        "walking_time": "약 27분"
      },
      {
        "community_center_lat": 37.50094613,
        "community_center_lon": 126.8990356,
        "community_center_type": "주민센터",
        "community_center_name": "대림3동 자치회관",
        "distance": 2004.790815039696,
        "walking_time": "약 30분"
      }
    ],
    "convenience_store": [
      {
        "convenience_store_lat": 37.51506416,
        "convenience_store_lon": 126.8860772,
        "convenience_store_type": "편의점",
        "convenience_store_name": "GS25 문래벽산점",
        "distance": 63.10717485376734,
        "walking_time": "약 1분"
      },
      {
        "convenience_store_lat": 37.51610031,
        "convenience_store_lon": 126.8868154,
        "convenience_store_type": "편의점",
        "convenience_store_name": "세븐일레븐 문래하우스디점",
        "distance": 125.9376066282836,
        "walking_time": "약 2분"
      },
      {
        "convenience_store_lat": 37.51447421,
        "convenience_store_lon": 126.8872293,
        "convenience_store_type": "편의점",
        "convenience_store_name": "GS25 문래임광점",
        "distance": 182.37307522442816,
        "walking_time": "약 3분"
      },
      {
        "convenience_store_lat": 37.51720623,
        "convenience_store_lon": 126.8837868,
        "convenience_store_type": "편의점",
        "convenience_store_name": "CU 문래페르마타점",
        "distance": 249.21074194919888,
        "walking_time": "약 4분"
      },
      {
        "convenience_store_lat": 37.51425759,
        "convenience_store_lon": 126.888635,
        "convenience_store_type": "편의점",
        "convenience_store_name": "GS25 문래신안점",
        "distance": 300.1610257862229,
        "walking_time": "약 5분"
      },
      {
        "convenience_store_lat": 37.51440492,
        "convenience_store_lon": 126.8889338,
        "convenience_store_type": "편의점",
        "convenience_store_name": "GS25 문래신안점",
        "distance": 317.2072829981012,
        "walking_time": "약 5분"
      },
      {
        "convenience_store_lat": 37.5189712,
        "convenience_store_lon": 126.8875055,
        "convenience_store_type": "편의점",
        "convenience_store_name": "세븐일레븐 문래파라곤점",
        "distance": 421.2850371479517,
        "walking_time": "약 7분"
      },
      {
        "convenience_store_lat": 37.516136,
        "convenience_store_lon": 126.8906569,
        "convenience_store_type": "편의점",
        "convenience_store_name": "CU 문래남부지원점",
        "distance": 450.8577462809414,
        "walking_time": "약 7분"
      },
      {
        "convenience_store_lat": 37.51380259,
        "convenience_store_lon": 126.8807891,
        "convenience_store_type": "편의점",
        "convenience_store_name": "GS25 신도림콜카빌점",
        "distance": 464.8921039090463,
        "walking_time": "약 7분"
      },
      {
        "convenience_store_lat": 37.51120297,
        "convenience_store_lon": 126.8844703,
        "convenience_store_type": "편의점",
        "convenience_store_name": "GS25 구로성광점",
        "distance": 487.5758681026038,
        "walking_time": "약 8분"
      }
    ],
    "daycare": [
      {
        "daycare_lat": 37.51590741,
        "daycare_lon": 126.8852868,
        "daycare_type": "어린이집",
        "daycare_name": "신이화어린이집",
        "distance": 54.09713902605949,
        "walking_time": "약 1분"
      },
      {
        "daycare_lat": 37.51714844,
        "daycare_lon": 126.8848419,
        "daycare_type": "어린이집",
        "daycare_name": "병아리어린이집",
        "distance": 196.05902062946447,
        "walking_time": "약 3분"
      },
      {
        "daycare_lat": 37.51640668306202,
        "daycare_lon": 126.88751342856408,
        "daycare_type": "어린이집",
        "daycare_name": "문래동제2어린이집",
        "distance": 196.218574812822,
        "walking_time": "약 3분"
      },
      {
        "daycare_lat": 37.51727269,
        "daycare_lon": 126.8867215,
        "daycare_type": "어린이집",
        "daycare_name": "모아미래도어린이집",
        "distance": 220.78859880322227,
        "walking_time": "약 4분"
      },
      {
        "daycare_lat": 37.51346659,
        "daycare_lon": 126.8838651,
        "daycare_type": "어린이집",
        "daycare_name": "반야어린이집",
        "distance": 272.912691433581,
        "walking_time": "약 5분"
      },
      {
        "daycare_lat": 37.51629785504623,
        "daycare_lon": 126.8886684874314,
        "daycare_type": "어린이집",
        "daycare_name": "키즈빈생태어린이집",
        "distance": 284.2221273194788,
        "walking_time": "약 5분"
      },
      {
        "daycare_lat": 37.51376259,
        "daycare_lon": 126.8832339,
        "daycare_type": "어린이집",
        "daycare_name": "은가람어린이집",
        "distance": 284.5301985984354,
        "walking_time": "약 5분"
      },
      {
        "daycare_lat": 37.51303207070554,
        "daycare_lon": 126.8844951838495,
        "daycare_type": "어린이집",
        "daycare_name": "해가람어린이집",
        "distance": 290.8343387672604,
        "walking_time": "약 5분"
      },
      {
        "daycare_lat": 37.513042936556815,
        "daycare_lon": 126.8844023175487,
        "daycare_type": "어린이집",
        "daycare_name": "해가람어린이집",
        "distance": 292.5779474419785,
        "walking_time": "약 5분"
      },
      {
        "daycare_lat": 37.51816857427777,
        "daycare_lon": 126.8856160745003,
        "daycare_type": "어린이집",
        "daycare_name": "아이키움문래어린이집",
        "distance": 297.431412669778,
        "walking_time": "약 5분"
      }
    ],
    "education": [
      {
        "education_lat": 37.51685657,
        "education_lon": 126.8908946,
        "education_type": "도서관",
        "education_name": "문래도서관",
        "distance": 490.142994266345,
        "walking_time": "약 8분"
      },
      {
        "education_lat": 37.50904922,
        "education_lon": 126.8869873,
        "education_type": "미술관/갤러리",
        "education_name": "구캔 갤러리 : 구독하는 캔버스",
        "distance": 726.8255245772783,
        "walking_time": "약 11분"
      },
      {
        "education_lat": 37.50818811797741,
        "education_lon": 126.89081137277203,
        "education_type": "공연장",
        "education_name": "신도림 오페라하우스",
        "distance": 932.9603077659532,
        "walking_time": "약 14분"
      },
      {
        "education_lat": 37.50701416,
        "education_lon": 126.8914492,
        "education_type": "도서관",
        "education_name": "구로미래도서관",
        "distance": 1074.3986734823056,
        "walking_time": "약 17분"
      },
      {
        "education_lat": 37.50673513,
        "education_lon": 126.8773759,
        "education_type": "도서관",
        "education_name": "구로기적의도서관",
        "distance": 1214.8770749770194,
        "walking_time": "약 19분"
      },
      {
        "education_lat": 37.51076244,
        "education_lon": 126.8702069,
        "education_type": "문화원",
        "education_name": "양천문화원",
        "distance": 1456.8445114313467,
        "walking_time": "약 22분"
      },
      {
        "education_lat": 37.52392536,
        "education_lon": 126.8720147,
        "education_type": "박물관/기념관",
        "education_name": "한생연생명과학박물관",
        "distance": 1522.0267663874513,
        "walking_time": "약 23분"
      },
      {
        "education_lat": 37.50429681,
        "education_lon": 126.896056,
        "education_type": "도서관",
        "education_name": "대림도서관",
        "distance": 1548.920104653353,
        "walking_time": "약 24분"
      },
      {
        "education_lat": 37.52698169,
        "education_lon": 126.8713942,
        "education_type": "공연장",
        "education_name": "한국방송회관 코바코홀",
        "distance": 1789.824841746358,
        "walking_time": "약 27분"
      }
    ],
    "electric_gas_station": [
      {
        "electric_gas_station_lat": 37.52472308,
        "electric_gas_station_lon": 126.895522,
        "electric_gas_station_type": "전기차 충전소",
        "electric_gas_station_name": "영등포구청 환승공영주차장",
        "distance": 1348.126907547191,
        "walking_time": "약 21분"
      }
    ],
    "fitness": [
      {
        "fitness_lat": 37.51786723,
        "fitness_lon": 126.8871533,
        "fitness_type": "운동시설",
        "fitness_name": "온바디",
        "distance": 296.9727177221411,
        "walking_time": "약 5분"
      },
      {
        "fitness_lat": 37.51764243,
        "fitness_lon": 126.8891581,
        "fitness_type": "운동시설",
        "fitness_name": "육체미공작소",
        "distance": 393.7465766359094,
        "walking_time": "약 6분"
      },
      {
        "fitness_lat": 37.5182932,
        "fitness_lon": 126.8887462,
        "fitness_type": "운동시설",
        "fitness_name": "리얼바디짐 문래점",
        "distance": 416.4502395593042,
        "walking_time": "약 7분"
      },
      {
        "fitness_lat": 37.51828796,
        "fitness_lon": 126.8893077,
        "fitness_type": "운동시설",
        "fitness_name": "스트롱무브",
        "distance": 450.4673312394692,
        "walking_time": "약 7분"
      },
      {
        "fitness_lat": 37.51120297,
        "fitness_lon": 126.8844703,
        "fitness_type": "운동시설",
        "fitness_name": "엠스트레이닝",
        "distance": 487.5758681026038,
        "walking_time": "약 8분"
      },
      {
        "fitness_lat": 37.51152466,
        "fitness_lon": 126.8882458,
        "fitness_type": "운동시설",
        "fitness_name": "로키크로스핏",
        "distance": 498.8430118461179,
        "walking_time": "약 8분"
      },
      {
        "fitness_lat": 37.51928114,
        "fitness_lon": 126.8890271,
        "fitness_type": "운동시설",
        "fitness_name": "어반필드 문래점",
        "distance": 517.8910026652329,
        "walking_time": "약 8분"
      },
      {
        "fitness_lat": 37.51965256,
        "fitness_lon": 126.8890496,
        "fitness_type": "운동시설",
        "fitness_name": "커브스 문래클럽",
        "distance": 553.0849040147483,
        "walking_time": "약 9분"
      },
      {
        "fitness_lat": 37.52042791,
        "fitness_lon": 126.8878478,
        "fitness_type": "운동시설",
        "fitness_name": "헤이데이 크로스핏",
        "distance": 583.0888764228107,
        "walking_time": "약 9분"
      },
      {
        "fitness_lat": 37.51048264,
        "fitness_lon": 126.8894812,
        "fitness_type": "운동시설",
        "fitness_name": "바키GYM",
        "distance": 653.5209001163679,
        "walking_time": "약 10분"
      }
    ],
    "gas_station": [
      {
        "gas_station_lat": 37.5169566,
        "gas_station_lon": 126.8898397,
        "gas_station_type": "주유소",
        "gas_station_name": "한일주유소",
        "distance": 407.00663661991535,
        "walking_time": "약 7분"
      },
      {
        "gas_station_lat": 37.50771237,
        "gas_station_lon": 126.8868681,
        "gas_station_type": "주유소",
        "gas_station_name": "대성산업(주) 디큐브주유소",
        "distance": 872.3376808504092,
        "walking_time": "약 14분"
      },
      {
        "gas_station_lat": 37.51325696,
        "gas_station_lon": 126.8964817,
        "gas_station_type": "주유소",
        "gas_station_name": "지에스칼텍스㈜화일주유소",
        "distance": 990.6502518034392,
        "walking_time": "약 15분"
      },
      {
        "gas_station_lat": 37.51948933,
        "gas_station_lon": 126.8710714,
        "gas_station_type": "주유소",
        "gas_station_name": "현대오일뱅크㈜직영 신목동셀프주유소",
        "distance": 1357.0046833445629,
        "walking_time": "약 21분"
      },
      {
        "gas_station_lat": 37.51047311,
        "gas_station_lon": 126.8712656,
        "gas_station_type": "주유소",
        "gas_station_name": "현대오일뱅크㈜직영 양천셀프주유소",
        "distance": 1382.8560422172634,
        "walking_time": "약 21분"
      },
      {
        "gas_station_lat": 37.50245429,
        "gas_station_lon": 126.8797539,
        "gas_station_type": "주유소",
        "gas_station_name": "구인주유소",
        "distance": 1539.1689560889772,
        "walking_time": "약 23분"
      },
      {
        "gas_station_lat": 37.50639267,
        "gas_station_lon": 126.8711231,
        "gas_station_type": "주유소",
        "gas_station_name": "신정동주유소",
        "distance": 1629.9705458376488,
        "walking_time": "약 25분"
      },
      {
        "gas_station_lat": 37.50586106,
        "gas_station_lon": 126.8706964,
        "gas_station_type": "주유소",
        "gas_station_name": "㈜부흥에너지 평화주유소",
        "distance": 1696.3344844791875,
        "walking_time": "약 26분"
      },
      {
        "gas_station_lat": 37.50130968,
        "gas_station_lon": 126.8974652,
        "gas_station_type": "주유소",
        "gas_station_name": "㈜엠에스주유소",
        "distance": 1892.3865935199988,
        "walking_time": "약 29분"
      },
      {
        "gas_station_lat": 37.50240207,
        "gas_station_lon": 126.8994644,
        "gas_station_type": "주유소",
        "gas_station_name": "현대오일뱅크㈜직영 영등포제일셀프주유소",
        "distance": 1900.689520333426,
        "walking_time": "약 29분"
      }
    ],
    "hospital": [
      {
        "hospital_lat": 37.51786723,
        "hospital_lon": 126.8871533,
        "hospital_type": "병원",
        "hospital_name": "문래마주봄한의원",
        "distance": 296.9727177221411,
        "walking_time": "약 5분"
      },
      {
        "hospital_lat": 37.51786723,
        "hospital_lon": 126.8871533,
        "hospital_type": "병원",
        "hospital_name": "제일중앙치과의원",
        "distance": 296.9727177221411,
        "walking_time": "약 5분"
      },
      {
        "hospital_lat": 37.51671668,
        "hospital_lon": 126.8894809,
        "hospital_type": "병원",
        "hospital_name": "연세의원",
        "distance": 367.5266117104844,
        "walking_time": "약 6분"
      },
      {
        "hospital_lat": 37.51739049,
        "hospital_lon": 126.8891314,
        "hospital_type": "병원",
        "hospital_name": "엠스치과의원",
        "distance": 375.45473979540014,
        "walking_time": "약 6분"
      },
      {
        "hospital_lat": 37.51898228,
        "hospital_lon": 126.8862787,
        "hospital_type": "병원",
        "hospital_name": "연세이좋은치과의원",
        "distance": 392.37423605729,
        "walking_time": "약 6분"
      },
      {
        "hospital_lat": 37.51727016,
        "hospital_lon": 126.8894665,
        "hospital_type": "병원",
        "hospital_name": "이혜영치과의원",
        "distance": 393.364254609408,
        "walking_time": "약 6분"
      },
      {
        "hospital_lat": 37.51899427,
        "hospital_lon": 126.884795,
        "hospital_type": "병원",
        "hospital_name": "연세우수의원",
        "distance": 395.81844372650346,
        "walking_time": "약 6분"
      },
      {
        "hospital_lat": 37.51646162,
        "hospital_lon": 126.8899729,
        "hospital_type": "병원",
        "hospital_name": "신한한의원",
        "distance": 399.6032524719512,
        "walking_time": "약 6분"
      },
      {
        "hospital_lat": 37.51858653,
        "hospital_lon": 126.8887081,
        "hospital_type": "병원",
        "hospital_name": "서울삼성요양병원",
        "distance": 439.26409307505617,
        "walking_time": "약 7분"
      },
      {
        "hospital_lat": 37.51120297,
        "hospital_lon": 126.8844703,
        "hospital_type": "병원",
        "hospital_name": "근본한의원",
        "distance": 487.5758681026038,
        "walking_time": "약 8분"
      }
    ],
    "music_room": [
      {
        "music_room_lat": 37.51739049,
        "music_room_lon": 126.8891314,
        "music_room_type": "노래방",
        "music_room_name": "스카이노래연습장",
        "distance": 375.45473979540014,
        "walking_time": "약 6분"
      },
      {
        "music_room_lat": 37.51630839,
        "music_room_lon": 126.8903033,
        "music_room_type": "노래방",
        "music_room_name": "파티파티노래연습장",
        "distance": 423.7732872839531,
        "walking_time": "약 7분"
      },
      {
        "music_room_lat": 37.51880171,
        "music_room_lon": 126.8893992,
        "music_room_type": "노래방",
        "music_room_name": "헬로코인노래연습장",
        "distance": 497.0029253543181,
        "walking_time": "약 8분"
      },
      {
        "music_room_lat": 37.51941024,
        "music_room_lon": 126.8895879,
        "music_room_type": "노래방",
        "music_room_name": "특급 노래연습장",
        "distance": 559.2590047527691,
        "walking_time": "약 9분"
      },
      {
        "music_room_lat": 37.51048264,
        "music_room_lon": 126.8894812,
        "music_room_type": "노래방",
        "music_room_name": "퀸비코인노래연습장 신도림역점",
        "distance": 653.5209001163679,
        "walking_time": "약 10분"
      },
      {
        "music_room_lat": 37.52016265,
        "music_room_lon": 126.8901457,
        "music_room_type": "노래방",
        "music_room_name": "M(엠)노래연습장",
        "distance": 655.4259212144547,
        "walking_time": "약 10분"
      },
      {
        "music_room_lat": 37.51428698,
        "music_room_lon": 126.8930441,
        "music_room_type": "노래방",
        "music_room_name": "너랑나랑 노래연습장",
        "distance": 669.3083977532049,
        "walking_time": "약 10분"
      },
      {
        "music_room_lat": 37.50966195,
        "music_room_lon": 126.8879864,
        "music_room_type": "노래방",
        "music_room_name": "궁 노래연습장",
        "distance": 681.5079716511856,
        "walking_time": "약 11분"
      },
      {
        "music_room_lat": 37.51464071,
        "music_room_lon": 126.893535,
        "music_room_type": "노래방",
        "music_room_name": "세븐틴코인노래연습장 문래역점",
        "distance": 705.4211257425734,
        "walking_time": "약 11분"
      },
      {
        "music_room_lat": 37.52134883,
        "music_room_lon": 126.8895828,
        "music_room_type": "노래방",
        "music_room_name": "삼차노래연습장",
        "distance": 739.3725094466166,
        "walking_time": "약 12분"
      }
    ],
    "outdoor_sports": [
      {
        "outdoor_sports_lat": 37.513408307801,
        "outdoor_sports_lon": 126.884970696268,
        "outdoor_sports_type": "야외 체육시설",
        "outdoor_sports_name": "우성아파트2차 앞(제방위)",
        "distance": 238.63481777721208,
        "walking_time": "약 4분"
      },
      {
        "outdoor_sports_lat": 37.5131027225936,
        "outdoor_sports_lon": 126.886591117087,
        "outdoor_sports_type": "야외 체육시설",
        "outdoor_sports_name": "우성아파트3차 앞(제방아래)",
        "distance": 279.6061001242131,
        "walking_time": "약 5분"
      },
      {
        "outdoor_sports_lat": 37.5150485748267,
        "outdoor_sports_lon": 126.881767101681,
        "outdoor_sports_type": "야외 체육시설",
        "outdoor_sports_name": "신정교 사거리 하부",
        "distance": 342.4968175485434,
        "walking_time": "약 6분"
      },
      {
        "outdoor_sports_lat": 37.5141676768376,
        "outdoor_sports_lon": 126.880081894243,
        "outdoor_sports_type": "야외 체육시설",
        "outdoor_sports_name": "안양천 제방(C축구장 위쪽)",
        "distance": 509.3465459367,
        "walking_time": "약 8분"
      },
      {
        "outdoor_sports_lat": 37.5147985493136,
        "outdoor_sports_lon": 126.879099752342,
        "outdoor_sports_type": "야외 체육시설",
        "outdoor_sports_name": "C축구장 그늘막 옆",
        "distance": 579.3393180086819,
        "walking_time": "약 9분"
      },
      {
        "outdoor_sports_lat": 37.5109208726143,
        "outdoor_sports_lon": 126.889850401879,
        "outdoor_sports_type": "야외 체육시설",
        "outdoor_sports_name": "도림천 농구장(제방위)",
        "distance": 631.236488969253,
        "walking_time": "약 10분"
      },
      {
        "outdoor_sports_lat": 37.5102134696968,
        "outdoor_sports_lon": 126.888958025216,
        "outdoor_sports_type": "야외 체육시설",
        "outdoor_sports_name": "미래사랑어린이공원",
        "distance": 657.2324056567369,
        "walking_time": "약 10분"
      },
      {
        "outdoor_sports_lat": 37.5122190661574,
        "outdoor_sports_lon": 126.878397440723,
        "outdoor_sports_type": "야외 체육시설",
        "outdoor_sports_name": "안양천 제방(오금교~신정교, 이씨다리앞)",
        "distance": 732.9575992502289,
        "walking_time": "약 11분"
      },
      {
        "outdoor_sports_lat": 37.5079895530212,
        "outdoor_sports_lon": 126.890926686339,
        "outdoor_sports_type": "야외 체육시설",
        "outdoor_sports_name": "신도림테크노근린공원",
        "distance": 957.1895672189122,
        "walking_time": "약 15분"
      },
      {
        "outdoor_sports_lat": 37.5014710368452,
        "outdoor_sports_lon": 126.872384028749,
        "outdoor_sports_type": "야외 체육시설",
        "outdoor_sports_name": "안양천 제방(고척교~오금교, 족구장B 위쪽)",
        "distance": 1947.351833919744,
        "walking_time": "약 30분"
      }
    ],
    "park_station": [
      {
        "park_station_lat": 37.5162715,
        "park_station_lon": 126.8878586,
        "park_station_type": "주차장",
        "park_station_name": "문래동공영",
        "distance": 216.39432910493065,
        "walking_time": "약 4분"
      },
      {
        "park_station_lat": 37.51777237,
        "park_station_lon": 126.8781059,
        "park_station_type": "주차장",
        "park_station_name": "신정교주차장",
        "distance": 708.6479676050703,
        "walking_time": "약 11분"
      },
      {
        "park_station_lat": 37.51532608,
        "park_station_lon": 126.8938028,
        "park_station_type": "주차장",
        "park_station_name": "문래근린공원 주차장",
        "distance": 722.8721300442071,
        "walking_time": "약 11분"
      },
      {
        "park_station_lat": 37.51342663,
        "park_station_lon": 126.8973243,
        "park_station_type": "주차장",
        "park_station_name": "문래1동 공영주차장",
        "distance": 1058.493421769621,
        "walking_time": "약 16분"
      },
      {
        "park_station_lat": 37.50730851,
        "park_station_lon": 126.8917393,
        "park_station_type": "주차장",
        "park_station_name": "신도림역환승주차장",
        "distance": 1058.6289111398692,
        "walking_time": "약 16분"
      },
      {
        "park_station_lat": 37.50834495,
        "park_station_lon": 126.8967826,
        "park_station_type": "주차장",
        "park_station_name": "도림동 공영주차장",
        "distance": 1266.1243840609898,
        "walking_time": "약 19분"
      },
      {
        "park_station_lat": 37.52046943,
        "park_station_lon": 126.8722209,
        "park_station_type": "주차장",
        "park_station_name": "공유) 공유주차장",
        "distance": 1304.0143574720998,
        "walking_time": "약 20분"
      },
      {
        "park_station_lat": 37.52046943,
        "park_station_lon": 126.8722209,
        "park_station_type": "주차장",
        "park_station_name": "공유주차장",
        "distance": 1304.0143574720998,
        "walking_time": "약 20분"
      },
      {
        "park_station_lat": 37.52431028,
        "park_station_lon": 126.8955585,
        "park_station_type": "주차장",
        "park_station_name": "영등포구청역 공영주차장",
        "distance": 1315.6681953402017,
        "walking_time": "약 20분"
      },
      {
        "park_station_lat": 37.52523377,
        "park_station_lon": 126.8943048,
        "park_station_type": "주차장",
        "park_station_name": "영등포구청",
        "distance": 1327.0474751633972,
        "walking_time": "약 20분"
      }
    ],
    "pc_room": [
      {
        "pc_room_lat": 37.5167571845721,
        "pc_room_lon": 126.888857838001,
        "pc_room_type": "PC방",
        "pc_room_name": "제로100PC 문래점",
        "distance": 319.08365775148985,
        "walking_time": "약 5분"
      },
      {
        "pc_room_lat": 37.5104826397728,
        "pc_room_lon": 126.889481191271,
        "pc_room_type": "PC방",
        "pc_room_name": "본PC방",
        "distance": 653.52051935668,
        "walking_time": "약 10분"
      },
      {
        "pc_room_lat": 37.5207126294149,
        "pc_room_lon": 126.890835544798,
        "pc_room_type": "PC방",
        "pc_room_name": "제너스PC 문래점",
        "distance": 741.0824072625076,
        "walking_time": "약 12분"
      },
      {
        "pc_room_lat": 37.5092987894825,
        "pc_room_lon": 126.881647346233,
        "pc_room_type": "PC방",
        "pc_room_name": "스위티PC방",
        "distance": 772.4251134129784,
        "walking_time": "약 12분"
      },
      {
        "pc_room_lat": 37.50949039901,
        "pc_room_lon": 126.878507619505,
        "pc_room_type": "PC방",
        "pc_room_name": "호호PC",
        "distance": 915.4196429283388,
        "walking_time": "약 14분"
      },
      {
        "pc_room_lat": 37.50949039901,
        "pc_room_lon": 126.878507619505,
        "pc_room_type": "PC방",
        "pc_room_name": "황금도끼PC방",
        "distance": 915.4196429283388,
        "walking_time": "약 14분"
      },
      {
        "pc_room_lat": 37.5064160124939,
        "pc_room_lon": 126.883812092851,
        "pc_room_type": "PC방",
        "pc_room_name": "욜로PC방 신도림점",
        "distance": 1021.7697562968688,
        "walking_time": "약 16분"
      },
      {
        "pc_room_lat": 37.5063918465946,
        "pc_room_lon": 126.883427027522,
        "pc_room_type": "PC방",
        "pc_room_name": "센텀PC Cafe",
        "distance": 1030.22749227018,
        "walking_time": "약 16분"
      },
      {
        "pc_room_lat": 37.5229055369719,
        "pc_room_lon": 126.877299423799,
        "pc_room_type": "PC방",
        "pc_room_name": "강구PC",
        "distance": 1102.8993757226644,
        "walking_time": "약 17분"
      },
      {
        "pc_room_lat": 37.5075488764968,
        "pc_room_lon": 126.877858739167,
        "pc_room_type": "PC방",
        "pc_room_name": "유니넷",
        "distance": 1117.0569903733938,
        "walking_time": "약 17분"
      }
    ],
    "police_office": [
      {
        "police_office_lat": 37.52272305,
        "police_office_lon": 126.8896845,
        "police_office_type": "경찰소",
        "police_office_name": "양평파출소",
        "distance": 880.543892164143,
        "walking_time": "약 14분"
      },
      {
        "police_office_lat": 37.51358216,
        "police_office_lon": 126.8976501,
        "police_office_type": "경찰소",
        "police_office_name": "문래지구대",
        "distance": 1083.033611855017,
        "walking_time": "약 17분"
      },
      {
        "police_office_lat": 37.50227093,
        "police_office_lon": 126.8838961,
        "police_office_type": "경찰소",
        "police_office_name": "신구로지구대",
        "distance": 1478.0542334545744,
        "walking_time": "약 23분"
      }
    ],
    "post_office": [
      {
        "post_office_lat": 37.52019592,
        "post_office_lon": 126.8828555,
        "post_office_type": "우체국",
        "post_office_name": "서울문래현대A우편취급국",
        "distance": 576.5268826450119,
        "walking_time": "약 9분"
      },
      {
        "post_office_lat": 37.51048264,
        "post_office_lon": 126.8894812,
        "post_office_type": "우체국",
        "post_office_name": "서울신도림우체국",
        "distance": 653.5209001163679,
        "walking_time": "약 10분"
      },
      {
        "post_office_lat": 37.51389666,
        "post_office_lon": 126.895143,
        "post_office_type": "우체국",
        "post_office_name": "서울문래동우체국",
        "distance": 859.3917900806327,
        "walking_time": "약 13분"
      },
      {
        "post_office_lat": 37.52385231,
        "post_office_lon": 126.8884734,
        "post_office_type": "우체국",
        "post_office_name": "서울양평1가우편취급국",
        "distance": 963.1400874950604,
        "walking_time": "약 15분"
      },
      {
        "post_office_lat": 37.51732856,
        "post_office_lon": 126.8714995,
        "post_office_type": "우체국",
        "post_office_name": "서울신정6동우편취급국",
        "distance": 1261.0862831888987,
        "walking_time": "약 19분"
      },
      {
        "post_office_lat": 37.52369426,
        "post_office_lon": 126.8736991,
        "post_office_type": "우체국",
        "post_office_name": "서울목동대림우편취급국",
        "distance": 1391.0023013918526,
        "walking_time": "약 21분"
      },
      {
        "post_office_lat": 37.5027947,
        "post_office_lon": 126.8882043,
        "post_office_type": "우체국",
        "post_office_name": "서울구로5동우편취급국",
        "distance": 1430.4936637490453,
        "walking_time": "약 22분"
      },
      {
        "post_office_lat": 37.5020321,
        "post_office_lon": 126.8761173,
        "post_office_type": "우체국",
        "post_office_name": "서울구로역전우편취급국",
        "distance": 1715.1202683556526,
        "walking_time": "약 26분"
      },
      {
        "post_office_lat": 37.52966114,
        "post_office_lon": 126.8949451,
        "post_office_type": "우체국",
        "post_office_name": "서울영등포우체국",
        "distance": 1777.509707796245,
        "walking_time": "약 27분"
      },
      {
        "post_office_lat": 37.52964806,
        "post_office_lon": 126.898845,
        "post_office_type": "우체국",
        "post_office_name": "서울당산2동우편취급국",
        "distance": 1959.4825307931376,
        "walking_time": "약 30분"
      }
    ],
    "public_health_center": [
      {
        "public_health_center_lat": 37.52596316,
        "public_health_center_lon": 126.8963671,
        "public_health_center_type": "보건소",
        "public_health_center_name": "영등포구보건소",
        "distance": 1501.7775429238898,
        "walking_time": "약 23분"
      },
      {
        "public_health_center_lat": 37.50010311,
        "public_health_center_lon": 126.8893378,
        "public_health_center_type": "보건소",
        "public_health_center_name": "구로구보건소",
        "distance": 1742.6677683432818,
        "walking_time": "약 27분"
      }
    ],
    "school": [
      {
        "school_lat": 37.5140629233737,
        "school_lon": 126.88208378322,
        "school_type": "고등학교",
        "school_name": "신도림고등학교",
        "distance": 349.30731617043,
        "walking_time": "약 6분"
      },
      {
        "school_lat": 37.5119963604915,
        "school_lon": 126.88315069881,
        "school_type": "초등학교",
        "school_name": "서울신도림초등학교",
        "distance": 445.273232399138,
        "walking_time": "약 7분"
      },
      {
        "school_lat": 37.5198074103506,
        "school_lon": 126.887589090951,
        "school_type": "초등학교",
        "school_name": "서울영문초등학교",
        "distance": 510.44584601719305,
        "walking_time": "약 8분"
      },
      {
        "school_lat": 37.5107407265629,
        "school_lon": 126.884807054238,
        "school_type": "중학교",
        "school_name": "신도림중학교",
        "distance": 533.2270473435877,
        "walking_time": "약 8분"
      },
      {
        "school_lat": 37.520362407627,
        "school_lon": 126.884670886121,
        "school_type": "중학교",
        "school_name": "문래중학교",
        "distance": 547.6674691315412,
        "walking_time": "약 9분"
      },
      {
        "school_lat": 37.5217916605406,
        "school_lon": 126.88292354628,
        "school_type": "고등학교",
        "school_name": "관악고등학교",
        "distance": 739.2822071371514,
        "walking_time": "약 12분"
      },
      {
        "school_lat": 37.5191403848287,
        "school_lon": 126.893605730635,
        "school_type": "초등학교",
        "school_name": "서울문래초등학교",
        "distance": 813.4961720294224,
        "walking_time": "약 13분"
      },
      {
        "school_lat": 37.5195479164417,
        "school_lon": 126.895940834494,
        "school_type": "중학교",
        "school_name": "양화중학교",
        "distance": 1016.59805130337,
        "walking_time": "약 16분"
      },
      {
        "school_lat": 37.5135084946262,
        "school_lon": 126.874268759045,
        "school_type": "중학교",
        "school_name": "목일중학교",
        "distance": 1024.325255945095,
        "walking_time": "약 16분"
      },
      {
        "school_lat": 37.5071588011358,
        "school_lon": 126.879584155104,
        "school_type": "초등학교",
        "school_name": "서울신미림초등학교",
        "distance": 1068.368360816347,
        "walking_time": "약 16분"
      }
    ],
    "self_laundromat": [
      {
        "self_laundromat_lat": 37.52209338,
        "self_laundromat_lon": 126.8844551,
        "self_laundromat_type": "셀프 빨래방",
        "self_laundromat_name": "셀프빨래방 양평동점",
        "distance": 740.879077797229,
        "walking_time": "약 12분"
      },
      {
        "self_laundromat_lat": 37.52209338,
        "self_laundromat_lon": 126.8844551,
        "self_laundromat_type": "셀프 빨래방",
        "self_laundromat_name": "셀프빨래방 양평동점",
        "distance": 740.879077797229,
        "walking_time": "약 12분"
      },
      {
        "self_laundromat_lat": 37.52489845,
        "self_laundromat_lon": 126.8833325,
        "self_laundromat_type": "셀프 빨래방",
        "self_laundromat_name": "워시프렌즈셀프빨래방 양평동점",
        "distance": 1064.866681626644,
        "walking_time": "약 16분"
      },
      {
        "self_laundromat_lat": 37.52489845,
        "self_laundromat_lon": 126.8833325,
        "self_laundromat_type": "셀프 빨래방",
        "self_laundromat_name": "워시프렌즈셀프빨래방 양평동점",
        "distance": 1064.866681626644,
        "walking_time": "약 16분"
      },
      {
        "self_laundromat_lat": 37.51804022,
        "self_laundromat_lon": 126.8726221,
        "self_laundromat_type": "셀프 빨래방",
        "self_laundromat_name": "셀빨래방 신정점",
        "distance": 1179.9363635764107,
        "walking_time": "약 18분"
      },
      {
        "self_laundromat_lat": 37.51804022,
        "self_laundromat_lon": 126.8726221,
        "self_laundromat_type": "셀프 빨래방",
        "self_laundromat_name": "셀빨래방 신정점",
        "distance": 1179.9363635764107,
        "walking_time": "약 18분"
      },
      {
        "self_laundromat_lat": 37.51002008,
        "self_laundromat_lon": 126.897799,
        "self_laundromat_type": "셀프 빨래방",
        "self_laundromat_name": "셀프 코인 빨래방",
        "distance": 1235.4539387696957,
        "walking_time": "약 19분"
      },
      {
        "self_laundromat_lat": 37.51002008,
        "self_laundromat_lon": 126.897799,
        "self_laundromat_type": "셀프 빨래방",
        "self_laundromat_name": "셀프 코인 빨래방",
        "distance": 1235.4539387696957,
        "walking_time": "약 19분"
      },
      {
        "self_laundromat_lat": 37.5234518,
        "self_laundromat_lon": 126.8982341,
        "self_laundromat_type": "셀프 빨래방",
        "self_laundromat_name": "셀빨래방 당산점",
        "distance": 1422.223045788016,
        "walking_time": "약 22분"
      },
      {
        "self_laundromat_lat": 37.5234518,
        "self_laundromat_lon": 126.8982341,
        "self_laundromat_type": "셀프 빨래방",
        "self_laundromat_name": "셀빨래방 당산점",
        "distance": 1422.223045788016,
        "walking_time": "약 22분"
      }
    ],
    "subway": [
      {
        "subway_lat": 37.5144420510515,
        "subway_lon": 126.882702584468,
        "subway_type": "지하철",
        "subway_name": "2호선-도림천역",
        "distance": 281.80256852947025,
        "walking_time": "약 5분"
      },
      {
        "subway_lat": 37.5179214637526,
        "subway_lon": 126.894763060556,
        "subway_type": "지하철",
        "subway_name": "2호선-문래역",
        "distance": 851.2500053231086,
        "walking_time": "약 13분"
      },
      {
        "subway_lat": 37.5087701449787,
        "subway_lon": 126.891080501385,
        "subway_type": "지하철",
        "subway_name": "2호선-신도림역",
        "distance": 889.8315607931829,
        "walking_time": "약 14분"
      },
      {
        "subway_lat": 37.5255116853806,
        "subway_lon": 126.886865676125,
        "subway_type": "지하철",
        "subway_name": "5호선-양평역",
        "distance": 1119.44235903672,
        "walking_time": "약 17분"
      },
      {
        "subway_lat": 37.5242266062117,
        "subway_lon": 126.895289064995,
        "subway_type": "지하철",
        "subway_name": "5호선-영등포구청역",
        "distance": 1292.9394948338645,
        "walking_time": "약 20분"
      },
      {
        "subway_lat": 37.5244500703802,
        "subway_lon": 126.875354626254,
        "subway_type": "지하철",
        "subway_name": "5호선-오목교(목동운동장앞)역",
        "distance": 1345.2842837970693,
        "walking_time": "약 21분"
      },
      {
        "subway_lat": 37.5256996614804,
        "subway_lon": 126.896626898379,
        "subway_type": "지하철",
        "subway_name": "2호선-영등포구청역",
        "distance": 1493.981010792421,
        "walking_time": "약 23분"
      }
    ],
    "supermarket": [
      {
        "supermarket_lat": 37.52134276,
        "supermarket_lon": 126.8857535,
        "supermarket_type": "마트",
        "supermarket_name": "GS THE FRESH 문래점",
        "distance": 650.5080712450451,
        "walking_time": "약 10분"
      },
      {
        "supermarket_lat": 37.50966195,
        "supermarket_lon": 126.8879864,
        "supermarket_type": "마트",
        "supermarket_name": "홈플러스(주) 신도림점",
        "distance": 681.5079716511856,
        "walking_time": "약 11분"
      },
      {
        "supermarket_lat": 37.50812307,
        "supermarket_lon": 126.888213,
        "supermarket_type": "마트",
        "supermarket_name": "주식회사 현대백화점 디큐브시티",
        "distance": 851.1394958970299,
        "walking_time": "약 13분"
      },
      {
        "supermarket_lat": 37.52358939,
        "supermarket_lon": 126.8861051,
        "supermarket_type": "마트",
        "supermarket_name": "영등포 중흥 에스클래스",
        "distance": 901.2582705219808,
        "walking_time": "약 14분"
      },
      {
        "supermarket_lat": 37.5182397,
        "supermarket_lon": 126.8958802,
        "supermarket_type": "마트",
        "supermarket_name": "홈플러스(주) 영등포점",
        "distance": 955.9156585556638,
        "walking_time": "약 15분"
      },
      {
        "supermarket_lat": 37.51746312,
        "supermarket_lon": 126.8964937,
        "supermarket_type": "마트",
        "supermarket_name": "로데오 왁",
        "distance": 984.6131923510884,
        "walking_time": "약 15분"
      },
      {
        "supermarket_lat": 37.50704384,
        "supermarket_lon": 126.8902273,
        "supermarket_type": "마트",
        "supermarket_name": "(주) 이마트 신도림점",
        "distance": 1024.065349092603,
        "walking_time": "약 16분"
      },
      {
        "supermarket_lat": 37.50704384,
        "supermarket_lon": 126.8902273,
        "supermarket_type": "마트",
        "supermarket_name": "신도림 테크노마트",
        "distance": 1024.065349092603,
        "walking_time": "약 16분"
      },
      {
        "supermarket_lat": 37.52241744,
        "supermarket_lon": 126.8939303,
        "supermarket_type": "마트",
        "supermarket_name": "영등포유통상가",
        "distance": 1063.5997853429396,
        "walking_time": "약 16분"
      },
      {
        "supermarket_lat": 37.52205753,
        "supermarket_lon": 126.8952868,
        "supermarket_type": "마트",
        "supermarket_name": "포레나당산동역세권청년주택 상업시설",
        "distance": 1122.9996628181636,
        "walking_time": "약 17분"
      }
    ],
    "tax_office": [
      {
        "tax_office_lat": 37.51361958,
        "tax_office_lon": 126.8994697,
        "tax_office_type": "세무서",
        "tax_office_name": "구로세무서",
        "distance": 1240.0941297915622,
        "walking_time": "약 19분"
      },
      {
        "tax_office_lat": 37.52530828,
        "tax_office_lon": 126.8927976,
        "tax_office_type": "세무서",
        "tax_office_name": "영등포세무서",
        "distance": 1262.0898724368656,
        "walking_time": "약 19분"
      }
    ],
    "theater": [
      {
        "theater_lat": 37.5081230677129,
        "theater_lon": 126.888212953215,
        "theater_type": "영화관",
        "theater_name": "롯데컬처웍스(주)롯데시네마",
        "distance": 851.1386274785942,
        "walking_time": "약 13분"
      },
      {
        "theater_lat": 37.5070438414784,
        "theater_lon": 126.890227293528,
        "theater_type": "영화관",
        "theater_name": "CINE Q 신도림점",
        "distance": 1024.0649712169532,
        "walking_time": "약 16분"
      },
      {
        "theater_lat": 37.5011601442131,
        "theater_lon": 126.882773011925,
        "theater_type": "영화관",
        "theater_name": "CGV구로",
        "distance": 1613.3398112264624,
        "walking_time": "약 25분"
      },
      {
        "theater_lat": 37.5273217750941,
        "theater_lon": 126.874619136454,
        "theater_type": "영화관",
        "theater_name": "메가박스중앙(주)더부티크목동현대백화점",
        "distance": 1633.7921167986478,
        "walking_time": "약 25분"
      },
      {
        "theater_lat": 37.5292109947037,
        "theater_lon": 126.875984665042,
        "theater_type": "영화관",
        "theater_name": "메가박스중앙(주) 목동지점",
        "distance": 1745.571326007828,
        "walking_time": "약 27분"
      }
    ]
  }
}