{
  "클러스터_위도": 37.50260450026576,
  "클러스터_경도": 127.1125972494914,
  "클러스터_level": 4.0,
  "facilities": {
    "bus": [
      {
        "bus_lat": 37.50257222,
        "bus_lon": 127.1120106,
        "bus_type": "버스정류장",
        "bus_name": "잠실여고후문",
        "distance": 51.87491628717864,
        "walking_time": "약 1분"
      },
      {
        "bus_lat": 37.50250109,
        "bus_lon": 127.111619,
        "bus_type": "버스정류장",
        "bus_name": "잠실여고후문",
        "distance": 87.05787551737365,
        "walking_time": "약 2분"
      },
      {
        "bus_lat": 37.503707,
        "bus_lon": 127.113797,
        "bus_type": "버스정류장",
        "bus_name": "한양공원",
        "distance": 161.95578125768748,
        "walking_time": "약 3분"
      },
      {
        "bus_lat": 37.50387311,
        "bus_lon": 127.1138832,
        "bus_type": "버스정류장",
        "bus_name": "한양공원",
        "distance": 181.0161605072336,
        "walking_time": "약 3분"
      },
      {
        "bus_lat": 37.50059923,
        "bus_lon": 127.1112328,
        "bus_type": "버스정류장",
        "bus_name": "송파역",
        "distance": 253.38892351205843,
        "walking_time": "약 4분"
      },
      {
        "bus_lat": 37.50058141,
        "bus_lon": 127.1110145,
        "bus_type": "버스정류장",
        "bus_name": "송파역.헬리오시티",
        "distance": 264.764394880351,
        "walking_time": "약 4분"
      },
      {
        "bus_lat": 37.50020848,
        "bus_lon": 127.1118384,
        "bus_type": "버스정류장",
        "bus_name": "송파역",
        "distance": 274.70653265574293,
        "walking_time": "약 5분"
      },
      {
        "bus_lat": 37.49987368,
        "bus_lon": 127.1123582,
        "bus_type": "버스정류장",
        "bus_name": "송파역",
        "distance": 304.3847233474032,
        "walking_time": "약 5분"
      },
      {
        "bus_lat": 37.5015446,
        "bus_lon": 127.109178,
        "bus_type": "버스정류장",
        "bus_name": "송파사거리.석촌시장",
        "distance": 323.83457360789976,
        "walking_time": "약 5분"
      },
      {
        "bus_lat": 37.499696,
        "bus_lon": 127.11185,
        "bus_type": "버스정류장",
        "bus_name": "송파역.헬리오시티",
        "distance": 330.0600674859714,
        "walking_time": "약 5분"
      }
    ],
    "community_center": [
      {
        "community_center_lat": 37.50233682,
        "community_center_lon": 127.1167171,
        "community_center_type": "주민센터",
        "community_center_name": "송파2동 자치회관",
        "distance": 364.645099597208,
        "walking_time": "약 6분"
      },
      {
        "community_center_lat": 37.50626355,
        "community_center_lon": 127.1093124,
        "community_center_type": "주민센터",
        "community_center_name": "송파1동 자치회관",
        "distance": 499.5031031717897,
        "walking_time": "약 8분"
      },
      {
        "community_center_lat": 37.49650407,
        "community_center_lon": 127.1098544,
        "community_center_type": "주민센터",
        "community_center_name": "가락1동 자치회관",
        "distance": 720.2006585692042,
        "walking_time": "약 11분"
      },
      {
        "community_center_lat": 37.50356569,
        "community_center_lon": 127.1036892,
        "community_center_type": "주민센터",
        "community_center_name": "석촌동 자치회관",
        "distance": 793.0428861991721,
        "walking_time": "약 12분"
      },
      {
        "community_center_lat": 37.49558031,
        "community_center_lon": 127.1217613,
        "community_center_type": "주민센터",
        "community_center_name": "가락본동 자치회관",
        "distance": 1124.1044482341183,
        "walking_time": "약 17분"
      },
      {
        "community_center_lat": 37.49867369,
        "community_center_lon": 127.1266091,
        "community_center_type": "주민센터",
        "community_center_name": "가락2동 자치회관",
        "distance": 1311.074268797447,
        "walking_time": "약 20분"
      },
      {
        "community_center_lat": 37.51097122,
        "community_center_lon": 127.1239058,
        "community_center_type": "주민센터",
        "community_center_name": "방이1동 자치회관",
        "distance": 1364.0238639126785,
        "walking_time": "약 21분"
      },
      {
        "community_center_lat": 37.50298784,
        "community_center_lon": 127.1280698,
        "community_center_type": "주민센터",
        "community_center_name": "오금동 자치회관",
        "distance": 1365.5542389327609,
        "walking_time": "약 21분"
      },
      {
        "community_center_lat": 37.5164187,
        "community_center_lon": 127.111305,
        "community_center_type": "주민센터",
        "community_center_name": "방이2동 자치회관",
        "distance": 1540.29218798733,
        "walking_time": "약 23분"
      },
      {
        "community_center_lat": 37.49007616,
        "community_center_lon": 127.1241791,
        "community_center_type": "주민센터",
        "community_center_name": "문정1동 자치회관",
        "distance": 1727.6275022521725,
        "walking_time": "약 26분"
      }
    ],
    "convenience_store": [
      {
        "convenience_store_lat": 37.50240656,
        "convenience_store_lon": 127.1118749,
        "convenience_store_type": "편의점",
        "convenience_store_name": "GS25 송파행운점",
        "distance": 67.41541617593863,
        "walking_time": "약 2분"
      },
      {
        "convenience_store_lat": 37.50381402,
        "convenience_store_lon": 127.1118706,
        "convenience_store_type": "편의점",
        "convenience_store_name": "CU 송파부자점",
        "distance": 148.98667554492783,
        "walking_time": "약 3분"
      },
      {
        "convenience_store_lat": 37.5010193,
        "convenience_store_lon": 127.1145811,
        "convenience_store_type": "편의점",
        "convenience_store_name": "GS25 송파일신점",
        "distance": 248.38774710534537,
        "walking_time": "약 4분"
      },
      {
        "convenience_store_lat": 37.50461197,
        "convenience_store_lon": 127.110702,
        "convenience_store_type": "편의점",
        "convenience_store_name": "GS25 송파세원점",
        "distance": 278.88735583838616,
        "walking_time": "약 5분"
      },
      {
        "convenience_store_lat": 37.50154003,
        "convenience_store_lon": 127.1093116,
        "convenience_store_type": "편의점",
        "convenience_store_name": "세븐일레븐 송파은혜점",
        "distance": 313.0785055982028,
        "walking_time": "약 5분"
      },
      {
        "convenience_store_lat": 37.49968667,
        "convenience_store_lon": 127.1121799,
        "convenience_store_type": "편의점",
        "convenience_store_name": "GS25 S8송파역점",
        "distance": 326.5301267667021,
        "walking_time": "약 5분"
      },
      {
        "convenience_store_lat": 37.50269059,
        "convenience_store_lon": 127.1087523,
        "convenience_store_type": "편의점",
        "convenience_store_name": "세븐일레븐 석촌중앙점",
        "distance": 339.31242970324445,
        "walking_time": "약 6분"
      },
      {
        "convenience_store_lat": 37.50373726,
        "convenience_store_lon": 127.1089791,
        "convenience_store_type": "편의점",
        "convenience_store_name": "CU 석촌역점",
        "distance": 343.1232657563762,
        "walking_time": "약 6분"
      },
      {
        "convenience_store_lat": 37.50634621,
        "convenience_store_lon": 127.1133814,
        "convenience_store_type": "편의점",
        "convenience_store_name": "GS25 한양나누리점",
        "distance": 421.7699089539578,
        "walking_time": "약 7분"
      },
      {
        "convenience_store_lat": 37.50463332,
        "convenience_store_lon": 127.1084748,
        "convenience_store_type": "편의점",
        "convenience_store_name": "GS25 송파석촌점",
        "distance": 427.9434563122198,
        "walking_time": "약 7분"
      }
    ],
    "daycare": [
      {
        "daycare_lat": 37.50297905,
        "daycare_lon": 127.1132916,
        "daycare_type": "어린이집",
        "daycare_name": "리나어린이집",
        "distance": 74.06929232310048,
        "walking_time": "약 2분"
      },
      {
        "daycare_lat": 37.50211924,
        "daycare_lon": 127.1117719,
        "daycare_type": "어린이집",
        "daycare_name": "명운어린이집",
        "distance": 90.62252065107351,
        "walking_time": "약 2분"
      },
      {
        "daycare_lat": 37.50357743,
        "daycare_lon": 127.1122225,
        "daycare_type": "어린이집",
        "daycare_name": "송파제일어린이집",
        "distance": 113.12287032846886,
        "walking_time": "약 2분"
      },
      {
        "daycare_lat": 37.50341441,
        "daycare_lon": 127.1117528,
        "daycare_type": "어린이집",
        "daycare_name": "키즈어린이집",
        "distance": 116.8735563960502,
        "walking_time": "약 2분"
      },
      {
        "daycare_lat": 37.502934211607446,
        "daycare_lon": 127.11046194860867,
        "daycare_type": "어린이집",
        "daycare_name": "소리엘 어린이집",
        "distance": 191.89730428256323,
        "walking_time": "약 3분"
      },
      {
        "daycare_lat": 37.50037038,
        "daycare_lon": 127.1127283,
        "daycare_type": "어린이집",
        "daycare_name": "송이어린이집",
        "distance": 248.691687134246,
        "walking_time": "약 4분"
      },
      {
        "daycare_lat": 37.5003383,
        "daycare_lon": 127.1127234,
        "daycare_type": "어린이집",
        "daycare_name": "래미안파인탑어린이집",
        "distance": 252.235578498695,
        "walking_time": "약 4분"
      },
      {
        "daycare_lat": 37.50077261413282,
        "daycare_lon": 127.1104082553058,
        "daycare_type": "어린이집",
        "daycare_name": "그랑드림어린이집",
        "distance": 280.6787528369493,
        "walking_time": "약 5분"
      },
      {
        "daycare_lat": 37.50453955,
        "daycare_lon": 127.1105179,
        "daycare_type": "어린이집",
        "daycare_name": "피노키오그림나라어린이집",
        "distance": 282.7398918779889,
        "walking_time": "약 5분"
      },
      {
        "daycare_lat": 37.50108619,
        "daycare_lon": 127.1152479,
        "daycare_type": "어린이집",
        "daycare_name": "티움어린이집",
        "distance": 288.40556195458043,
        "walking_time": "약 5분"
      }
    ],
    "education": [
      {
        "education_lat": 37.50272019,
        "education_lon": 127.1110266,
        "education_type": "미술관/갤러리",
        "education_name": "갤러리 무모",
        "distance": 139.14874678973567,
        "walking_time": "약 3분"
      },
      {
        "education_lat": 37.50221326,
        "education_lon": 127.1168433,
        "education_type": "도서관",
        "education_name": "소나무언덕4호작은도서관",
        "distance": 377.0791356432242,
        "walking_time": "약 6분"
      },
      {
        "education_lat": 37.5059055,
        "education_lon": 127.1097882,
        "education_type": "문화예술회관",
        "education_name": "송파문화여성회관",
        "distance": 442.8651470767989,
        "walking_time": "약 7분"
      },
      {
        "education_lat": 37.50024473,
        "education_lon": 127.1066645,
        "education_type": "공연장",
        "education_name": "온쉼표",
        "distance": 585.4528772262923,
        "walking_time": "약 9분"
      },
      {
        "education_lat": 37.50945708,
        "education_lon": 127.1132204,
        "education_type": "미술관/갤러리",
        "education_name": "갤러리아리아",
        "distance": 763.9521958052825,
        "walking_time": "약 12분"
      },
      {
        "education_lat": 37.50356569,
        "education_lon": 127.1036892,
        "education_type": "도서관",
        "education_name": "돌마리도서관",
        "distance": 793.0428861991721,
        "walking_time": "약 12분"
      },
      {
        "education_lat": 37.49888418,
        "education_lon": 127.1043834,
        "education_type": "박물관/기념관",
        "education_name": "송파책박물관",
        "distance": 834.3659495012075,
        "walking_time": "약 13분"
      },
      {
        "education_lat": 37.51061468,
        "education_lon": 127.1082343,
        "education_type": "미술관/갤러리",
        "education_name": "언바운드",
        "distance": 970.2792780674224,
        "walking_time": "약 15분"
      },
      {
        "education_lat": 37.51375196,
        "education_lon": 127.1044469,
        "education_type": "공연장",
        "education_name": "롯데콘서트홀",
        "distance": 1432.9365321066248,
        "walking_time": "약 22분"
      },
      {
        "education_lat": 37.51659259,
        "education_lon": 127.1139562,
        "education_type": "미술관/갤러리",
        "education_name": "뮤지엄한미 방이",
        "distance": 1560.0165353648242,
        "walking_time": "약 24분"
      }
    ],
    "fitness": [
      {
        "fitness_lat": 37.50300081,
        "fitness_lon": 127.1121148,
        "fitness_type": "운동시설",
        "fitness_name": "앵글짐&프리모필라테스",
        "distance": 61.263278718459546,
        "walking_time": "약 1분"
      },
      {
        "fitness_lat": 37.50240656,
        "fitness_lon": 127.1118749,
        "fitness_type": "운동시설",
        "fitness_name": "에스바디짐",
        "distance": 67.41541617593863,
        "walking_time": "약 2분"
      },
      {
        "fitness_lat": 37.50337775,
        "fitness_lon": 127.1130179,
        "fitness_type": "운동시설",
        "fitness_name": "크리스탈 짐",
        "distance": 93.64687668126112,
        "walking_time": "약 2분"
      },
      {
        "fitness_lat": 37.50149057,
        "fitness_lon": 127.1122784,
        "fitness_type": "운동시설",
        "fitness_name": "피티찬스",
        "distance": 127.0168333597878,
        "walking_time": "약 2분"
      },
      {
        "fitness_lat": 37.50203771,
        "fitness_lon": 127.1108048,
        "fitness_type": "운동시설",
        "fitness_name": "아워피티스튜디오",
        "distance": 170.2168695555041,
        "walking_time": "약 3분"
      },
      {
        "fitness_lat": 37.50378424,
        "fitness_lon": 127.1140872,
        "fitness_type": "운동시설",
        "fitness_name": "짐스휘트니스",
        "distance": 185.69637786751807,
        "walking_time": "약 3분"
      },
      {
        "fitness_lat": 37.50424105,
        "fitness_lon": 127.1139939,
        "fitness_type": "운동시설",
        "fitness_name": "H휘트니스",
        "distance": 219.7592468276098,
        "walking_time": "약 4분"
      },
      {
        "fitness_lat": 37.50105251,
        "fitness_lon": 127.1101717,
        "fitness_type": "운동시설",
        "fitness_name": "이볼브 트레이닝",
        "distance": 274.8897679224798,
        "walking_time": "약 5분"
      },
      {
        "fitness_lat": 37.50105403,
        "fitness_lon": 127.1098877,
        "fitness_type": "운동시설",
        "fitness_name": "929 P.T studio",
        "distance": 294.71147852867864,
        "walking_time": "약 5분"
      },
      {
        "fitness_lat": 37.50346979,
        "fitness_lon": 127.1092315,
        "fitness_type": "운동시설",
        "fitness_name": "단단",
        "distance": 312.10470966810493,
        "walking_time": "약 5분"
      }
    ],
    "gas_station": [
      {
        "gas_station_lat": 37.50273441,
        "gas_station_lon": 127.1090104,
        "gas_station_type": "주유소",
        "gas_station_name": "잠실셀프주유소 (셀프)",
        "distance": 316.73888036240635,
        "walking_time": "약 5분"
      },
      {
        "gas_station_lat": 37.50255308,
        "gas_station_lon": 127.116428,
        "gas_station_type": "주유소",
        "gas_station_name": "송파주유소 (셀프)",
        "distance": 337.97350259864663,
        "walking_time": "약 6분"
      },
      {
        "gas_station_lat": 37.5063759,
        "gas_station_lon": 127.1066563,
        "gas_station_type": "주유소",
        "gas_station_name": "잠실주유소 (셀프)",
        "distance": 671.1948878067024,
        "walking_time": "약 11분"
      },
      {
        "gas_station_lat": 37.51106698,
        "gas_station_lon": 127.1110496,
        "gas_station_type": "주유소",
        "gas_station_name": "백제고분로주유소 (셀프)",
        "distance": 950.83600890617,
        "walking_time": "약 15분"
      },
      {
        "gas_station_lat": 37.49951845,
        "gas_station_lon": 127.1017358,
        "gas_station_type": "주유소",
        "gas_station_name": "가락로주유소 (셀프)",
        "distance": 1017.7447514130008,
        "walking_time": "약 16분"
      },
      {
        "gas_station_lat": 37.51261467,
        "gas_station_lon": 127.1140423,
        "gas_station_type": "주유소",
        "gas_station_name": "남성주유소",
        "distance": 1120.3546622924785,
        "walking_time": "약 17분"
      },
      {
        "gas_station_lat": 37.5106973,
        "gas_station_lon": 127.1206916,
        "gas_station_type": "주유소",
        "gas_station_name": "방이주유소",
        "distance": 1148.7250482045888,
        "walking_time": "약 18분"
      },
      {
        "gas_station_lat": 37.49854598,
        "gas_station_lon": 127.1253716,
        "gas_station_type": "주유소",
        "gas_station_name": "제트라인디엠주유소",
        "distance": 1213.9083830955883,
        "walking_time": "약 19분"
      },
      {
        "gas_station_lat": 37.49123101,
        "gas_station_lon": 127.1153536,
        "gas_station_type": "주유소",
        "gas_station_name": "훼미리주유소",
        "distance": 1287.839816517337,
        "walking_time": "약 20분"
      },
      {
        "gas_station_lat": 37.49577944,
        "gas_station_lon": 127.124781,
        "gas_station_type": "주유소",
        "gas_station_name": "서원주유소",
        "distance": 1315.74845542185,
        "walking_time": "약 20분"
      }
    ],
    "hospital": [
      {
        "hospital_lat": 37.50262841,
        "hospital_lon": 127.1123236,
        "hospital_type": "병원",
        "hospital_name": "백삼한의원",
        "distance": 24.28561926125654,
        "walking_time": "약 1분"
      },
      {
        "hospital_lat": 37.50299021,
        "hospital_lon": 127.1130311,
        "hospital_type": "병원",
        "hospital_name": "선치과의원",
        "distance": 57.48191862784895,
        "walking_time": "약 1분"
      },
      {
        "hospital_lat": 37.503121,
        "hospital_lon": 127.1132577,
        "hospital_type": "병원",
        "hospital_name": "성모자애의원",
        "distance": 81.80925432823801,
        "walking_time": "약 2분"
      },
      {
        "hospital_lat": 37.50257768,
        "hospital_lon": 127.1115644,
        "hospital_type": "병원",
        "hospital_name": "서울탑치과의원",
        "distance": 91.16037892156017,
        "walking_time": "약 2분"
      },
      {
        "hospital_lat": 37.50337615,
        "hospital_lon": 127.1136458,
        "hospital_type": "병원",
        "hospital_name": "잘봄경희한의원",
        "distance": 126.16569199922698,
        "walking_time": "약 2분"
      },
      {
        "hospital_lat": 37.50355447,
        "hospital_lon": 127.1138232,
        "hospital_type": "병원",
        "hospital_name": "송파본치과의원",
        "distance": 151.17351809179817,
        "walking_time": "약 3분"
      },
      {
        "hospital_lat": 37.50355447,
        "hospital_lon": 127.1138232,
        "hospital_type": "병원",
        "hospital_name": "시온정형외과의원",
        "distance": 151.17351809179817,
        "walking_time": "약 3분"
      },
      {
        "hospital_lat": 37.50355447,
        "hospital_lon": 127.1138232,
        "hospital_type": "병원",
        "hospital_name": "연세메디칼내과의원",
        "distance": 151.17351809179817,
        "walking_time": "약 3분"
      },
      {
        "hospital_lat": 37.50155451,
        "hospital_lon": 127.1109828,
        "hospital_type": "병원",
        "hospital_name": "박경식남성비뇨의학과의원",
        "distance": 184.15809695925213,
        "walking_time": "약 3분"
      },
      {
        "hospital_lat": 37.50378424,
        "hospital_lon": 127.1140872,
        "hospital_type": "병원",
        "hospital_name": "단우한의원",
        "distance": 185.69637786751807,
        "walking_time": "약 3분"
      }
    ],
    "music_room": [
      {
        "music_room_lat": 37.50230288,
        "music_room_lon": 127.1107956,
        "music_room_type": "노래방",
        "music_room_name": "준",
        "distance": 162.43088381306447,
        "walking_time": "약 3분"
      },
      {
        "music_room_lat": 37.5043441,
        "music_room_lon": 127.1142071,
        "music_room_type": "노래방",
        "music_room_name": "신도깨비노래연습장",
        "distance": 239.9658885402148,
        "walking_time": "약 4분"
      },
      {
        "music_room_lat": 37.50141003,
        "music_room_lon": 127.1101699,
        "music_room_type": "노래방",
        "music_room_name": "뮤젠",
        "distance": 251.97508443313907,
        "walking_time": "약 4분"
      },
      {
        "music_room_lat": 37.50156404,
        "music_room_lon": 127.1100397,
        "music_room_type": "노래방",
        "music_room_name": "1,2,3 노래연습장",
        "distance": 253.54717786243745,
        "walking_time": "약 4분"
      },
      {
        "music_room_lat": 37.50192851,
        "music_room_lon": 127.109546,
        "music_room_type": "노래방",
        "music_room_name": "SBS 노래연습장",
        "distance": 279.4620185686825,
        "walking_time": "약 5분"
      },
      {
        "music_room_lat": 37.50336753,
        "music_room_lon": 127.1093166,
        "music_room_type": "노래방",
        "music_room_name": "피그코인노래연습장",
        "distance": 301.5780649832595,
        "walking_time": "약 5분"
      },
      {
        "music_room_lat": 37.50171811,
        "music_room_lon": 127.1088725,
        "music_room_type": "노래방",
        "music_room_name": "큐",
        "distance": 343.0405490354416,
        "walking_time": "약 6분"
      },
      {
        "music_room_lat": 37.50131408,
        "music_room_lon": 127.1086996,
        "music_room_type": "노래방",
        "music_room_name": "월드",
        "distance": 372.5688093010766,
        "walking_time": "약 6분"
      },
      {
        "music_room_lat": 37.501272,
        "music_room_lon": 127.1085095,
        "music_room_type": "노래방",
        "music_room_name": "세븐틴 코인노래연습장",
        "distance": 389.85284859882967,
        "walking_time": "약 6분"
      },
      {
        "music_room_lat": 37.50155264,
        "music_room_lon": 127.1083417,
        "music_room_type": "노래방",
        "music_room_name": "스카이",
        "distance": 393.1993794161439,
        "walking_time": "약 6분"
      }
    ],
    "park_station": [
      {
        "park_station_lat": 37.50241635,
        "park_station_lon": 127.1127618,
        "park_station_type": "주차장",
        "park_station_name": "센틀주차장",
        "distance": 25.46383638038541,
        "walking_time": "약 1분"
      },
      {
        "park_station_lat": 37.50589821,
        "park_station_lon": 127.1097796,
        "park_station_type": "주차장",
        "park_station_name": "송파근린공원",
        "distance": 442.61909173115424,
        "walking_time": "약 7분"
      },
      {
        "park_station_lat": 37.50527031,
        "park_station_lon": 127.1085983,
        "park_station_type": "주차장",
        "park_station_name": "신 송파주차장",
        "distance": 460.7650425736789,
        "walking_time": "약 7분"
      },
      {
        "park_station_lat": 37.50702621,
        "park_station_lon": 127.1133659,
        "park_station_type": "주차장",
        "park_station_name": "송파동",
        "distance": 496.324867276272,
        "walking_time": "약 8분"
      },
      {
        "park_station_lat": 37.50578773,
        "park_station_lon": 127.1078362,
        "park_station_type": "주차장",
        "park_station_name": "석촌역",
        "distance": 549.2460586937755,
        "walking_time": "약 9분"
      },
      {
        "park_station_lat": 37.50632775,
        "park_station_lon": 127.1178797,
        "park_station_type": "주차장",
        "park_station_name": "공유) 12-37",
        "distance": 623.3237808722932,
        "walking_time": "약 10분"
      },
      {
        "park_station_lat": 37.49691386,
        "park_station_lon": 127.1167037,
        "park_station_type": "주차장",
        "park_station_name": "비석거리",
        "distance": 729.1297096555268,
        "walking_time": "약 11분"
      },
      {
        "park_station_lat": 37.5079307,
        "park_station_lon": 127.1180913,
        "park_station_type": "주차장",
        "park_station_name": "방이고분",
        "distance": 765.2618072505943,
        "walking_time": "약 12분"
      },
      {
        "park_station_lat": 37.50914917,
        "park_station_lon": 127.1077667,
        "park_station_type": "주차장",
        "park_station_name": "부영주차장",
        "distance": 843.3031076423412,
        "walking_time": "약 13분"
      },
      {
        "park_station_lat": 37.50192799,
        "park_station_lon": 127.1022796,
        "park_station_type": "주차장",
        "park_station_name": "석촌고분",
        "distance": 913.266424475055,
        "walking_time": "약 14분"
      }
    ],
    "pc_room": [
      {
        "pc_room_lat": 37.5042410521594,
        "pc_room_lon": 127.113993867811,
        "pc_room_type": "PC방",
        "pc_room_name": "존앤존",
        "distance": 219.7578537886044,
        "walking_time": "약 4분"
      },
      {
        "pc_room_lat": 37.5043441013731,
        "pc_room_lon": 127.114207097572,
        "pc_room_type": "PC방",
        "pc_room_name": "몽키타운",
        "distance": 239.96588486577664,
        "walking_time": "약 4분"
      },
      {
        "pc_room_lat": 37.5043767828743,
        "pc_room_lon": 127.11092396566,
        "pc_room_type": "PC방",
        "pc_room_name": "딸기PC방",
        "distance": 246.21809127819964,
        "walking_time": "약 4분"
      },
      {
        "pc_room_lat": 37.5028451320194,
        "pc_room_lon": 127.109801165729,
        "pc_room_type": "PC방",
        "pc_room_name": "Play# PC",
        "distance": 248.09981061447456,
        "walking_time": "약 4분"
      },
      {
        "pc_room_lat": 37.5022521743632,
        "pc_room_lon": 127.109419287195,
        "pc_room_type": "PC방",
        "pc_room_name": "B-ONE PC",
        "distance": 283.06495083147735,
        "walking_time": "약 5분"
      },
      {
        "pc_room_lat": 37.5054023594673,
        "pc_room_lon": 127.108244727875,
        "pc_room_type": "PC방",
        "pc_room_name": "메가웹스테이션",
        "distance": 494.16795875008177,
        "walking_time": "약 8분"
      },
      {
        "pc_room_lat": 37.5068260721295,
        "pc_room_lon": 127.115624287487,
        "pc_room_type": "PC방",
        "pc_room_name": "봉봉PC게임",
        "distance": 540.047948274667,
        "walking_time": "약 9분"
      },
      {
        "pc_room_lat": 37.5061910863799,
        "pc_room_lon": 127.116954142891,
        "pc_room_type": "PC방",
        "pc_room_name": "핫플PC방",
        "distance": 553.8575814483382,
        "walking_time": "약 9분"
      },
      {
        "pc_room_lat": 37.5060943255808,
        "pc_room_lon": 127.117128842613,
        "pc_room_type": "PC방",
        "pc_room_name": "피씨클럽거기",
        "distance": 557.1133385221032,
        "walking_time": "약 9분"
      },
      {
        "pc_room_lat": 37.5066105446509,
        "pc_room_lon": 127.116639701972,
        "pc_room_type": "PC방",
        "pc_room_name": "샤먼PC CAFE",
        "distance": 570.5997633262272,
        "walking_time": "약 9분"
      }
    ],
    "police_office": [
      {
        "police_office_lat": 37.49818447,
        "police_office_lon": 127.1253134,
        "police_office_type": "경찰소",
        "police_office_name": "가락지구대",
        "distance": 1224.7171769124789,
        "walking_time": "약 19분"
      },
      {
        "police_office_lat": 37.51024991,
        "police_office_lon": 127.1257464,
        "police_office_type": "경찰소",
        "police_office_name": "방이지구대",
        "distance": 1438.0671003998514,
        "walking_time": "약 22분"
      },
      {
        "police_office_lat": 37.50689952,
        "police_office_lon": 127.128101,
        "police_office_type": "경찰소",
        "police_office_name": "오금파출소",
        "distance": 1448.5962021414075,
        "walking_time": "약 22분"
      }
    ],
    "post_office": [
      {
        "post_office_lat": 37.50277096,
        "post_office_lon": 127.116404,
        "post_office_type": "우체국",
        "post_office_name": "서울송파한양우편취급국",
        "distance": 336.3172410230253,
        "walking_time": "약 6분"
      },
      {
        "post_office_lat": 37.5059055,
        "post_office_lon": 127.1097882,
        "post_office_type": "우체국",
        "post_office_name": "서울송파1동우체국",
        "distance": 442.8651470767989,
        "walking_time": "약 7분"
      },
      {
        "post_office_lat": 37.50898861,
        "post_office_lon": 127.1151301,
        "post_office_type": "우체국",
        "post_office_name": "서울방이동우체국",
        "distance": 744.2098009148618,
        "walking_time": "약 12분"
      },
      {
        "post_office_lat": 37.49761457,
        "post_office_lon": 127.1025318,
        "post_office_type": "우체국",
        "post_office_name": "헬리오시티우편취급국",
        "distance": 1047.0450840927388,
        "walking_time": "약 16분"
      },
      {
        "post_office_lat": 37.49572319,
        "post_office_lon": 127.1210871,
        "post_office_type": "우체국",
        "post_office_name": "서울가락본동우체국",
        "distance": 1070.7081287108997,
        "walking_time": "약 16분"
      },
      {
        "post_office_lat": 37.50257386,
        "post_office_lon": 127.128043,
        "post_office_type": "우체국",
        "post_office_name": "서울송파우체국",
        "distance": 1362.5327193207602,
        "walking_time": "약 21분"
      },
      {
        "post_office_lat": 37.4900237,
        "post_office_lon": 127.1112679,
        "post_office_type": "우체국",
        "post_office_name": "서울문정동우체국",
        "distance": 1403.828435142935,
        "walking_time": "약 21분"
      },
      {
        "post_office_lat": 37.50821281,
        "post_office_lon": 127.1274412,
        "post_office_type": "우체국",
        "post_office_name": "서울오금대림우편취급국",
        "distance": 1450.3115711257342,
        "walking_time": "약 22분"
      },
      {
        "post_office_lat": 37.51733948,
        "post_office_lon": 127.1007161,
        "post_office_type": "우체국",
        "post_office_name": "서울장미아파트우편취급국",
        "distance": 1944.940148581044,
        "walking_time": "약 30분"
      }
    ],
    "public_health_center": [
      {
        "public_health_center_lat": 37.51447718,
        "public_health_center_lon": 127.10586,
        "public_health_center_type": "보건소",
        "public_health_center_name": "송파구보건소",
        "distance": 1447.769987370407,
        "walking_time": "약 22분"
      }
    ],
    "school": [
      {
        "school_lat": 37.5017941334924,
        "school_lon": 127.114241325581,
        "school_type": "고등학교",
        "school_name": "잠실여자고등학교",
        "distance": 170.74412156682567,
        "walking_time": "약 3분"
      },
      {
        "school_lat": 37.5017941334924,
        "school_lon": 127.114241325581,
        "school_type": "고등학교",
        "school_name": "일신여자상업고등학교",
        "distance": 170.74412156682567,
        "walking_time": "약 3분"
      },
      {
        "school_lat": 37.5017941334924,
        "school_lon": 127.114241325581,
        "school_type": "중학교",
        "school_name": "일신여자중학교",
        "distance": 170.74412156682567,
        "walking_time": "약 3분"
      },
      {
        "school_lat": 37.4998119038214,
        "school_lon": 127.113605457993,
        "school_type": "초등학교",
        "school_name": "서울중대초등학교",
        "distance": 323.0085181811544,
        "walking_time": "약 5분"
      },
      {
        "school_lat": 37.5010563298142,
        "school_lon": 127.116425801136,
        "school_type": "고등학교",
        "school_name": "가락고등학교",
        "distance": 379.0775658209165,
        "walking_time": "약 6분"
      },
      {
        "school_lat": 37.5069549745149,
        "school_lon": 127.111247174893,
        "school_type": "초등학교",
        "school_name": "서울송파초등학교",
        "distance": 498.19428455225966,
        "walking_time": "약 8분"
      },
      {
        "school_lat": 37.5023397085349,
        "school_lon": 127.11897125744,
        "school_type": "중학교",
        "school_name": "가락중학교",
        "distance": 563.0467652242743,
        "walking_time": "약 9분"
      },
      {
        "school_lat": 37.4998746399971,
        "school_lon": 127.107214872322,
        "school_type": "초등학교",
        "school_name": "서울가락초등학교",
        "distance": 563.5456677828761,
        "walking_time": "약 9분"
      },
      {
        "school_lat": 37.5026527756676,
        "school_lon": 127.105238463221,
        "school_type": "초등학교",
        "school_name": "서울석촌초등학교",
        "distance": 649.1684061479651,
        "walking_time": "약 10분"
      },
      {
        "school_lat": 37.5003207198096,
        "school_lon": 127.119700425145,
        "school_type": "초등학교",
        "school_name": "서울신가초등학교",
        "distance": 676.1102539906162,
        "walking_time": "약 11분"
      }
    ],
    "self_laundromat": [
      {
        "self_laundromat_lat": 37.50397122,
        "self_laundromat_lon": 127.1114248,
        "self_laundromat_type": "셀프 빨래방",
        "self_laundromat_name": "더런드리셀프빨래방 송파동점",
        "distance": 183.82699952455812,
        "walking_time": "약 3분"
      },
      {
        "self_laundromat_lat": 37.50397122,
        "self_laundromat_lon": 127.1114248,
        "self_laundromat_type": "셀프 빨래방",
        "self_laundromat_name": "더런드리셀프빨래방 송파동점",
        "distance": 183.82699952455812,
        "walking_time": "약 3분"
      },
      {
        "self_laundromat_lat": 37.50752987,
        "self_laundromat_lon": 127.1136474,
        "self_laundromat_type": "셀프 빨래방",
        "self_laundromat_name": "워시팡팡 셀프빨래방 24시 송파점",
        "distance": 555.455062948714,
        "walking_time": "약 9분"
      },
      {
        "self_laundromat_lat": 37.50752987,
        "self_laundromat_lon": 127.1136474,
        "self_laundromat_type": "셀프 빨래방",
        "self_laundromat_name": "워시팡팡 셀프빨래방 24시 송파점",
        "distance": 555.455062948714,
        "walking_time": "약 9분"
      },
      {
        "self_laundromat_lat": 37.51033097,
        "self_laundromat_lon": 127.1170047,
        "self_laundromat_type": "셀프 빨래방",
        "self_laundromat_name": "더런드리셀프빨래방 방이점",
        "distance": 943.014839875,
        "walking_time": "약 15분"
      },
      {
        "self_laundromat_lat": 37.51033097,
        "self_laundromat_lon": 127.1170047,
        "self_laundromat_type": "셀프 빨래방",
        "self_laundromat_name": "더런드리셀프빨래방 방이점",
        "distance": 943.014839875,
        "walking_time": "약 15분"
      },
      {
        "self_laundromat_lat": 37.50770698,
        "self_laundromat_lon": 127.1223366,
        "self_laundromat_type": "셀프 빨래방",
        "self_laundromat_name": "코인워시24셀프빨래방 방이1동점",
        "distance": 1029.5573155313878,
        "walking_time": "약 16분"
      },
      {
        "self_laundromat_lat": 37.50770698,
        "self_laundromat_lon": 127.1223366,
        "self_laundromat_type": "셀프 빨래방",
        "self_laundromat_name": "코인워시24셀프빨래방 방이1동점",
        "distance": 1029.5573155313878,
        "walking_time": "약 16분"
      },
      {
        "self_laundromat_lat": 37.4961402,
        "self_laundromat_lon": 127.1211482,
        "self_laundromat_type": "셀프 빨래방",
        "self_laundromat_name": "에코런드렛 셀프빨래방&amp;아이스크림",
        "distance": 1041.9717679189553,
        "walking_time": "약 16분"
      },
      {
        "self_laundromat_lat": 37.4961402,
        "self_laundromat_lon": 127.1211482,
        "self_laundromat_type": "셀프 빨래방",
        "self_laundromat_name": "에코런드렛 셀프빨래방&amp;아이스크림",
        "distance": 1041.9717679189553,
        "walking_time": "약 16분"
      }
    ],
    "subway": [
      {
        "subway_lat": 37.4996866748478,
        "subway_lon": 127.112179893361,
        "subway_type": "지하철",
        "subway_name": "8호선-송파역",
        "distance": 326.52965718780047,
        "walking_time": "약 5분"
      },
      {
        "subway_lat": 37.5059496431187,
        "subway_lon": 127.106345349428,
        "subway_type": "지하철",
        "subway_name": "8호선-석촌역",
        "distance": 665.2061468549063,
        "walking_time": "약 10분"
      },
      {
        "subway_lat": 37.5059496431187,
        "subway_lon": 127.106345349428,
        "subway_type": "지하철",
        "subway_name": "9호선-석촌역",
        "distance": 665.2061468549063,
        "walking_time": "약 10분"
      },
      {
        "subway_lat": 37.5104581017222,
        "subway_lon": 127.112744120149,
        "subway_type": "지하철",
        "subway_name": "9호선-송파나루역",
        "distance": 873.3767303744152,
        "walking_time": "약 14분"
      },
      {
        "subway_lat": 37.4927440321316,
        "subway_lon": 127.118485741487,
        "subway_type": "지하철",
        "subway_name": "3호선-가락시장역",
        "distance": 1213.2714301257631,
        "walking_time": "약 19분"
      },
      {
        "subway_lat": 37.4927440321316,
        "subway_lon": 127.118485741487,
        "subway_type": "지하철",
        "subway_name": "8호선-가락시장역",
        "distance": 1213.2714301257631,
        "walking_time": "약 19분"
      },
      {
        "subway_lat": 37.4956031419934,
        "subway_lon": 127.124067847413,
        "subway_type": "지하철",
        "subway_name": "3호선-경찰병원역",
        "distance": 1276.7352949088258,
        "walking_time": "약 20분"
      },
      {
        "subway_lat": 37.5085564458698,
        "subway_lon": 127.125854699016,
        "subway_type": "지하철",
        "subway_name": "5호선-방이역",
        "distance": 1343.7303868311865,
        "walking_time": "약 21분"
      },
      {
        "subway_lat": 37.5022659793733,
        "subway_lon": 127.127879247544,
        "subway_type": "지하철",
        "subway_name": "3호선-오금역",
        "distance": 1348.6114340573754,
        "walking_time": "약 21분"
      },
      {
        "subway_lat": 37.5022659793733,
        "subway_lon": 127.127879247544,
        "subway_type": "지하철",
        "subway_name": "5호선-오금역",
        "distance": 1348.6114340573754,
        "walking_time": "약 21분"
      }
    ],
    "supermarket": [
      {
        "supermarket_lat": 37.50516461,
        "supermarket_lon": 127.1145255,
        "supermarket_type": "마트",
        "supermarket_name": "한화 송파지점",
        "distance": 331.61745172402914,
        "walking_time": "약 5분"
      },
      {
        "supermarket_lat": 37.50516461,
        "supermarket_lon": 127.1145255,
        "supermarket_type": "마트",
        "supermarket_name": "롯데쇼핑(주)롯데슈퍼송파점",
        "distance": 331.61745172402914,
        "walking_time": "약 5분"
      },
      {
        "supermarket_lat": 37.50140348,
        "supermarket_lon": 127.1076013,
        "supermarket_type": "마트",
        "supermarket_name": "엄마손상가",
        "distance": 460.5049053141712,
        "walking_time": "약 7분"
      },
      {
        "supermarket_lat": 37.50636817,
        "supermarket_lon": 127.1167393,
        "supermarket_type": "마트",
        "supermarket_name": "홈플러스(주) 익스프레스 송파점",
        "distance": 555.5567008701688,
        "walking_time": "약 9분"
      },
      {
        "supermarket_lat": 37.49631121,
        "supermarket_lon": 127.1183069,
        "supermarket_type": "마트",
        "supermarket_name": "(주)이마트에브리데이 가락동점",
        "distance": 862.2062015948298,
        "walking_time": "약 13분"
      },
      {
        "supermarket_lat": 37.49761457,
        "supermarket_lon": 127.1025318,
        "supermarket_type": "마트",
        "supermarket_name": "이마트에브리데이 송파점",
        "distance": 1047.0450840927388,
        "walking_time": "약 16분"
      },
      {
        "supermarket_lat": 37.50733798,
        "supermarket_lon": 127.1231562,
        "supermarket_type": "마트",
        "supermarket_name": "(주)지에스리테일 방이점",
        "distance": 1069.8446238105396,
        "walking_time": "약 16분"
      },
      {
        "supermarket_lat": 37.51249624,
        "supermarket_lon": 127.1121003,
        "supermarket_type": "마트",
        "supermarket_name": "GS THE FRESH 송파나루역점",
        "distance": 1100.7844061651042,
        "walking_time": "약 17분"
      },
      {
        "supermarket_lat": 37.49176204,
        "supermarket_lon": 127.1178428,
        "supermarket_type": "마트",
        "supermarket_name": "롯데쇼핑(주)롯데마트 송파점",
        "distance": 1291.3889717141672,
        "walking_time": "약 20분"
      },
      {
        "supermarket_lat": 37.51422319,
        "supermarket_lon": 127.1092233,
        "supermarket_type": "마트",
        "supermarket_name": "롯데쇼핑(주)롯데슈퍼방이점",
        "distance": 1325.7739056624268,
        "walking_time": "약 20분"
      }
    ],
    "theater": [
      {
        "theater_lat": 37.5137129859207,
        "theater_lon": 127.104301829165,
        "theater_type": "영화관",
        "theater_name": "롯데시네마 월드타워",
        "distance": 1435.6689289575356,
        "walking_time": "약 22분"
      }
    ],
    "university": [
      {
        "university_lat": 37.5198703733617,
        "university_lon": 127.129660488669,
        "university_type": "대학교",
        "university_name": "한국체육대학교",
        "distance": 2439.4818513330943,
        "walking_time": "약 37분"
      }
    ]
  }
}