{
  "클러스터_위도": 37.54698650028008,
  "클러스터_경도": 127.1380219998618,
  "클러스터_level": 4.0,
  "facilities": {
    "bus": [
      {
        "bus_lat": 37.54840012,
        "bus_lon": 127.1359045,
        "bus_type": "버스정류장",
        "bus_name": "강동농협",
        "distance": 244.0434734515054,
        "walking_time": "약 4분"
      },
      {
        "bus_lat": 37.54840916,
        "bus_lon": 127.1358972,
        "bus_type": "버스정류장",
        "bus_name": "강동농협",
        "distance": 245.1834640683143,
        "walking_time": "약 4분"
      },
      {
        "bus_lat": 37.54808355,
        "bus_lon": 127.1353709,
        "bus_type": "버스정류장",
        "bus_name": "강동농협",
        "distance": 263.64180285752013,
        "walking_time": "약 4분"
      },
      {
        "bus_lat": 37.54807047,
        "bus_lon": 127.1353379,
        "bus_type": "버스정류장",
        "bus_name": "강동농협",
        "distance": 265.5610826280148,
        "walking_time": "약 4분"
      },
      {
        "bus_lat": 37.54991479,
        "bus_lon": 127.13752,
        "bus_type": "버스정류장",
        "bus_name": "약국앞",
        "distance": 328.6047784055287,
        "walking_time": "약 5분"
      },
      {
        "bus_lat": 37.550002,
        "bus_lon": 127.1376866,
        "bus_type": "버스정류장",
        "bus_name": "천호우성아파트",
        "distance": 336.6094828563298,
        "walking_time": "약 6분"
      },
      {
        "bus_lat": 37.5464913,
        "bus_lon": 127.1342129,
        "bus_type": "버스정류장",
        "bus_name": "천호초교입구사거리",
        "distance": 340.3008627863255,
        "walking_time": "약 6분"
      },
      {
        "bus_lat": 37.5500707,
        "bus_lon": 127.1375045,
        "bus_type": "버스정류장",
        "bus_name": "약국앞",
        "distance": 345.9686518544615,
        "walking_time": "약 6분"
      },
      {
        "bus_lat": 37.55019474,
        "bus_lon": 127.1377662,
        "bus_type": "버스정류장",
        "bus_name": "천호우성아파트",
        "distance": 357.4520510538711,
        "walking_time": "약 6분"
      },
      {
        "bus_lat": 37.55037877,
        "bus_lon": 127.1391292,
        "bus_type": "버스정류장",
        "bus_name": "천호우성아파트",
        "distance": 389.62797019916906,
        "walking_time": "약 6분"
      }
    ],
    "community_center": [
      {
        "community_center_lat": 37.54500381,
        "community_center_lon": 127.1368198,
        "community_center_type": "주민센터",
        "community_center_name": "천호1동 자치회관",
        "distance": 244.6191251703676,
        "walking_time": "약 4분"
      },
      {
        "community_center_lat": 37.55237984,
        "community_center_lon": 127.1357214,
        "community_center_type": "주민센터",
        "community_center_name": "암사1동 자치회관",
        "distance": 633.0790405839027,
        "walking_time": "약 10분"
      },
      {
        "community_center_lat": 37.55126175,
        "community_center_lon": 127.1443451,
        "community_center_type": "주민센터",
        "community_center_name": "명일1동 자치회관",
        "distance": 732.6171058440649,
        "walking_time": "약 11분"
      },
      {
        "community_center_lat": 37.55499636,
        "community_center_lon": 127.1407841,
        "community_center_type": "주민센터",
        "community_center_name": "암사3동 자치회관",
        "distance": 923.3410188691448,
        "walking_time": "약 14분"
      },
      {
        "community_center_lat": 37.5517063,
        "community_center_lon": 127.1272709,
        "community_center_type": "주민센터",
        "community_center_name": "암사2동 자치회관",
        "distance": 1083.4024315038648,
        "walking_time": "약 17분"
      },
      {
        "community_center_lat": 37.54345134,
        "community_center_lon": 127.1254311,
        "community_center_type": "주민센터",
        "community_center_name": "천호2동 자치회관",
        "distance": 1177.6023081613343,
        "walking_time": "약 18분"
      },
      {
        "community_center_lat": 37.53660488,
        "community_center_lon": 127.1331156,
        "community_center_type": "주민센터",
        "community_center_name": "천호3동 자치회관",
        "distance": 1232.7736673371996,
        "walking_time": "약 19분"
      },
      {
        "community_center_lat": 37.53459123,
        "community_center_lon": 127.1391361,
        "community_center_type": "주민센터",
        "community_center_name": "길동 자치회관",
        "distance": 1381.7870412869192,
        "walking_time": "약 21분"
      },
      {
        "community_center_lat": 37.53334613,
        "community_center_lon": 127.1419485,
        "community_center_type": "주민센터",
        "community_center_name": "둔촌2동 자치회관",
        "distance": 1555.7482421906825,
        "walking_time": "약 24분"
      },
      {
        "community_center_lat": 37.53807237,
        "community_center_lon": 127.1220741,
        "community_center_type": "주민센터",
        "community_center_name": "풍납1동 자치회관",
        "distance": 1720.327892186084,
        "walking_time": "약 26분"
      }
    ],
    "convenience_store": [
      {
        "convenience_store_lat": 37.5454923,
        "convenience_store_lon": 127.1366173,
        "convenience_store_type": "편의점",
        "convenience_store_name": "CU 천호1동점",
        "distance": 207.2237716755616,
        "walking_time": "약 4분"
      },
      {
        "convenience_store_lat": 37.54510906,
        "convenience_store_lon": 127.1387439,
        "convenience_store_type": "편의점",
        "convenience_store_name": "CU 천호승리점",
        "distance": 218.24784661503108,
        "walking_time": "약 4분"
      },
      {
        "convenience_store_lat": 37.54576991,
        "convenience_store_lon": 127.140447,
        "convenience_store_type": "편의점",
        "convenience_store_name": "GS25 천호중앙점",
        "distance": 252.9975337646539,
        "walking_time": "약 4분"
      },
      {
        "convenience_store_lat": 37.54792134,
        "convenience_store_lon": 127.1410271,
        "convenience_store_type": "편의점",
        "convenience_store_name": "CU 천호햇살점",
        "distance": 284.59519118985617,
        "walking_time": "약 5분"
      },
      {
        "convenience_store_lat": 37.54721607,
        "convenience_store_lon": 127.1413839,
        "convenience_store_type": "편의점",
        "convenience_store_name": "세븐일레븐 천호본점",
        "distance": 297.4863609159535,
        "walking_time": "약 5분"
      },
      {
        "convenience_store_lat": 37.54636523,
        "convenience_store_lon": 127.1347018,
        "convenience_store_type": "편의점",
        "convenience_store_name": "GS25 천호한신점",
        "distance": 300.755848521544,
        "walking_time": "약 5분"
      },
      {
        "convenience_store_lat": 37.54960706,
        "convenience_store_lon": 127.1397843,
        "convenience_store_type": "편의점",
        "convenience_store_name": "세븐일레븐 천호성덕점",
        "distance": 330.2238886868092,
        "walking_time": "약 5분"
      },
      {
        "convenience_store_lat": 37.54400011,
        "convenience_store_lon": 127.1385903,
        "convenience_store_type": "편의점",
        "convenience_store_name": "GS25 천호타운점",
        "distance": 335.82996737385577,
        "walking_time": "약 6분"
      },
      {
        "convenience_store_lat": 37.5468738,
        "convenience_store_lon": 127.1421897,
        "convenience_store_type": "편의점",
        "convenience_store_name": "GS25 송파위례2호점",
        "distance": 367.6438887172825,
        "walking_time": "약 6분"
      },
      {
        "convenience_store_lat": 37.54759343,
        "convenience_store_lon": 127.1337845,
        "convenience_store_type": "편의점",
        "convenience_store_name": "CU 강동은혜점",
        "distance": 379.6289455312105,
        "walking_time": "약 6분"
      }
    ],
    "daycare": [
      {
        "daycare_lat": 37.546846401184446,
        "daycare_lon": 127.13771159061427,
        "daycare_type": "어린이집",
        "daycare_name": "온누리어린이집",
        "distance": 31.489490735413632,
        "walking_time": "약 1분"
      },
      {
        "daycare_lat": 37.54673459315193,
        "daycare_lon": 127.13778380739488,
        "daycare_type": "어린이집",
        "daycare_name": "구립천호1동어린이집",
        "distance": 35.008275834771524,
        "walking_time": "약 1분"
      },
      {
        "daycare_lat": 37.54592781,
        "daycare_lon": 127.13826,
        "daycare_type": "어린이집",
        "daycare_name": "아이린어린이집",
        "distance": 119.57633003896302,
        "walking_time": "약 2분"
      },
      {
        "daycare_lat": 37.54554419149537,
        "daycare_lon": 127.13870951449702,
        "daycare_type": "어린이집",
        "daycare_name": "새꼬예미어린이집",
        "distance": 171.4491957946418,
        "walking_time": "약 3분"
      },
      {
        "daycare_lat": 37.54546503422336,
        "daycare_lon": 127.13705442942808,
        "daycare_type": "어린이집",
        "daycare_name": "구립꿈이찬어린이집",
        "distance": 189.4683806813319,
        "walking_time": "약 3분"
      },
      {
        "daycare_lat": 37.54538545652069,
        "daycare_lon": 127.1388450100558,
        "daycare_type": "어린이집",
        "daycare_name": "꼬예미어린이집",
        "distance": 192.2463968448708,
        "walking_time": "약 3분"
      },
      {
        "daycare_lat": 37.54869215795412,
        "daycare_lon": 127.13727138706568,
        "daycare_type": "어린이집",
        "daycare_name": "윤슬어린이집",
        "distance": 200.8734193045432,
        "walking_time": "약 3분"
      },
      {
        "daycare_lat": 37.54875104,
        "daycare_lon": 127.1387866,
        "daycare_type": "어린이집",
        "daycare_name": "피터팬어린이집",
        "distance": 207.4639218292335,
        "walking_time": "약 4분"
      },
      {
        "daycare_lat": 37.54490307,
        "daycare_lon": 127.1372386,
        "daycare_type": "어린이집",
        "daycare_name": "하람어린이집",
        "distance": 241.7431038672912,
        "walking_time": "약 4분"
      },
      {
        "daycare_lat": 37.54498448,
        "daycare_lon": 127.1367895,
        "daycare_type": "어린이집",
        "daycare_name": "구립천일방과후어린이집",
        "distance": 247.7181288249082,
        "walking_time": "약 4분"
      }
    ],
    "education": [
      {
        "education_lat": 37.55283302,
        "education_lon": 127.1333655,
        "education_type": "도서관",
        "education_name": "강동구립암사도서관",
        "distance": 768.8630697580982,
        "walking_time": "약 12분"
      },
      {
        "education_lat": 37.54052322,
        "education_lon": 127.1340815,
        "education_type": "도서관",
        "education_name": "강동구립천호도서관",
        "distance": 798.2503785587172,
        "walking_time": "약 12분"
      },
      {
        "education_lat": 37.53808297,
        "education_lon": 127.1435009,
        "education_type": "도서관",
        "education_name": "서울특별시교육청 강동도서관",
        "distance": 1101.5885295500552,
        "walking_time": "약 17분"
      },
      {
        "education_lat": 37.54394767,
        "education_lon": 127.1255384,
        "education_type": "도서관",
        "education_name": "강동구립해공도서관",
        "distance": 1151.2963857421464,
        "walking_time": "약 18분"
      },
      {
        "education_lat": 37.55073399,
        "education_lon": 127.1248583,
        "education_type": "도서관",
        "education_name": "한국점자도서관",
        "distance": 1233.045335608674,
        "walking_time": "약 19분"
      },
      {
        "education_lat": 37.55985381,
        "education_lon": 127.1308316,
        "education_type": "박물관/기념관",
        "education_name": "암사동선사유적박물관",
        "distance": 1564.8991135099127,
        "walking_time": "약 24분"
      },
      {
        "education_lat": 37.53284547,
        "education_lon": 127.133343,
        "education_type": "도서관",
        "education_name": "강동구립성내도서관",
        "distance": 1625.6290974809822,
        "walking_time": "약 25분"
      }
    ],
    "fitness": [
      {
        "fitness_lat": 37.54845435,
        "fitness_lon": 127.1360514,
        "fitness_type": "운동시설",
        "fitness_name": "피트니즈 천호점",
        "distance": 238.37301357446336,
        "walking_time": "약 4분"
      },
      {
        "fitness_lat": 37.54672703,
        "fitness_lon": 127.1348095,
        "fitness_type": "운동시설",
        "fitness_name": "스포애니 천호초교점",
        "distance": 284.68452532298835,
        "walking_time": "약 5분"
      },
      {
        "fitness_lat": 37.54698867,
        "fitness_lon": 127.1343449,
        "fitness_type": "운동시설",
        "fitness_name": "인피티샵 헬스& PT 천호점",
        "distance": 324.17808237263364,
        "walking_time": "약 5분"
      },
      {
        "fitness_lat": 37.54592275,
        "fitness_lon": 127.1433492,
        "fitness_type": "운동시설",
        "fitness_name": "트렌디우먼휘트니스 굽은다리역점",
        "distance": 484.3223403364826,
        "walking_time": "약 8분"
      },
      {
        "fitness_lat": 37.55045243,
        "fitness_lon": 127.1414015,
        "fitness_type": "운동시설",
        "fitness_name": "다윗헬스클럽",
        "distance": 487.1275189127661,
        "walking_time": "약 8분"
      },
      {
        "fitness_lat": 37.5454223,
        "fitness_lon": 127.1432253,
        "fitness_type": "운동시설",
        "fitness_name": "W38 휘트니스",
        "distance": 490.6011805471067,
        "walking_time": "약 8분"
      },
      {
        "fitness_lat": 37.54392716,
        "fitness_lon": 127.1425742,
        "fitness_type": "운동시설",
        "fitness_name": "썸바디 휘트니스",
        "distance": 526.1134150712757,
        "walking_time": "약 8분"
      },
      {
        "fitness_lat": 37.54299161,
        "fitness_lon": 127.1412598,
        "fitness_type": "운동시설",
        "fitness_name": "탑 헬스클럽",
        "distance": 528.0239020639572,
        "walking_time": "약 8분"
      },
      {
        "fitness_lat": 37.54849747,
        "fitness_lon": 127.1438401,
        "fitness_type": "운동시설",
        "fitness_name": "피치짐 명일점",
        "distance": 539.7419718004835,
        "walking_time": "약 9분"
      },
      {
        "fitness_lat": 37.54927406,
        "fitness_lon": 127.1434527,
        "fitness_type": "운동시설",
        "fitness_name": "크로스핏 지케이",
        "distance": 542.1463302453857,
        "walking_time": "약 9분"
      }
    ],
    "gas_station": [
      {
        "gas_station_lat": 37.5504579,
        "gas_station_lon": 127.1382269,
        "gas_station_type": "주유소",
        "gas_station_name": "구천면주유소",
        "distance": 386.42447554913406,
        "walking_time": "약 6분"
      },
      {
        "gas_station_lat": 37.54517786,
        "gas_station_lon": 127.1294966,
        "gas_station_type": "주유소",
        "gas_station_name": "천호 현대주유소",
        "distance": 778.0604164907061,
        "walking_time": "약 12분"
      },
      {
        "gas_station_lat": 37.55447863,
        "gas_station_lon": 127.1440113,
        "gas_station_type": "주유소",
        "gas_station_name": "현대오일뱅크㈜직영 명일셀프주유소",
        "distance": 986.3141664583436,
        "walking_time": "약 15분"
      },
      {
        "gas_station_lat": 37.55506025,
        "gas_station_lon": 127.1298437,
        "gas_station_type": "주유소",
        "gas_station_name": "㈜삼표에너지 고덕주유소",
        "distance": 1151.4216382925051,
        "walking_time": "약 18분"
      },
      {
        "gas_station_lat": 37.5415768,
        "gas_station_lon": 127.124242,
        "gas_station_type": "주유소",
        "gas_station_name": "광성주유소",
        "distance": 1355.669262971094,
        "walking_time": "약 21분"
      },
      {
        "gas_station_lat": 37.53341993,
        "gas_station_lon": 127.1411846,
        "gas_station_type": "주유소",
        "gas_station_name": "대성석유㈜ 길동주유소",
        "distance": 1534.088778292812,
        "walking_time": "약 23분"
      },
      {
        "gas_station_lat": 37.53641686,
        "gas_station_lon": 127.1493724,
        "gas_station_type": "주유소",
        "gas_station_name": "재건에너지 재정제2주유소 고속셀프지점",
        "distance": 1543.6264185083128,
        "walking_time": "약 24분"
      },
      {
        "gas_station_lat": 37.53232065,
        "gas_station_lon": 127.1330903,
        "gas_station_type": "주유소",
        "gas_station_name": "㈜지유에너지 직영오렌지주유소",
        "distance": 1687.7440863646304,
        "walking_time": "약 26분"
      },
      {
        "gas_station_lat": 37.53326047,
        "gas_station_lon": 127.122008,
        "gas_station_type": "주유소",
        "gas_station_name": "㈜소모에너지앤 성내주유소",
        "distance": 2079.200445007711,
        "walking_time": "약 32분"
      },
      {
        "gas_station_lat": 37.53133149,
        "gas_station_lon": 127.121249,
        "gas_station_type": "주유소",
        "gas_station_name": "구도일주유소 코알라",
        "distance": 2284.149451370626,
        "walking_time": "약 35분"
      }
    ],
    "hospital": [
      {
        "hospital_lat": 37.54845435,
        "hospital_lon": 127.1360514,
        "hospital_type": "병원",
        "hospital_name": "이준호내과의원",
        "distance": 238.37301357446336,
        "walking_time": "약 4분"
      },
      {
        "hospital_lat": 37.54845435,
        "hospital_lon": 127.1360514,
        "hospital_type": "병원",
        "hospital_name": "천호우리치과의원",
        "distance": 238.37301357446336,
        "walking_time": "약 4분"
      },
      {
        "hospital_lat": 37.54793597,
        "hospital_lon": 127.1355407,
        "hospital_type": "병원",
        "hospital_name": "성일한의원",
        "distance": 242.89779701595097,
        "walking_time": "약 4분"
      },
      {
        "hospital_lat": 37.54805346,
        "hospital_lon": 127.1356133,
        "hospital_type": "병원",
        "hospital_name": "김창환산부인과의원",
        "distance": 243.2472386145262,
        "walking_time": "약 4분"
      },
      {
        "hospital_lat": 37.5482277,
        "hospital_lon": 127.1353175,
        "hospital_type": "병원",
        "hospital_name": "서울돌봄치과의원",
        "distance": 275.4944327488762,
        "walking_time": "약 5분"
      },
      {
        "hospital_lat": 37.54672703,
        "hospital_lon": 127.1348095,
        "hospital_type": "병원",
        "hospital_name": "명보한의원",
        "distance": 284.68452532298835,
        "walking_time": "약 5분"
      },
      {
        "hospital_lat": 37.54672703,
        "hospital_lon": 127.1348095,
        "hospital_type": "병원",
        "hospital_name": "미소나눔치과의원",
        "distance": 284.68452532298835,
        "walking_time": "약 5분"
      },
      {
        "hospital_lat": 37.54672703,
        "hospital_lon": 127.1348095,
        "hospital_type": "병원",
        "hospital_name": "서울정형외과의원",
        "distance": 284.68452532298835,
        "walking_time": "약 5분"
      },
      {
        "hospital_lat": 37.54698867,
        "hospital_lon": 127.1343449,
        "hospital_type": "병원",
        "hospital_name": "더나인의원",
        "distance": 324.17808237263364,
        "walking_time": "약 5분"
      },
      {
        "hospital_lat": 37.54698867,
        "hospital_lon": 127.1343449,
        "hospital_type": "병원",
        "hospital_name": "덕인한의원",
        "distance": 324.17808237263364,
        "walking_time": "약 5분"
      }
    ],
    "music_room": [
      {
        "music_room_lat": 37.54845435,
        "music_room_lon": 127.1360514,
        "music_room_type": "노래방",
        "music_room_name": "K Star 코인노래연습장",
        "distance": 238.37301357446336,
        "walking_time": "약 4분"
      },
      {
        "music_room_lat": 37.54819801,
        "music_room_lon": 127.1357486,
        "music_room_type": "노래방",
        "music_room_name": "축제 노래연습장",
        "distance": 241.49057281275307,
        "walking_time": "약 4분"
      },
      {
        "music_room_lat": 37.547682,
        "music_room_lon": 127.1348123,
        "music_room_type": "노래방",
        "music_room_name": "정화",
        "distance": 293.3477897790556,
        "walking_time": "약 5분"
      },
      {
        "music_room_lat": 37.54948609,
        "music_room_lon": 127.1366734,
        "music_room_type": "노래방",
        "music_room_name": "유성노래연습장",
        "distance": 302.302793332556,
        "walking_time": "약 5분"
      },
      {
        "music_room_lat": 37.54739781,
        "music_room_lon": 127.134587,
        "music_room_type": "노래방",
        "music_room_name": "땡겨노래연습장",
        "distance": 306.2674509369913,
        "walking_time": "약 5분"
      },
      {
        "music_room_lat": 37.54729718,
        "music_room_lon": 127.1345003,
        "music_room_type": "노래방",
        "music_room_name": "청개구리",
        "distance": 312.39309232917464,
        "walking_time": "약 5분"
      },
      {
        "music_room_lat": 37.54698867,
        "music_room_lon": 127.1343449,
        "music_room_type": "노래방",
        "music_room_name": "썬노래연습장",
        "distance": 324.17808237263364,
        "walking_time": "약 5분"
      },
      {
        "music_room_lat": 37.54896013,
        "music_room_lon": 127.1351504,
        "music_room_type": "노래방",
        "music_room_name": "J 노래연습장",
        "distance": 335.0402700506713,
        "walking_time": "약 6분"
      },
      {
        "music_room_lat": 37.55018245,
        "music_room_lon": 127.1374709,
        "music_room_type": "노래방",
        "music_room_name": "엔젤노래연습장",
        "distance": 358.6791297396774,
        "walking_time": "약 6분"
      },
      {
        "music_room_lat": 37.55024554,
        "music_room_lon": 127.1383781,
        "music_room_type": "노래방",
        "music_room_name": "풀잎노래연습장",
        "distance": 363.7459467080785,
        "walking_time": "약 6분"
      }
    ],
    "park": [
      {
        "park_lat": 37.5504807,
        "park_lon": 127.1471618,
        "park_type": "공원",
        "park_name": "샛마을근린공원",
        "distance": 894.543003704131,
        "walking_time": "약 14분"
      },
      {
        "park_lat": 37.5444741,
        "park_lon": 127.1263451,
        "park_type": "공원",
        "park_name": "천호근린공원",
        "distance": 1066.7007388535585,
        "walking_time": "약 16분"
      }
    ],
    "park_station": [
      {
        "park_station_lat": 37.54459923,
        "park_station_lon": 127.1366199,
        "park_station_type": "주차장",
        "park_station_name": "천호1동 주차장",
        "distance": 292.8226613379689,
        "walking_time": "약 5분"
      },
      {
        "park_station_lat": 37.55088357,
        "park_station_lon": 127.1428872,
        "park_station_type": "주차장",
        "park_station_name": "명일동 주차장",
        "distance": 609.707776162195,
        "walking_time": "약 10분"
      },
      {
        "park_station_lat": 37.55237587,
        "park_station_lon": 127.1350983,
        "park_station_type": "주차장",
        "park_station_name": "볕우물 공영주차장",
        "distance": 652.3489983137997,
        "walking_time": "약 10분"
      },
      {
        "park_station_lat": 37.55289,
        "park_station_lon": 127.1377215,
        "park_station_type": "주차장",
        "park_station_name": "암사1동 주차장",
        "distance": 656.9735477928783,
        "walking_time": "약 10분"
      },
      {
        "park_station_lat": 37.54307844,
        "park_station_lon": 127.1321772,
        "park_station_type": "주차장",
        "park_station_name": "고분다리 전통시장 공영주차장",
        "distance": 674.0713565288772,
        "walking_time": "약 11분"
      },
      {
        "park_station_lat": 37.54071205,
        "park_station_lon": 127.1341864,
        "park_station_type": "주차장",
        "park_station_name": "천호3동 제2공영주차장",
        "distance": 775.321424170262,
        "walking_time": "약 12분"
      },
      {
        "park_station_lat": 37.53891769,
        "park_station_lon": 127.1332432,
        "park_station_type": "주차장",
        "park_station_name": "천호3동 주차장",
        "distance": 991.2136769540972,
        "walking_time": "약 15분"
      },
      {
        "park_station_lat": 37.54478899,
        "park_station_lon": 127.1218776,
        "park_station_type": "주차장",
        "park_station_name": "천호유수지 주차장",
        "distance": 1444.1550389236488,
        "walking_time": "약 22분"
      },
      {
        "park_station_lat": 37.53850366,
        "park_station_lon": 127.1251117,
        "park_station_type": "주차장",
        "park_station_name": "천호역 공영주차장",
        "distance": 1478.2896363825398,
        "walking_time": "약 23분"
      },
      {
        "park_station_lat": 37.53902621,
        "park_station_lon": 127.1244576,
        "park_station_type": "주차장",
        "park_station_name": "공유) 12-나1100구간",
        "distance": 1487.851713113399,
        "walking_time": "약 23분"
      }
    ],
    "pc_room": [
      {
        "pc_room_lat": 37.5484151003879,
        "pc_room_lon": 127.135241872797,
        "pc_room_type": "PC방",
        "pc_room_name": "피에스타PC방(강동암사직영점)",
        "distance": 292.07363364341074,
        "walking_time": "약 5분"
      },
      {
        "pc_room_lat": 37.5441752463432,
        "pc_room_lon": 127.138374977732,
        "pc_room_type": "PC방",
        "pc_room_name": "PC Class J&S PC방",
        "distance": 314.1423602216103,
        "walking_time": "약 5분"
      },
      {
        "pc_room_lat": 37.5439366523799,
        "pc_room_lon": 127.137224986244,
        "pc_room_type": "PC방",
        "pc_room_name": "누나랑 PC할래",
        "distance": 346.3307951434286,
        "walking_time": "약 6분"
      },
      {
        "pc_room_lat": 37.550362119404,
        "pc_room_lon": 127.137845483212,
        "pc_room_type": "PC방",
        "pc_room_name": "꾸러기 PC",
        "distance": 375.6741638994299,
        "walking_time": "약 6분"
      },
      {
        "pc_room_lat": 37.5505680236251,
        "pc_room_lon": 127.138746210279,
        "pc_room_type": "PC방",
        "pc_room_name": "N-TOP PC방",
        "distance": 403.3325439167801,
        "walking_time": "약 7분"
      },
      {
        "pc_room_lat": 37.5433291703749,
        "pc_room_lon": 127.13748197924,
        "pc_room_type": "PC방",
        "pc_room_name": "프로게이머 PC방",
        "distance": 409.4539317842452,
        "walking_time": "약 7분"
      },
      {
        "pc_room_lat": 37.5459525227775,
        "pc_room_lon": 127.133552374339,
        "pc_room_type": "PC방",
        "pc_room_name": "오엑스 피씨(OX PC)천호동점",
        "distance": 410.4812657814445,
        "walking_time": "약 7분"
      },
      {
        "pc_room_lat": 37.5477400001926,
        "pc_room_lon": 127.133404605734,
        "pc_room_type": "PC방",
        "pc_room_name": "엔젤PC방",
        "distance": 415.606599419817,
        "walking_time": "약 7분"
      },
      {
        "pc_room_lat": 37.5465618086041,
        "pc_room_lon": 127.142841394568,
        "pc_room_type": "PC방",
        "pc_room_name": "비원(B1) PC방",
        "distance": 427.5016930193147,
        "walking_time": "약 7분"
      },
      {
        "pc_room_lat": 37.5464228103138,
        "pc_room_lon": 127.133183294497,
        "pc_room_type": "PC방",
        "pc_room_name": "인테크 PC방",
        "distance": 431.1685113702821,
        "walking_time": "약 7분"
      }
    ],
    "police_office": [
      {
        "police_office_lat": 37.55499636,
        "police_office_lon": 127.1407841,
        "police_office_type": "경찰소",
        "police_office_name": "암사지구대",
        "distance": 923.3410188691448,
        "walking_time": "약 14분"
      },
      {
        "police_office_lat": 37.54257321,
        "police_office_lon": 127.1207773,
        "police_office_type": "경찰소",
        "police_office_name": "천호지구대",
        "distance": 1597.5974657493246,
        "walking_time": "약 24분"
      }
    ],
    "post_office": [
      {
        "post_office_lat": 37.54537547,
        "post_office_lon": 127.1452012,
        "post_office_type": "우체국",
        "post_office_name": "서울명일삼익우편취급국",
        "distance": 657.7969449111415,
        "walking_time": "약 10분"
      },
      {
        "post_office_lat": 37.5401163,
        "post_office_lon": 127.136473,
        "post_office_type": "우체국",
        "post_office_name": "서울천호3동우편취급국",
        "distance": 776.0425726828431,
        "walking_time": "약 12분"
      },
      {
        "post_office_lat": 37.55578284,
        "post_office_lon": 127.1375673,
        "post_office_type": "우체국",
        "post_office_name": "서울암사3동우편취급국",
        "distance": 978.929373067302,
        "walking_time": "약 15분"
      },
      {
        "post_office_lat": 37.53637593,
        "post_office_lon": 127.1432061,
        "post_office_type": "우체국",
        "post_office_name": "서울강동우체국",
        "distance": 1265.282118779998,
        "walking_time": "약 19분"
      },
      {
        "post_office_lat": 37.54072766,
        "post_office_lon": 127.1254701,
        "post_office_type": "우체국",
        "post_office_name": "서울천호동우체국",
        "distance": 1307.2861735353629,
        "walking_time": "약 20분"
      },
      {
        "post_office_lat": 37.53279964,
        "post_office_lon": 127.1390214,
        "post_office_type": "우체국",
        "post_office_name": "서울둔촌2동우편취급국",
        "distance": 1579.9659986301615,
        "walking_time": "약 24분"
      },
      {
        "post_office_lat": 37.53334505,
        "post_office_lon": 127.1211601,
        "post_office_type": "우체국",
        "post_office_name": "서울풍납동우체국",
        "distance": 2123.9471675156487,
        "walking_time": "약 32분"
      }
    ],
    "public_health_center": [
      {
        "public_health_center_lat": 37.54684651,
        "public_health_center_lon": 127.1337755,
        "public_health_center_type": "보건소",
        "public_health_center_name": "천호보건지소",
        "distance": 374.7008808519917,
        "walking_time": "약 6분"
      }
    ],
    "school": [
      {
        "school_lat": 37.5477189664877,
        "school_lon": 127.136592330295,
        "school_type": "초등학교",
        "school_name": "서울천호초등학교",
        "distance": 150.06617323272476,
        "walking_time": "약 3분"
      },
      {
        "school_lat": 37.5465192580007,
        "school_lon": 127.139697961268,
        "school_type": "중학교",
        "school_name": "천호중학교",
        "distance": 156.62371986083062,
        "walking_time": "약 3분"
      },
      {
        "school_lat": 37.5498545397762,
        "school_lon": 127.141541303447,
        "school_type": "고등학교",
        "school_name": "성덕고등학교",
        "distance": 444.9337984225372,
        "walking_time": "약 7분"
      },
      {
        "school_lat": 37.5498545397762,
        "school_lon": 127.141541303447,
        "school_type": "중학교",
        "school_name": "성덕여자중학교",
        "distance": 444.9337984225372,
        "walking_time": "약 7분"
      },
      {
        "school_lat": 37.5443612197289,
        "school_lon": 127.133436718515,
        "school_type": "초등학교",
        "school_name": "서울천일초등학교",
        "distance": 498.63353568832594,
        "walking_time": "약 8분"
      },
      {
        "school_lat": 37.541015901733,
        "school_lon": 127.137828727405,
        "school_type": "초등학교",
        "school_name": "서울천동초등학교",
        "distance": 664.1189059430511,
        "walking_time": "약 10분"
      },
      {
        "school_lat": 37.5463638024947,
        "school_lon": 127.130187177341,
        "school_type": "초등학교",
        "school_name": "서울강동초등학교",
        "distance": 694.1929952157622,
        "walking_time": "약 11분"
      },
      {
        "school_lat": 37.5458447527249,
        "school_lon": 127.128196604109,
        "school_type": "중학교",
        "school_name": "천일중학교",
        "distance": 875.4806620016229,
        "walking_time": "약 14분"
      },
      {
        "school_lat": 37.5553453453104,
        "school_lon": 127.138008577115,
        "school_type": "중학교",
        "school_name": "강일중학교",
        "distance": 929.4619132121308,
        "walking_time": "약 14분"
      },
      {
        "school_lat": 37.554553599981,
        "school_lon": 127.142591145632,
        "school_type": "초등학교",
        "school_name": "서울명일초등학교",
        "distance": 932.867554646249,
        "walking_time": "약 14분"
      }
    ],
    "subway": [
      {
        "subway_lat": 37.5457314720664,
        "subway_lon": 127.142970847846,
        "subway_type": "지하철",
        "subway_name": "5호선-굽은다리(강동구민회관앞)역",
        "distance": 458.0755945949358,
        "walking_time": "약 7분"
      },
      {
        "subway_lat": 37.551257212513,
        "subway_lon": 127.144000696892,
        "subway_type": "지하철",
        "subway_name": "5호선-명일역",
        "distance": 709.4506800696334,
        "walking_time": "약 11분"
      },
      {
        "subway_lat": 37.5501403417224,
        "subway_lon": 127.127540246626,
        "subway_type": "지하철",
        "subway_name": "8호선-암사역",
        "distance": 988.3732732442804,
        "walking_time": "약 15분"
      },
      {
        "subway_lat": 37.5378115570072,
        "subway_lon": 127.13999920444,
        "subway_type": "지하철",
        "subway_name": "5호선-길동역",
        "distance": 1034.9934156021388,
        "walking_time": "약 16분"
      },
      {
        "subway_lat": 37.5572689182034,
        "subway_lon": 127.137592807465,
        "subway_type": "지하철",
        "subway_name": "8호선-암사역사공원역",
        "distance": 1143.9785581857234,
        "walking_time": "약 18분"
      },
      {
        "subway_lat": 37.5357793773303,
        "subway_lon": 127.132720388453,
        "subway_type": "지하철",
        "subway_name": "5호선-강동역",
        "distance": 1330.9566275881978,
        "walking_time": "약 20분"
      },
      {
        "subway_lat": 37.5393391659214,
        "subway_lon": 127.123301730964,
        "subway_type": "지하철",
        "subway_name": "5호선-천호(풍납토성)역",
        "distance": 1551.5914160136588,
        "walking_time": "약 24분"
      },
      {
        "subway_lat": 37.5393391659214,
        "subway_lon": 127.123301730964,
        "subway_type": "지하철",
        "subway_name": "8호선-천호(풍납토성)역",
        "distance": 1551.5914160136588,
        "walking_time": "약 24분"
      },
      {
        "subway_lat": 37.5306740877124,
        "subway_lon": 127.12057605164,
        "subway_type": "지하철",
        "subway_name": "8호선-강동구청역",
        "distance": 2378.28065261621,
        "walking_time": "약 36분"
      }
    ],
    "supermarket": [
      {
        "supermarket_lat": 37.54571459,
        "supermarket_lon": 127.1422553,
        "supermarket_type": "마트",
        "supermarket_name": "홈플러스 강동점",
        "distance": 399.1152945887189,
        "walking_time": "약 6분"
      },
      {
        "supermarket_lat": 37.55238065,
        "supermarket_lon": 127.1350988,
        "supermarket_type": "마트",
        "supermarket_name": "홈플러스(주) 익스프레스 암사점",
        "distance": 652.8198923989082,
        "walking_time": "약 10분"
      },
      {
        "supermarket_lat": 37.54260895,
        "supermarket_lon": 127.1436538,
        "supermarket_type": "마트",
        "supermarket_name": "동서울오네뜨상가",
        "distance": 695.3202753900953,
        "walking_time": "약 11분"
      },
      {
        "supermarket_lat": 37.55109534,
        "supermarket_lon": 127.144778,
        "supermarket_type": "마트",
        "supermarket_name": "(주)지에스리테일 명일점",
        "distance": 750.6546747247925,
        "walking_time": "약 12분"
      },
      {
        "supermarket_lat": 37.55525285,
        "supermarket_lon": 127.1403472,
        "supermarket_type": "마트",
        "supermarket_name": "(주)지에스리테일 암사캐슬점",
        "distance": 941.7548266167936,
        "walking_time": "약 15분"
      },
      {
        "supermarket_lat": 37.5385076,
        "supermarket_lon": 127.1363642,
        "supermarket_type": "마트",
        "supermarket_name": "롯데쇼핑㈜롯데슈퍼길동점",
        "distance": 954.0730467027036,
        "walking_time": "약 15분"
      },
      {
        "supermarket_lat": 37.53837539,
        "supermarket_lon": 127.140544,
        "supermarket_type": "마트",
        "supermarket_name": "홈플러스(주)익스프레스 길동점",
        "distance": 982.9907758785032,
        "walking_time": "약 15분"
      },
      {
        "supermarket_lat": 37.5520143,
        "supermarket_lon": 127.1494576,
        "supermarket_type": "마트",
        "supermarket_name": "(주)이마트에브리데이 명일동점",
        "distance": 1152.78282234404,
        "walking_time": "약 18분"
      },
      {
        "supermarket_lat": 37.53608469,
        "supermarket_lon": 127.137474,
        "supermarket_type": "마트",
        "supermarket_name": "강동한신휴플러스",
        "distance": 1213.1884809134356,
        "walking_time": "약 19분"
      },
      {
        "supermarket_lat": 37.54159201,
        "supermarket_lon": 127.1255364,
        "supermarket_type": "마트",
        "supermarket_name": "이천일아울렛 천호점",
        "distance": 1253.6106547163756,
        "walking_time": "약 19분"
      }
    ],
    "tax_office": [
      {
        "tax_office_lat": 37.53459594,
        "tax_office_lon": 127.1381166,
        "tax_office_type": "세무서",
        "tax_office_name": "강동세무서",
        "distance": 1377.7926879780262,
        "walking_time": "약 21분"
      }
    ],
    "theater": [
      {
        "theater_lat": 37.5457145865749,
        "theater_lon": 127.14225531407,
        "theater_type": "영화관",
        "theater_name": "CGV 천호",
        "distance": 399.1165895021246,
        "walking_time": "약 6분"
      },
      {
        "theater_lat": 37.5366333948264,
        "theater_lon": 127.125335580215,
        "theater_type": "영화관",
        "theater_name": "롯데시네마",
        "distance": 1605.1163677112377,
        "walking_time": "약 24분"
      }
    ]
  }
}