{
  "클러스터_위도": 37.515275,
  "클러스터_경도": 127.116196,
  "클러스터_level": 4.0,
  "facilities": {
    "bus": [
      {
        "bus_lat": 37.51499159,
        "bus_lon": 127.1153632,
        "bus_type": "버스정류장",
        "bus_name": "한성백제역4번출구",
        "distance": 79.92702786945878,
        "walking_time": "약 2분"
      },
      {
        "bus_lat": 37.51416401,
        "bus_lon": 127.1143672,
        "bus_type": "버스정류장",
        "bus_name": "방이중학교",
        "distance": 203.1715674534768,
        "walking_time": "약 4분"
      },
      {
        "bus_lat": 37.51707048,
        "bus_lon": 127.115008,
        "bus_type": "버스정류장",
        "bus_name": "올림픽공원평화의문",
        "distance": 225.47295955725065,
        "walking_time": "약 4분"
      },
      {
        "bus_lat": 37.51719976,
        "bus_lon": 127.1146313,
        "bus_type": "버스정류장",
        "bus_name": "몽촌토성역.한성백제역",
        "distance": 254.6583625382334,
        "walking_time": "약 4분"
      },
      {
        "bus_lat": 37.51482805,
        "bus_lon": 127.1191036,
        "bus_type": "버스정류장",
        "bus_name": "올림픽베어스타운아파트앞",
        "distance": 261.218958528148,
        "walking_time": "약 4분"
      },
      {
        "bus_lat": 37.51552827,
        "bus_lon": 127.1193031,
        "bus_type": "버스정류장",
        "bus_name": "한성백제박물관",
        "distance": 275.4853506917219,
        "walking_time": "약 5분"
      },
      {
        "bus_lat": 37.51541885,
        "bus_lon": 127.119601,
        "bus_type": "버스정류장",
        "bus_name": "한성백제박물관",
        "distance": 300.74235173209064,
        "walking_time": "약 5분"
      },
      {
        "bus_lat": 37.51704039,
        "bus_lon": 127.1136028,
        "bus_type": "버스정류장",
        "bus_name": "몽촌토성역.한성백제역",
        "distance": 301.4049503444722,
        "walking_time": "약 5분"
      },
      {
        "bus_lat": 37.51837037,
        "bus_lon": 127.1130099,
        "bus_type": "버스정류장",
        "bus_name": "몽촌토성역",
        "distance": 444.33079594569006,
        "walking_time": "약 7분"
      },
      {
        "bus_lat": 37.5118705,
        "bus_lon": 127.1191093,
        "bus_type": "버스정류장",
        "bus_name": "방이초등학교",
        "distance": 457.53268449377975,
        "walking_time": "약 7분"
      }
    ],
    "community_center": [
      {
        "community_center_lat": 37.5164187,
        "community_center_lon": 127.111305,
        "community_center_type": "주민센터",
        "community_center_name": "방이2동 자치회관",
        "distance": 449.7325243224215,
        "walking_time": "약 7분"
      },
      {
        "community_center_lat": 37.52010823,
        "community_center_lon": 127.1122446,
        "community_center_type": "주민센터",
        "community_center_name": "잠실4동 자치회관",
        "distance": 640.532770541323,
        "walking_time": "약 10분"
      },
      {
        "community_center_lat": 37.51097122,
        "community_center_lon": 127.1239058,
        "community_center_type": "주민센터",
        "community_center_name": "방이1동 자치회관",
        "distance": 831.5277680547733,
        "walking_time": "약 13분"
      },
      {
        "community_center_lat": 37.50626355,
        "community_center_lon": 127.1093124,
        "community_center_type": "주민센터",
        "community_center_name": "송파1동 자치회관",
        "distance": 1171.624889926618,
        "walking_time": "약 18분"
      },
      {
        "community_center_lat": 37.51811865,
        "community_center_lon": 127.1006399,
        "community_center_type": "주민센터",
        "community_center_name": "잠실6동 자치회관",
        "distance": 1407.968616836908,
        "walking_time": "약 22분"
      },
      {
        "community_center_lat": 37.50233682,
        "community_center_lon": 127.1167171,
        "community_center_type": "주민센터",
        "community_center_name": "송파2동 자치회관",
        "distance": 1439.3940570450409,
        "walking_time": "약 22분"
      },
      {
        "community_center_lat": 37.52923995,
        "community_center_lon": 127.1157303,
        "community_center_type": "주민센터",
        "community_center_name": "풍납2동 자치회관",
        "distance": 1553.3746240999556,
        "walking_time": "약 24분"
      },
      {
        "community_center_lat": 37.50356569,
        "community_center_lon": 127.1036892,
        "community_center_type": "주민센터",
        "community_center_name": "석촌동 자치회관",
        "distance": 1706.5264876218569,
        "walking_time": "약 26분"
      },
      {
        "community_center_lat": 37.50298784,
        "community_center_lon": 127.1280698,
        "community_center_type": "주민센터",
        "community_center_name": "오금동 자치회관",
        "distance": 1721.515943098559,
        "walking_time": "약 26분"
      }
    ],
    "convenience_store": [
      {
        "convenience_store_lat": 37.51426466,
        "convenience_store_lon": 127.1152695,
        "convenience_store_type": "편의점",
        "convenience_store_name": "GS25 방이삼형점",
        "distance": 138.92068239171553,
        "walking_time": "약 3분"
      },
      {
        "convenience_store_lat": 37.51528416,
        "convenience_store_lon": 127.1135815,
        "convenience_store_type": "편의점",
        "convenience_store_name": "미니스톱 방이올림픽점",
        "distance": 230.598042179109,
        "walking_time": "약 4분"
      },
      {
        "convenience_store_lat": 37.5163887,
        "convenience_store_lon": 127.1131983,
        "convenience_store_type": "편의점",
        "convenience_store_name": "CU 방이헤리츠점",
        "distance": 291.95672157141905,
        "walking_time": "약 5분"
      },
      {
        "convenience_store_lat": 37.51273126,
        "convenience_store_lon": 127.1146001,
        "convenience_store_type": "편의점",
        "convenience_store_name": "CU 방이파크점",
        "distance": 315.9394621521322,
        "walking_time": "약 5분"
      },
      {
        "convenience_store_lat": 37.51571936,
        "convenience_store_lon": 127.1115754,
        "convenience_store_type": "편의점",
        "convenience_store_name": "미니스톱 방이센타점",
        "distance": 410.5146792283666,
        "walking_time": "약 7분"
      },
      {
        "convenience_store_lat": 37.51219915,
        "convenience_store_lon": 127.1127946,
        "convenience_store_type": "편의점",
        "convenience_store_name": "GS25 방이도곡점",
        "distance": 454.95089972705136,
        "walking_time": "약 7분"
      },
      {
        "convenience_store_lat": 37.51562298,
        "convenience_store_lon": 127.1105896,
        "convenience_store_type": "편의점",
        "convenience_store_name": "세븐일레븐 방이스타점",
        "distance": 495.9883030541864,
        "walking_time": "약 8분"
      },
      {
        "convenience_store_lat": 37.51274729,
        "convenience_store_lon": 127.1114077,
        "convenience_store_type": "편의점",
        "convenience_store_name": "미니스톱 방이2점",
        "distance": 507.3083517848103,
        "walking_time": "약 8분"
      },
      {
        "convenience_store_lat": 37.51542154,
        "convenience_store_lon": 127.1102733,
        "convenience_store_type": "편의점",
        "convenience_store_name": "GS25 잠실점",
        "distance": 522.628696709226,
        "walking_time": "약 8분"
      },
      {
        "convenience_store_lat": 37.51203618,
        "convenience_store_lon": 127.1209667,
        "convenience_store_type": "편의점",
        "convenience_store_name": "CU 방이가락로점",
        "distance": 553.8557849850413,
        "walking_time": "약 9분"
      }
    ],
    "daycare": [
      {
        "daycare_lat": 37.51440211,
        "daycare_lon": 127.1174357,
        "daycare_type": "어린이집",
        "daycare_name": "이루리어린이집",
        "distance": 146.2060787242757,
        "walking_time": "약 3분"
      },
      {
        "daycare_lat": 37.51410934412496,
        "daycare_lon": 127.11517451469516,
        "daycare_type": "어린이집",
        "daycare_name": "벨라어린이집",
        "distance": 157.8514239283898,
        "walking_time": "약 3분"
      },
      {
        "daycare_lat": 37.51359793,
        "daycare_lon": 127.1148118,
        "daycare_type": "어린이집",
        "daycare_name": "아이큰숲어린이집",
        "distance": 222.8911152611296,
        "walking_time": "약 4분"
      },
      {
        "daycare_lat": 37.51314357317867,
        "daycare_lon": 127.11507351477955,
        "daycare_type": "어린이집",
        "daycare_name": "꼬마수피아어린이집",
        "distance": 256.8510742682652,
        "walking_time": "약 4분"
      },
      {
        "daycare_lat": 37.51287417,
        "daycare_lon": 127.1151801,
        "daycare_type": "어린이집",
        "daycare_name": "한빛 어린이집",
        "distance": 281.5960454054855,
        "walking_time": "약 5분"
      },
      {
        "daycare_lat": 37.51310971,
        "daycare_lon": 127.1145076,
        "daycare_type": "어린이집",
        "daycare_name": "베이비케어어린이집",
        "distance": 283.1009069304115,
        "walking_time": "약 5분"
      },
      {
        "daycare_lat": 37.51366976,
        "daycare_lon": 127.1190325,
        "daycare_type": "어린이집",
        "daycare_name": "또랑또랑몬테소리어린이집",
        "distance": 307.3266203419686,
        "walking_time": "약 5분"
      },
      {
        "daycare_lat": 37.51250377,
        "daycare_lon": 127.1178211,
        "daycare_type": "어린이집",
        "daycare_name": "방이금호어린이집",
        "distance": 339.8517244423652,
        "walking_time": "약 6분"
      },
      {
        "daycare_lat": 37.51260805,
        "daycare_lon": 127.1182712,
        "daycare_type": "어린이집",
        "daycare_name": "누리봄어린이집",
        "distance": 348.4880557096567,
        "walking_time": "약 6분"
      },
      {
        "daycare_lat": 37.51195672,
        "daycare_lon": 127.1185311,
        "daycare_type": "어린이집",
        "daycare_name": "노란풍차어린이집",
        "distance": 422.5656913367677,
        "walking_time": "약 7분"
      }
    ],
    "education": [
      {
        "education_lat": 37.51659259,
        "education_lon": 127.1139562,
        "education_type": "미술관/갤러리",
        "education_name": "뮤지엄한미 방이",
        "distance": 245.9459099598824,
        "walking_time": "약 4분"
      },
      {
        "education_lat": 37.51692066,
        "education_lon": 127.118167,
        "education_type": "미술관/갤러리",
        "education_name": "소마미술관",
        "distance": 252.39774802904097,
        "walking_time": "약 4분"
      },
      {
        "education_lat": 37.51543881335773,
        "education_lon": 127.12088940368128,
        "education_type": "박물관/기념관",
        "education_name": "한성백제박물관",
        "distance": 414.3527676230709,
        "walking_time": "약 7분"
      },
      {
        "education_lat": 37.5203397,
        "education_lon": 127.1155179,
        "education_type": "박물관/기념관",
        "education_name": "서울올림픽기념관",
        "distance": 566.3355621600583,
        "walking_time": "약 9분"
      },
      {
        "education_lat": 37.5203397,
        "education_lon": 127.1155179,
        "education_type": "박물관/기념관",
        "education_name": "서울백제어린이박물관",
        "distance": 566.3355621600583,
        "walking_time": "약 9분"
      },
      {
        "education_lat": 37.50945708,
        "education_lon": 127.1132204,
        "education_type": "미술관/갤러리",
        "education_name": "갤러리아리아",
        "distance": 698.1346882523188,
        "walking_time": "약 11분"
      },
      {
        "education_lat": 37.51061468,
        "education_lon": 127.1082343,
        "education_type": "미술관/갤러리",
        "education_name": "언바운드",
        "distance": 872.7362372919713,
        "walking_time": "약 14분"
      },
      {
        "education_lat": 37.51375196,
        "education_lon": 127.1044469,
        "education_type": "공연장",
        "education_name": "롯데콘서트홀",
        "distance": 1050.0146615352885,
        "walking_time": "약 16분"
      },
      {
        "education_lat": 37.5059055,
        "education_lon": 127.1097882,
        "education_type": "문화예술회관",
        "education_name": "송파문화여성회관",
        "distance": 1185.2758079074945,
        "walking_time": "약 18분"
      },
      {
        "education_lat": 37.52741656,
        "education_lon": 127.1180405,
        "education_type": "도서관",
        "education_name": "소나무언덕1호작은도서관",
        "distance": 1359.8444857568677,
        "walking_time": "약 21분"
      }
    ],
    "fitness": [
      {
        "fitness_lat": 37.51569253,
        "fitness_lon": 127.1164972,
        "fitness_type": "운동시설",
        "fitness_name": "윔 보행운동센터",
        "distance": 53.4902563007245,
        "walking_time": "약 1분"
      },
      {
        "fitness_lat": 37.51509044,
        "fitness_lon": 127.114799,
        "fitness_type": "운동시설",
        "fitness_name": "카인드짐",
        "distance": 124.91126094651476,
        "walking_time": "약 2분"
      },
      {
        "fitness_lat": 37.51426466,
        "fitness_lon": 127.1152695,
        "fitness_type": "운동시설",
        "fitness_name": "리라이프짐",
        "distance": 138.92068239171553,
        "walking_time": "약 3분"
      },
      {
        "fitness_lat": 37.51513284,
        "fitness_lon": 127.1181197,
        "fitness_type": "운동시설",
        "fitness_name": "Elite training center",
        "distance": 170.403001612391,
        "walking_time": "약 3분"
      },
      {
        "fitness_lat": 37.51391263,
        "fitness_lon": 127.1148171,
        "fitness_type": "운동시설",
        "fitness_name": "강 PT",
        "distance": 194.26748363529245,
        "walking_time": "약 3분"
      },
      {
        "fitness_lat": 37.51391263,
        "fitness_lon": 127.1148171,
        "fitness_type": "운동시설",
        "fitness_name": "뽀종월드",
        "distance": 194.26748363529245,
        "walking_time": "약 3분"
      },
      {
        "fitness_lat": 37.51645448,
        "fitness_lon": 127.1143195,
        "fitness_type": "운동시설",
        "fitness_name": "아이디얼바디(IDEAL BODY)",
        "distance": 211.16911720116465,
        "walking_time": "약 4분"
      },
      {
        "fitness_lat": 37.51661718,
        "fitness_lon": 127.1121771,
        "fitness_type": "운동시설",
        "fitness_name": "피지컬액티브짐 방이2호점",
        "distance": 384.5970145813812,
        "walking_time": "약 6분"
      },
      {
        "fitness_lat": 37.51590462,
        "fitness_lon": 127.1118488,
        "fitness_type": "운동시설",
        "fitness_name": "피지컬 액티브짐(3호점)",
        "distance": 389.7557189957283,
        "walking_time": "약 6분"
      },
      {
        "fitness_lat": 37.5165606,
        "fitness_lon": 127.1117936,
        "fitness_type": "운동시설",
        "fitness_name": "피지컬액티브짐",
        "distance": 413.7621510621407,
        "walking_time": "약 7분"
      }
    ],
    "gas_station": [
      {
        "gas_station_lat": 37.51261467,
        "gas_station_lon": 127.1140423,
        "gas_station_type": "주유소",
        "gas_station_name": "남성주유소",
        "distance": 351.5542083675177,
        "walking_time": "약 6분"
      },
      {
        "gas_station_lat": 37.5106973,
        "gas_station_lon": 127.1206916,
        "gas_station_type": "주유소",
        "gas_station_name": "방이주유소",
        "distance": 645.2328654274305,
        "walking_time": "약 10분"
      },
      {
        "gas_station_lat": 37.51106698,
        "gas_station_lon": 127.1110496,
        "gas_station_type": "주유소",
        "gas_station_name": "백제고분로주유소 (셀프)",
        "distance": 651.9070808062182,
        "walking_time": "약 10분"
      },
      {
        "gas_station_lat": 37.5063759,
        "gas_station_lon": 127.1066563,
        "gas_station_type": "주유소",
        "gas_station_name": "잠실주유소 (셀프)",
        "distance": 1298.923029367704,
        "walking_time": "약 20분"
      },
      {
        "gas_station_lat": 37.52701244,
        "gas_station_lon": 127.1180618,
        "gas_station_type": "주유소",
        "gas_station_name": "진양주유소",
        "distance": 1315.4757562018006,
        "walking_time": "약 20분"
      },
      {
        "gas_station_lat": 37.50255308,
        "gas_station_lon": 127.116428,
        "gas_station_type": "주유소",
        "gas_station_name": "송파주유소 (셀프)",
        "distance": 1414.7609691689772,
        "walking_time": "약 22분"
      },
      {
        "gas_station_lat": 37.50273441,
        "gas_station_lon": 127.1090104,
        "gas_station_type": "주유소",
        "gas_station_name": "잠실셀프주유소 (셀프)",
        "distance": 1531.7348938109071,
        "walking_time": "약 23분"
      }
    ],
    "hospital": [
      {
        "hospital_lat": 37.51561829,
        "hospital_lon": 127.1158626,
        "hospital_type": "병원",
        "hospital_name": "연세원의원",
        "distance": 48.18493860619815,
        "walking_time": "약 1분"
      },
      {
        "hospital_lat": 37.51569253,
        "hospital_lon": 127.1164972,
        "hospital_type": "병원",
        "hospital_name": "올림픽공원부부한의원",
        "distance": 53.4902563007245,
        "walking_time": "약 1분"
      },
      {
        "hospital_lat": 37.51569253,
        "hospital_lon": 127.1164972,
        "hospital_type": "병원",
        "hospital_name": "장덕수치과의원",
        "distance": 53.4902563007245,
        "walking_time": "약 1분"
      },
      {
        "hospital_lat": 37.51481583,
        "hospital_lon": 127.115607,
        "hospital_type": "병원",
        "hospital_name": "만당한의원",
        "distance": 72.8394221069008,
        "walking_time": "약 2분"
      },
      {
        "hospital_lat": 37.51481583,
        "hospital_lon": 127.115607,
        "hospital_type": "병원",
        "hospital_name": "만당한의원",
        "distance": 72.8394221069008,
        "walking_time": "약 2분"
      },
      {
        "hospital_lat": 37.51537219,
        "hospital_lon": 127.1148762,
        "hospital_type": "병원",
        "hospital_name": "포웰의원",
        "distance": 116.90530994305148,
        "walking_time": "약 2분"
      },
      {
        "hospital_lat": 37.5140457,
        "hospital_lon": 127.1149098,
        "hospital_type": "병원",
        "hospital_name": "예스한의원",
        "distance": 177.63396800524723,
        "walking_time": "약 3분"
      },
      {
        "hospital_lat": 37.51378506,
        "hospital_lon": 127.114705,
        "hospital_type": "병원",
        "hospital_name": "서울0.1치과의원",
        "distance": 211.52200758889143,
        "walking_time": "약 4분"
      },
      {
        "hospital_lat": 37.51336268,
        "hospital_lon": 127.1176304,
        "hospital_type": "병원",
        "hospital_name": "송파길신경외과의원",
        "distance": 247.43015734263147,
        "walking_time": "약 4분"
      },
      {
        "hospital_lat": 37.51549373,
        "hospital_lon": 127.1132998,
        "hospital_type": "병원",
        "hospital_name": "베스타의원",
        "distance": 256.5963132849731,
        "walking_time": "약 4분"
      }
    ],
    "music_room": [
      {
        "music_room_lat": 37.51415639,
        "music_room_lon": 127.1162493,
        "music_room_type": "노래방",
        "music_room_name": "달빛노래연습장",
        "distance": 124.4725619666837,
        "walking_time": "약 2분"
      },
      {
        "music_room_lat": 37.51373405,
        "music_room_lon": 127.1165648,
        "music_room_type": "노래방",
        "music_room_name": "짠짜라",
        "distance": 174.4060361490111,
        "walking_time": "약 3분"
      },
      {
        "music_room_lat": 37.51374736,
        "music_room_lon": 127.1173168,
        "music_room_type": "노래방",
        "music_room_name": "우리",
        "distance": 196.536403608256,
        "walking_time": "약 3분"
      },
      {
        "music_room_lat": 37.51289164,
        "music_room_lon": 127.1188798,
        "music_room_type": "노래방",
        "music_room_name": "큐노래연습장",
        "distance": 355.34033855423814,
        "walking_time": "약 6분"
      },
      {
        "music_room_lat": 37.51219915,
        "music_room_lon": 127.1127946,
        "music_room_type": "노래방",
        "music_room_name": "초이스노래연습장",
        "distance": 454.95089972705136,
        "walking_time": "약 7분"
      },
      {
        "music_room_lat": 37.51123856,
        "music_room_lon": 127.1152543,
        "music_room_type": "노래방",
        "music_room_name": "뉴스타노래연습장",
        "distance": 456.4522529402196,
        "walking_time": "약 7분"
      },
      {
        "music_room_lat": 37.51227825,
        "music_room_lon": 127.1197606,
        "music_room_type": "노래방",
        "music_room_name": "가자",
        "distance": 458.1321595219925,
        "walking_time": "약 7분"
      },
      {
        "music_room_lat": 37.51155967,
        "music_room_lon": 127.1138707,
        "music_room_type": "노래방",
        "music_room_name": "도깨비코인노래연습장",
        "distance": 461.233604391789,
        "walking_time": "약 7분"
      },
      {
        "music_room_lat": 37.51131995,
        "music_room_lon": 127.1144831,
        "music_room_type": "노래방",
        "music_room_name": "MBC노래연습장",
        "distance": 465.00844710220974,
        "walking_time": "약 7분"
      },
      {
        "music_room_lat": 37.51238682,
        "music_room_lon": 127.1123311,
        "music_room_type": "노래방",
        "music_room_name": "궁노래연습장",
        "distance": 468.3389210256087,
        "walking_time": "약 7분"
      }
    ],
    "park": [
      {
        "park_lat": 37.520934,
        "park_lon": 127.122959,
        "park_type": "공원",
        "park_name": "올림픽공원",
        "distance": 867.0235636998796,
        "walking_time": "약 13분"
      }
    ],
    "park_station": [
      {
        "park_station_lat": 37.51504456,
        "park_station_lon": 127.1157379,
        "park_station_type": "주차장",
        "park_station_name": "대승유료주차장",
        "distance": 47.84407404681933,
        "walking_time": "약 1분"
      },
      {
        "park_station_lat": 37.51375281,
        "park_station_lon": 127.1137684,
        "park_station_type": "주차장",
        "park_station_name": "방이동 공영주차장",
        "distance": 272.9350269659573,
        "walking_time": "약 5분"
      },
      {
        "park_station_lat": 37.51494882,
        "park_station_lon": 127.1194979,
        "park_station_type": "주차장",
        "park_station_name": "위례성길",
        "distance": 293.47415531549024,
        "walking_time": "약 5분"
      },
      {
        "park_station_lat": 37.511556,
        "park_station_lon": 127.1135691,
        "park_station_type": "주차장",
        "park_station_name": "삼성주차장",
        "distance": 474.0179317341589,
        "walking_time": "약 8분"
      },
      {
        "park_station_lat": 37.5079307,
        "park_station_lon": 127.1180913,
        "park_station_type": "주차장",
        "park_station_name": "방이고분",
        "distance": 833.5836590668239,
        "walking_time": "약 13분"
      },
      {
        "park_station_lat": 37.51210526,
        "park_station_lon": 127.1260835,
        "park_station_type": "주차장",
        "park_station_name": "가락주차장",
        "distance": 940.6159764237908,
        "walking_time": "약 15분"
      },
      {
        "park_station_lat": 37.50702621,
        "park_station_lon": 127.1133659,
        "park_station_type": "주차장",
        "park_station_name": "송파동",
        "distance": 950.5850323350636,
        "walking_time": "약 15분"
      },
      {
        "park_station_lat": 37.50632775,
        "park_station_lon": 127.1178797,
        "park_station_type": "주차장",
        "park_station_name": "공유) 12-37",
        "distance": 1005.9118928677505,
        "walking_time": "약 16분"
      },
      {
        "park_station_lat": 37.50914917,
        "park_station_lon": 127.1077667,
        "park_station_type": "주차장",
        "park_station_name": "부영주차장",
        "distance": 1008.3403441976218,
        "walking_time": "약 16분"
      },
      {
        "park_station_lat": 37.51678523,
        "park_station_lon": 127.1048071,
        "park_station_type": "주차장",
        "park_station_name": "성내역 공영주차장",
        "distance": 1018.4179819451224,
        "walking_time": "약 16분"
      }
    ],
    "pc_room": [
      {
        "pc_room_lat": 37.5137340469481,
        "pc_room_lon": 127.11656482329,
        "pc_room_type": "PC방",
        "pc_room_name": "캐리피씨",
        "distance": 174.4067526785333,
        "walking_time": "약 3분"
      },
      {
        "pc_room_lat": 37.5135781589756,
        "pc_room_lon": 127.117760154013,
        "pc_room_type": "PC방",
        "pc_room_name": "와드PC",
        "distance": 233.73622522742548,
        "walking_time": "약 4분"
      },
      {
        "pc_room_lat": 37.5114655181139,
        "pc_room_lon": 127.114054055606,
        "pc_room_type": "PC방",
        "pc_room_name": "쿨라인",
        "distance": 463.8148488492885,
        "walking_time": "약 7분"
      },
      {
        "pc_room_lat": 37.5112093489668,
        "pc_room_lon": 127.114719523615,
        "pc_room_type": "PC방",
        "pc_room_name": "룰루",
        "distance": 470.4627435500898,
        "walking_time": "약 8분"
      },
      {
        "pc_room_lat": 37.5124962447277,
        "pc_room_lon": 127.112100318854,
        "pc_room_type": "PC방",
        "pc_room_name": "오렌지PC방",
        "distance": 475.3586277850458,
        "walking_time": "약 8분"
      },
      {
        "pc_room_lat": 37.5110443394104,
        "pc_room_lon": 127.115126679684,
        "pc_room_type": "PC방",
        "pc_room_name": "인터파이오니아",
        "distance": 479.7894365771487,
        "walking_time": "약 8분"
      },
      {
        "pc_room_lat": 37.5110492648692,
        "pc_room_lon": 127.118975805301,
        "pc_room_type": "PC방",
        "pc_room_name": "엔조이",
        "distance": 530.0018417021649,
        "walking_time": "약 8분"
      },
      {
        "pc_room_lat": 37.5110492648692,
        "pc_room_lon": 127.118975805301,
        "pc_room_type": "PC방",
        "pc_room_name": "톰과제리",
        "distance": 530.0018417021649,
        "walking_time": "약 8분"
      },
      {
        "pc_room_lat": 37.5110346904453,
        "pc_room_lon": 127.112989070614,
        "pc_room_type": "PC방",
        "pc_room_name": "에코스PC방",
        "distance": 549.8366054655891,
        "walking_time": "약 9분"
      },
      {
        "pc_room_lat": 37.5100660528881,
        "pc_room_lon": 127.117662908316,
        "pc_room_type": "PC방",
        "pc_room_name": "아이비",
        "distance": 593.4835471506622,
        "walking_time": "약 9분"
      }
    ],
    "police_office": [
      {
        "police_office_lat": 37.52016812,
        "police_office_lon": 127.1125549,
        "police_office_type": "경찰소",
        "police_office_name": "신천파출소",
        "distance": 631.7900386829738,
        "walking_time": "약 10분"
      },
      {
        "police_office_lat": 37.51024991,
        "police_office_lon": 127.1257464,
        "police_office_type": "경찰소",
        "police_office_name": "방이지구대",
        "distance": 1010.8373220502882,
        "walking_time": "약 16분"
      },
      {
        "police_office_lat": 37.50689952,
        "police_office_lon": 127.128101,
        "police_office_type": "경찰소",
        "police_office_name": "오금파출소",
        "distance": 1403.5591228546125,
        "walking_time": "약 21분"
      },
      {
        "police_office_lat": 37.52867754,
        "police_office_lon": 127.1269574,
        "police_office_type": "경찰소",
        "police_office_name": "성내지구대",
        "distance": 1766.8298461847153,
        "walking_time": "약 27분"
      }
    ],
    "post_office": [
      {
        "post_office_lat": 37.52012204,
        "post_office_lon": 127.1124093,
        "post_office_type": "우체국",
        "post_office_name": "서울잠실4동우체국",
        "distance": 634.0517842415528,
        "walking_time": "약 10분"
      },
      {
        "post_office_lat": 37.50898861,
        "post_office_lon": 127.1151301,
        "post_office_type": "우체국",
        "post_office_name": "서울방이동우체국",
        "distance": 705.3086917658442,
        "walking_time": "약 11분"
      },
      {
        "post_office_lat": 37.5059055,
        "post_office_lon": 127.1097882,
        "post_office_type": "우체국",
        "post_office_name": "서울송파1동우체국",
        "distance": 1185.2758079074945,
        "walking_time": "약 18분"
      },
      {
        "post_office_lat": 37.52517113,
        "post_office_lon": 127.1093805,
        "post_office_type": "우체국",
        "post_office_name": "서울아산병원우편취급국",
        "distance": 1253.8640774018772,
        "walking_time": "약 19분"
      },
      {
        "post_office_lat": 37.50821281,
        "post_office_lon": 127.1274412,
        "post_office_type": "우체국",
        "post_office_name": "서울오금대림우편취급국",
        "distance": 1265.0893178354247,
        "walking_time": "약 19분"
      },
      {
        "post_office_lat": 37.52710795,
        "post_office_lon": 127.1158745,
        "post_office_type": "우체국",
        "post_office_name": "서울풍납2동우편취급국",
        "distance": 1316.0694713511984,
        "walking_time": "약 20분"
      },
      {
        "post_office_lat": 37.51733948,
        "post_office_lon": 127.1007161,
        "post_office_type": "우체국",
        "post_office_name": "서울장미아파트우편취급국",
        "distance": 1384.4545443922602,
        "walking_time": "약 21분"
      },
      {
        "post_office_lat": 37.50277096,
        "post_office_lon": 127.116404,
        "post_office_type": "우체국",
        "post_office_name": "서울송파한양우편취급국",
        "distance": 1390.5068538498392,
        "walking_time": "약 21분"
      },
      {
        "post_office_lat": 37.52798058,
        "post_office_lon": 127.1276549,
        "post_office_type": "우체국",
        "post_office_name": "서울성내1동우편취급국",
        "distance": 1737.0248221507777,
        "walking_time": "약 26분"
      },
      {
        "post_office_lat": 37.50257386,
        "post_office_lon": 127.128043,
        "post_office_type": "우체국",
        "post_office_name": "서울송파우체국",
        "distance": 1756.8670053149383,
        "walking_time": "약 27분"
      }
    ],
    "public_health_center": [
      {
        "public_health_center_lat": 37.51447718,
        "public_health_center_lon": 127.10586,
        "public_health_center_type": "보건소",
        "public_health_center_name": "송파구보건소",
        "distance": 915.9341777572618,
        "walking_time": "약 14분"
      },
      {
        "public_health_center_lat": 37.52954199,
        "public_health_center_lon": 127.1255855,
        "public_health_center_type": "보건소",
        "public_health_center_name": "강동구보건소",
        "distance": 1789.5273002704005,
        "walking_time": "약 27분"
      }
    ],
    "school": [
      {
        "school_lat": 37.5149508047144,
        "school_lon": 127.113373673739,
        "school_type": "중학교",
        "school_name": "방이중학교",
        "distance": 251.5230858550493,
        "walking_time": "약 4분"
      },
      {
        "school_lat": 37.513512293639,
        "school_lon": 127.120531131015,
        "school_type": "초등학교",
        "school_name": "서울방이초등학교",
        "distance": 429.6686697651327,
        "walking_time": "약 7분"
      },
      {
        "school_lat": 37.5201410422976,
        "school_lon": 127.110799789543,
        "school_type": "초등학교",
        "school_name": "서울잠실초등학교",
        "distance": 720.604079672847,
        "walking_time": "약 11분"
      },
      {
        "school_lat": 37.5095379215333,
        "school_lon": 127.121190696197,
        "school_type": "초등학교",
        "school_name": "서울방산초등학교",
        "distance": 775.2665012954816,
        "walking_time": "약 12분"
      },
      {
        "school_lat": 37.5093439082296,
        "school_lon": 127.121567809411,
        "school_type": "중학교",
        "school_name": "방산중학교",
        "distance": 812.0603923861047,
        "walking_time": "약 13분"
      },
      {
        "school_lat": 37.5083995194679,
        "school_lon": 127.120469638696,
        "school_type": "고등학교",
        "school_name": "방산고등학교",
        "distance": 852.395353955599,
        "walking_time": "약 13분"
      },
      {
        "school_lat": 37.5069549745149,
        "school_lon": 127.111247174893,
        "school_type": "초등학교",
        "school_name": "서울송파초등학교",
        "distance": 1022.9511508016906,
        "walking_time": "약 16분"
      },
      {
        "school_lat": 37.5253505135011,
        "school_lon": 127.115628322635,
        "school_type": "중학교",
        "school_name": "풍납중학교",
        "distance": 1121.464060396072,
        "walking_time": "약 17분"
      },
      {
        "school_lat": 37.5252777887983,
        "school_lon": 127.113130689958,
        "school_type": "중학교",
        "school_name": "풍성중학교",
        "distance": 1144.641365947704,
        "walking_time": "약 18분"
      },
      {
        "school_lat": 37.522930433109,
        "school_lon": 127.106515037791,
        "school_type": "고등학교",
        "school_name": "잠실고등학교",
        "distance": 1205.6544399070742,
        "walking_time": "약 18분"
      }
    ],
    "self_laundromat": [
      {
        "self_laundromat_lat": 37.51033097,
        "self_laundromat_lon": 127.1170047,
        "self_laundromat_type": "셀프 빨래방",
        "self_laundromat_name": "더런드리셀프빨래방 방이점",
        "distance": 554.3590988208244,
        "walking_time": "약 9분"
      },
      {
        "self_laundromat_lat": 37.51033097,
        "self_laundromat_lon": 127.1170047,
        "self_laundromat_type": "셀프 빨래방",
        "self_laundromat_name": "더런드리셀프빨래방 방이점",
        "distance": 554.3590988208244,
        "walking_time": "약 9분"
      },
      {
        "self_laundromat_lat": 37.50752987,
        "self_laundromat_lon": 127.1136474,
        "self_laundromat_type": "셀프 빨래방",
        "self_laundromat_name": "워시팡팡 셀프빨래방 24시 송파점",
        "distance": 890.0737682879708,
        "walking_time": "약 14분"
      },
      {
        "self_laundromat_lat": 37.50752987,
        "self_laundromat_lon": 127.1136474,
        "self_laundromat_type": "셀프 빨래방",
        "self_laundromat_name": "워시팡팡 셀프빨래방 24시 송파점",
        "distance": 890.0737682879708,
        "walking_time": "약 14분"
      },
      {
        "self_laundromat_lat": 37.50770698,
        "self_laundromat_lon": 127.1223366,
        "self_laundromat_type": "셀프 빨래방",
        "self_laundromat_name": "코인워시24셀프빨래방 방이1동점",
        "distance": 1000.7589513711164,
        "walking_time": "약 15분"
      },
      {
        "self_laundromat_lat": 37.50770698,
        "self_laundromat_lon": 127.1223366,
        "self_laundromat_type": "셀프 빨래방",
        "self_laundromat_name": "코인워시24셀프빨래방 방이1동점",
        "distance": 1000.7589513711164,
        "walking_time": "약 15분"
      },
      {
        "self_laundromat_lat": 37.50397122,
        "self_laundromat_lon": 127.1114248,
        "self_laundromat_type": "셀프 빨래방",
        "self_laundromat_name": "더런드리셀프빨래방 송파동점",
        "distance": 1325.5062447576092,
        "walking_time": "약 20분"
      },
      {
        "self_laundromat_lat": 37.50397122,
        "self_laundromat_lon": 127.1114248,
        "self_laundromat_type": "셀프 빨래방",
        "self_laundromat_name": "더런드리셀프빨래방 송파동점",
        "distance": 1325.5062447576092,
        "walking_time": "약 20분"
      },
      {
        "self_laundromat_lat": 37.50535709,
        "self_laundromat_lon": 127.1012751,
        "self_laundromat_type": "셀프 빨래방",
        "self_laundromat_name": "버블존 24시코인워시빨래방",
        "distance": 1717.066096716742,
        "walking_time": "약 26분"
      },
      {
        "self_laundromat_lat": 37.50535709,
        "self_laundromat_lon": 127.1012751,
        "self_laundromat_type": "셀프 빨래방",
        "self_laundromat_name": "버블존 24시코인워시빨래방",
        "distance": 1717.066096716742,
        "walking_time": "약 26분"
      }
    ],
    "subway": [
      {
        "subway_lat": 37.5164647953901,
        "subway_lon": 127.116303251765,
        "subway_type": "지하철",
        "subway_name": "9호선-한성백제역",
        "distance": 132.63695403779167,
        "walking_time": "약 2분"
      },
      {
        "subway_lat": 37.5176236317445,
        "subway_lon": 127.112429917071,
        "subway_type": "지하철",
        "subway_name": "8호선-몽촌토성(평화의문)역",
        "distance": 422.53036783560566,
        "walking_time": "약 7분"
      },
      {
        "subway_lat": 37.5104581017222,
        "subway_lon": 127.112744120149,
        "subway_type": "지하철",
        "subway_name": "9호선-송파나루역",
        "distance": 616.1005484289832,
        "walking_time": "약 10분"
      },
      {
        "subway_lat": 37.5149771693164,
        "subway_lon": 127.10421637903,
        "subway_type": "지하철",
        "subway_name": "8호선-잠실(송파구청)역",
        "distance": 1057.1093828308608,
        "walking_time": "약 16분"
      },
      {
        "subway_lat": 37.5085564458698,
        "subway_lon": 127.125854699016,
        "subway_type": "지하철",
        "subway_name": "5호선-방이역",
        "distance": 1133.0874111085234,
        "walking_time": "약 17분"
      },
      {
        "subway_lat": 37.5206867318088,
        "subway_lon": 127.103811089444,
        "subway_type": "지하철",
        "subway_name": "2호선-잠실나루역",
        "distance": 1247.0844688508505,
        "walking_time": "약 19분"
      },
      {
        "subway_lat": 37.513859279255,
        "subway_lon": 127.101857941447,
        "subway_type": "지하철",
        "subway_name": "2호선-잠실(송파구청)역",
        "distance": 1274.3721404349196,
        "walking_time": "약 20분"
      },
      {
        "subway_lat": 37.5059496431187,
        "subway_lon": 127.106345349428,
        "subway_type": "지하철",
        "subway_name": "8호선-석촌역",
        "distance": 1352.8354783300122,
        "walking_time": "약 21분"
      },
      {
        "subway_lat": 37.5059496431187,
        "subway_lon": 127.106345349428,
        "subway_type": "지하철",
        "subway_name": "9호선-석촌역",
        "distance": 1352.8354783300122,
        "walking_time": "약 21분"
      },
      {
        "subway_lat": 37.5022659793733,
        "subway_lon": 127.127879247544,
        "subway_type": "지하철",
        "subway_name": "3호선-오금역",
        "distance": 1776.0852967482845,
        "walking_time": "약 27분"
      }
    ],
    "supermarket": [
      {
        "supermarket_lat": 37.51249624,
        "supermarket_lon": 127.1121003,
        "supermarket_type": "마트",
        "supermarket_name": "GS THE FRESH 송파나루역점",
        "distance": 475.3602332146635,
        "walking_time": "약 8분"
      },
      {
        "supermarket_lat": 37.51422319,
        "supermarket_lon": 127.1092233,
        "supermarket_type": "마트",
        "supermarket_name": "롯데쇼핑(주)롯데슈퍼방이점",
        "distance": 626.0105487537828,
        "walking_time": "약 10분"
      },
      {
        "supermarket_lat": 37.50636817,
        "supermarket_lon": 127.1167393,
        "supermarket_type": "마트",
        "supermarket_name": "홈플러스(주) 익스프레스 송파점",
        "distance": 991.5529915340032,
        "walking_time": "약 15분"
      },
      {
        "supermarket_lat": 37.51371299,
        "supermarket_lon": 127.1043018,
        "supermarket_type": "마트",
        "supermarket_name": "롯데하이마트 월드타워점",
        "distance": 1063.346358714984,
        "walking_time": "약 16분"
      },
      {
        "supermarket_lat": 37.51371299,
        "supermarket_lon": 127.1043018,
        "supermarket_type": "마트",
        "supermarket_name": "롯데월드몰",
        "distance": 1063.346358714984,
        "walking_time": "약 16분"
      },
      {
        "supermarket_lat": 37.51371299,
        "supermarket_lon": 127.1043018,
        "supermarket_type": "마트",
        "supermarket_name": "롯데쇼핑(주) 롯데마트 월드타워점",
        "distance": 1063.346358714984,
        "walking_time": "약 16분"
      },
      {
        "supermarket_lat": 37.50733798,
        "supermarket_lon": 127.1231562,
        "supermarket_type": "마트",
        "supermarket_name": "(주)지에스리테일 방이점",
        "distance": 1075.0796156490326,
        "walking_time": "약 17분"
      },
      {
        "supermarket_lat": 37.50516461,
        "supermarket_lon": 127.1145255,
        "supermarket_type": "마트",
        "supermarket_name": "한화 송파지점",
        "distance": 1133.8388966250025,
        "walking_time": "약 17분"
      },
      {
        "supermarket_lat": 37.50516461,
        "supermarket_lon": 127.1145255,
        "supermarket_type": "마트",
        "supermarket_name": "롯데쇼핑(주)롯데슈퍼송파점",
        "distance": 1133.8388966250025,
        "walking_time": "약 17분"
      },
      {
        "supermarket_lat": 37.50995749,
        "supermarket_lon": 127.1275468,
        "supermarket_type": "마트",
        "supermarket_name": "올림픽파크동부센트레빌 상가",
        "distance": 1162.729177581265,
        "walking_time": "약 18분"
      }
    ],
    "tax_office": [
      {
        "tax_office_lat": 37.52669065,
        "tax_office_lon": 127.1135015,
        "tax_office_type": "세무서",
        "tax_office_name": "송파세무서",
        "distance": 1291.4141505639411,
        "walking_time": "약 20분"
      },
      {
        "tax_office_lat": 37.52669065,
        "tax_office_lon": 127.1135015,
        "tax_office_type": "세무서",
        "tax_office_name": "잠실세무서",
        "distance": 1291.4141505639411,
        "walking_time": "약 20분"
      }
    ],
    "theater": [
      {
        "theater_lat": 37.5137129859207,
        "theater_lon": 127.104301829165,
        "theater_type": "영화관",
        "theater_name": "롯데시네마 월드타워",
        "distance": 1063.343895036436,
        "walking_time": "약 16분"
      },
      {
        "theater_lat": 37.5284455288195,
        "theater_lon": 127.125357402766,
        "theater_type": "영화관",
        "theater_name": "메가박스 강동",
        "distance": 1672.584069765543,
        "walking_time": "약 25분"
      }
    ],
    "university": [
      {
        "university_lat": 37.5198703733617,
        "university_lon": 127.129660488669,
        "university_type": "대학교",
        "university_name": "한국체육대학교",
        "distance": 1292.7860035411363,
        "walking_time": "약 20분"
      }
    ]
  }
}