{
  "클러스터_위도": 37.65673100000001,
  "클러스터_경도": 127.038266,
  "클러스터_level": 4.0,
  "facilities": {
    "bus": [
      {
        "bus_lat": 37.65715781,
        "bus_lon": 127.037699,
        "bus_type": "버스정류장",
        "bus_name": "도봉구보건소앞",
        "distance": 68.87480348167193,
        "walking_time": "약 2분"
      },
      {
        "bus_lat": 37.65738215,
        "bus_lon": 127.0377807,
        "bus_type": "버스정류장",
        "bus_name": "도봉구보건소앞",
        "distance": 84.06868505227405,
        "walking_time": "약 2분"
      },
      {
        "bus_lat": 37.65724582,
        "bus_lon": 127.0375307,
        "bus_type": "버스정류장",
        "bus_name": "도봉구보건소앞",
        "distance": 86.41126853168575,
        "walking_time": "약 2분"
      },
      {
        "bus_lat": 37.65743898,
        "bus_lon": 127.0375892,
        "bus_type": "버스정류장",
        "bus_name": "도봉구보건소앞",
        "distance": 98.7275683188594,
        "walking_time": "약 2분"
      },
      {
        "bus_lat": 37.65751282,
        "bus_lon": 127.0402286,
        "bus_type": "버스정류장",
        "bus_name": "도봉보건소",
        "distance": 193.40857739322465,
        "walking_time": "약 3분"
      },
      {
        "bus_lat": 37.65791384,
        "bus_lon": 127.0399994,
        "bus_type": "버스정류장",
        "bus_name": "도봉보건소",
        "distance": 201.4533848560635,
        "walking_time": "약 4분"
      },
      {
        "bus_lat": 37.65482027,
        "bus_lon": 127.0381421,
        "bus_type": "버스정류장",
        "bus_name": "도봉구민회관.도봉문화원",
        "distance": 212.74326984529625,
        "walking_time": "약 4분"
      },
      {
        "bus_lat": 37.65562295,
        "bus_lon": 127.0404004,
        "bus_type": "버스정류장",
        "bus_name": "창5동현대아파트",
        "distance": 224.68940917064555,
        "walking_time": "약 4분"
      },
      {
        "bus_lat": 37.65587,
        "bus_lon": 127.040602,
        "bus_type": "버스정류장",
        "bus_name": "창5동현대1차아파트",
        "distance": 226.83639439643213,
        "walking_time": "약 4분"
      },
      {
        "bus_lat": 37.65455985,
        "bus_lon": 127.0381737,
        "bus_type": "버스정류장",
        "bus_name": "도봉구민회관.도봉문화원",
        "distance": 241.55756333870772,
        "walking_time": "약 4분"
      }
    ],
    "community_center": [
      {
        "community_center_lat": 37.65793243,
        "community_center_lon": 127.0388203,
        "community_center_type": "주민센터",
        "community_center_name": "쌍문2동 자치회관",
        "distance": 142.22538052381606,
        "walking_time": "약 3분"
      },
      {
        "community_center_lat": 37.65633441,
        "community_center_lon": 127.0435868,
        "community_center_type": "주민센터",
        "community_center_name": "창5동 자치회관",
        "distance": 470.4698880167028,
        "walking_time": "약 8분"
      },
      {
        "community_center_lat": 37.65997188,
        "community_center_lon": 127.0454202,
        "community_center_type": "주민센터",
        "community_center_name": "창4동 자치회관",
        "distance": 725.5958319359429,
        "walking_time": "약 11분"
      },
      {
        "community_center_lat": 37.66422859,
        "community_center_lon": 127.0406591,
        "community_center_type": "주민센터",
        "community_center_name": "방학1동 자치회관",
        "distance": 859.8965666077445,
        "walking_time": "약 13분"
      },
      {
        "community_center_lat": 37.65646373,
        "community_center_lon": 127.0284052,
        "community_center_type": "주민센터",
        "community_center_name": "쌍문4동 자치회관",
        "distance": 868.5698726654038,
        "walking_time": "약 13분"
      },
      {
        "community_center_lat": 37.65917578,
        "community_center_lon": 127.0280107,
        "community_center_type": "주민센터",
        "community_center_name": "방학3동 자치회관",
        "distance": 942.8151369266106,
        "walking_time": "약 15분"
      },
      {
        "community_center_lat": 37.64837711,
        "community_center_lon": 127.0438238,
        "community_center_type": "주민센터",
        "community_center_name": "창1동 자치회관",
        "distance": 1049.8938710529133,
        "walking_time": "약 16분"
      },
      {
        "community_center_lat": 37.64898155,
        "community_center_lon": 127.0279211,
        "community_center_type": "주민센터",
        "community_center_name": "쌍문3동 자치회관",
        "distance": 1253.771461212553,
        "walking_time": "약 19분"
      },
      {
        "community_center_lat": 37.66821354,
        "community_center_lon": 127.0350512,
        "community_center_type": "주민센터",
        "community_center_name": "방학2동 자치회관",
        "distance": 1307.783308840815,
        "walking_time": "약 20분"
      },
      {
        "community_center_lat": 37.64803784,
        "community_center_lon": 127.0260513,
        "community_center_type": "주민센터",
        "community_center_name": "쌍문1동 자치회관",
        "distance": 1445.938888539871,
        "walking_time": "약 22분"
      }
    ],
    "convenience_store": [
      {
        "convenience_store_lat": 37.656669,
        "convenience_store_lon": 127.039057,
        "convenience_store_type": "편의점",
        "convenience_store_name": "CU 쌍문사거리점",
        "distance": 69.97328867297968,
        "walking_time": "약 2분"
      },
      {
        "convenience_store_lat": 37.65620553,
        "convenience_store_lon": 127.0373954,
        "convenience_store_type": "편의점",
        "convenience_store_name": "GS25 쌍문보람점",
        "distance": 96.37305632109435,
        "walking_time": "약 2분"
      },
      {
        "convenience_store_lat": 37.65530592,
        "convenience_store_lon": 127.037598,
        "convenience_store_type": "편의점",
        "convenience_store_name": "GS25 쌍문명준점",
        "distance": 169.02126694717316,
        "walking_time": "약 3분"
      },
      {
        "convenience_store_lat": 37.65536153,
        "convenience_store_lon": 127.0358057,
        "convenience_store_type": "편의점",
        "convenience_store_name": "CU 쌍문백운점",
        "distance": 264.7601482428545,
        "walking_time": "약 4분"
      },
      {
        "convenience_store_lat": 37.65693863,
        "convenience_store_lon": 127.0415177,
        "convenience_store_type": "편의점",
        "convenience_store_name": "GS25 도봉신동아점",
        "distance": 287.1807437562836,
        "walking_time": "약 5분"
      },
      {
        "convenience_store_lat": 37.65831433,
        "convenience_store_lon": 127.0410344,
        "convenience_store_type": "편의점",
        "convenience_store_name": "세븐일레븐 도봉에이치큐브점",
        "distance": 300.6457729432517,
        "walking_time": "약 5분"
      },
      {
        "convenience_store_lat": 37.65575259,
        "convenience_store_lon": 127.0417263,
        "convenience_store_type": "편의점",
        "convenience_store_name": "세븐일레븐 창동어울림점",
        "distance": 323.4620115426575,
        "walking_time": "약 5분"
      },
      {
        "convenience_store_lat": 37.65395426,
        "convenience_store_lon": 127.0367604,
        "convenience_store_type": "편의점",
        "convenience_store_name": "세븐일레븐 쌍문아트점",
        "distance": 336.0057795343077,
        "walking_time": "약 6분"
      },
      {
        "convenience_store_lat": 37.65884151,
        "convenience_store_lon": 127.0414976,
        "convenience_store_type": "편의점",
        "convenience_store_name": "GS25 창동파크점",
        "distance": 368.7839098562035,
        "walking_time": "약 6분"
      },
      {
        "convenience_store_lat": 37.65287329,
        "convenience_store_lon": 127.0383673,
        "convenience_store_type": "편의점",
        "convenience_store_name": "CU 창동주공점",
        "distance": 429.0504687644825,
        "walking_time": "약 7분"
      }
    ],
    "daycare": [
      {
        "daycare_lat": 37.65753727,
        "daycare_lon": 127.0405844,
        "daycare_type": "어린이집",
        "daycare_name": "신세인어린이집",
        "distance": 222.91421339983967,
        "walking_time": "약 4분"
      },
      {
        "daycare_lat": 37.65586588,
        "daycare_lon": 127.0406965,
        "daycare_type": "어린이집",
        "daycare_name": "꽃구름어린이집",
        "distance": 234.59192906249385,
        "walking_time": "약 4분"
      },
      {
        "daycare_lat": 37.65880949876407,
        "daycare_lon": 127.03901089204844,
        "daycare_type": "어린이집",
        "daycare_name": "햇빛어린이집",
        "distance": 240.24067274155465,
        "walking_time": "약 4분"
      },
      {
        "daycare_lat": 37.65883769803541,
        "daycare_lon": 127.03894022750951,
        "daycare_type": "어린이집",
        "daycare_name": "세인어린이집",
        "distance": 241.65615656215664,
        "walking_time": "약 4분"
      },
      {
        "daycare_lat": 37.65743304,
        "daycare_lon": 127.0409518,
        "daycare_type": "어린이집",
        "daycare_name": "로뎀어린이집",
        "distance": 248.98733427291123,
        "walking_time": "약 4분"
      },
      {
        "daycare_lat": 37.65722479,
        "daycare_lon": 127.0351926,
        "daycare_type": "어린이집",
        "daycare_name": "쌍문작은천사어린이집",
        "distance": 276.06996195599373,
        "walking_time": "약 5분"
      },
      {
        "daycare_lat": 37.65722479,
        "daycare_lon": 127.0351926,
        "daycare_type": "어린이집",
        "daycare_name": "캔디어린이집",
        "distance": 276.06996195599373,
        "walking_time": "약 5분"
      },
      {
        "daycare_lat": 37.65722479,
        "daycare_lon": 127.0351926,
        "daycare_type": "어린이집",
        "daycare_name": "사랑천사어린이집",
        "distance": 276.06996195599373,
        "walking_time": "약 5분"
      },
      {
        "daycare_lat": 37.65722479,
        "daycare_lon": 127.0351926,
        "daycare_type": "어린이집",
        "daycare_name": "크라인어린이집",
        "distance": 276.06996195599373,
        "walking_time": "약 5분"
      },
      {
        "daycare_lat": 37.65722479,
        "daycare_lon": 127.0351926,
        "daycare_type": "어린이집",
        "daycare_name": "삼익아이어린이집",
        "distance": 276.06996195599373,
        "walking_time": "약 5분"
      }
    ],
    "education": [
      {
        "education_lat": 37.65419928,
        "education_lon": 127.0388705,
        "education_type": "문화원",
        "education_name": "도봉문화원",
        "distance": 286.5000825660442,
        "walking_time": "약 5분"
      },
      {
        "education_lat": 37.65296162,
        "education_lon": 127.0347964,
        "education_type": "박물관/기념관",
        "education_name": "함석헌기념관",
        "distance": 518.6225735165613,
        "walking_time": "약 8분"
      },
      {
        "education_lat": 37.64856049,
        "education_lon": 127.0338822,
        "education_type": "공연장",
        "education_name": "극단 대학로극장",
        "distance": 987.0925190002472,
        "walking_time": "약 15분"
      },
      {
        "education_lat": 37.6590571,
        "education_lon": 127.049575,
        "education_type": "도서관",
        "education_name": "도봉아이나라도서관",
        "distance": 1028.582705180165,
        "walking_time": "약 16분"
      },
      {
        "education_lat": 37.65242986,
        "education_lon": 127.0276385,
        "education_type": "박물관/기념관",
        "education_name": "둘리뮤지엄",
        "distance": 1050.736970957062,
        "walking_time": "약 16분"
      },
      {
        "education_lat": 37.66215979,
        "education_lon": 127.0278315,
        "education_type": "도서관",
        "education_name": "학마을도서관",
        "distance": 1099.1337134780565,
        "walking_time": "약 17분"
      },
      {
        "education_lat": 37.66489292,
        "education_lon": 127.0281868,
        "education_type": "박물관/기념관",
        "education_name": "간송옛집",
        "distance": 1269.1974193308215,
        "walking_time": "약 19분"
      },
      {
        "education_lat": 37.65992371,
        "education_lon": 127.0238016,
        "education_type": "박물관/기념관",
        "education_name": "김수영문학관",
        "distance": 1321.8588532588196,
        "walking_time": "약 20분"
      },
      {
        "education_lat": 37.64469094,
        "education_lon": 127.0437683,
        "education_type": "도서관",
        "education_name": "도봉문화정보도서관",
        "distance": 1423.7364429259603,
        "walking_time": "약 22분"
      },
      {
        "education_lat": 37.66029179,
        "education_lon": 127.0217983,
        "education_type": "도서관",
        "education_name": "원당마을한옥도서관",
        "distance": 1502.7389428575443,
        "walking_time": "약 23분"
      }
    ],
    "electric_gas_station": [
      {
        "electric_gas_station_lat": 37.6446776,
        "electric_gas_station_lon": 127.0351607,
        "electric_gas_station_type": "전기차 충전소",
        "electric_gas_station_name": "빅마켓 도봉점",
        "distance": 1367.875048885258,
        "walking_time": "약 21분"
      }
    ],
    "fitness": [
      {
        "fitness_lat": 37.65601969,
        "fitness_lon": 127.0386993,
        "fitness_type": "운동시설",
        "fitness_name": "크로스핏 얼티메이트",
        "distance": 87.8114396550279,
        "walking_time": "약 2분"
      },
      {
        "fitness_lat": 37.65629406,
        "fitness_lon": 127.0397032,
        "fitness_type": "운동시설",
        "fitness_name": "카인드짐24시 휘트니스& 태닝",
        "distance": 135.52720575419892,
        "walking_time": "약 3분"
      },
      {
        "fitness_lat": 37.65549785,
        "fitness_lon": 127.0392013,
        "fitness_type": "운동시설",
        "fitness_name": "창동점 스포애니",
        "distance": 159.9412002956212,
        "walking_time": "약 3분"
      },
      {
        "fitness_lat": 37.65653619,
        "fitness_lon": 127.0404015,
        "fitness_type": "운동시설",
        "fitness_name": "N 피티짐",
        "distance": 189.235149858414,
        "walking_time": "약 3분"
      },
      {
        "fitness_lat": 37.65638134,
        "fitness_lon": 127.0408239,
        "fitness_type": "운동시설",
        "fitness_name": "백곰 짐",
        "distance": 228.50799609451587,
        "walking_time": "약 4분"
      },
      {
        "fitness_lat": 37.65821667,
        "fitness_lon": 127.0357594,
        "fitness_type": "운동시설",
        "fitness_name": "더나은내일PT스튜디오",
        "distance": 275.6452584239497,
        "walking_time": "약 5분"
      },
      {
        "fitness_lat": 37.65477033,
        "fitness_lon": 127.0404777,
        "fitness_type": "운동시설",
        "fitness_name": "O2 Zone 헬스",
        "distance": 292.30106515863747,
        "walking_time": "약 5분"
      },
      {
        "fitness_lat": 37.65909265,
        "fitness_lon": 127.0353085,
        "fitness_type": "운동시설",
        "fitness_name": "스포벡 휘트니스 쌍문점",
        "distance": 369.7864365776685,
        "walking_time": "약 6분"
      },
      {
        "fitness_lat": 37.65825812,
        "fitness_lon": 127.0345307,
        "fitness_type": "운동시설",
        "fitness_name": "에이트 피티 스튜디오",
        "distance": 370.0776599509094,
        "walking_time": "약 6분"
      },
      {
        "fitness_lat": 37.65879107,
        "fitness_lon": 127.0347744,
        "fitness_type": "운동시설",
        "fitness_name": "(주)루케테",
        "distance": 383.33621919373854,
        "walking_time": "약 6분"
      }
    ],
    "gas_station": [
      {
        "gas_station_lat": 37.65774076,
        "gas_station_lon": 127.0405236,
        "gas_station_type": "주유소",
        "gas_station_name": "한이에너지㈜ KLP제1주유소",
        "distance": 228.2624367156409,
        "walking_time": "약 4분"
      },
      {
        "gas_station_lat": 37.6540051,
        "gas_station_lon": 127.0375376,
        "gas_station_type": "주유소",
        "gas_station_name": "한이에너지㈜ 쌍문주유소",
        "distance": 309.8147628627247,
        "walking_time": "약 5분"
      },
      {
        "gas_station_lat": 37.66114444,
        "gas_station_lon": 127.0416939,
        "gas_station_type": "주유소",
        "gas_station_name": "정다운주유소",
        "distance": 576.1015472582573,
        "walking_time": "약 9분"
      },
      {
        "gas_station_lat": 37.66241831,
        "gas_station_lon": 127.0354277,
        "gas_station_type": "주유소",
        "gas_station_name": "현대오일뱅크㈜직영 영신주유소",
        "distance": 679.9667185630983,
        "walking_time": "약 11분"
      },
      {
        "gas_station_lat": 37.66310547,
        "gas_station_lon": 127.0364022,
        "gas_station_type": "주유소",
        "gas_station_name": "㈜자연에너지 햇살주유소",
        "distance": 727.5488996599854,
        "walking_time": "약 11분"
      },
      {
        "gas_station_lat": 37.66247972,
        "gas_station_lon": 127.0314238,
        "gas_station_type": "주유소",
        "gas_station_name": "GS칼텍스㈜ 방학동주유소",
        "distance": 878.2848540926543,
        "walking_time": "약 14분"
      },
      {
        "gas_station_lat": 37.66151426,
        "gas_station_lon": 127.0474997,
        "gas_station_type": "주유소",
        "gas_station_name": "극동유화㈜ 대안주유소",
        "distance": 971.3811349274516,
        "walking_time": "약 15분"
      },
      {
        "gas_station_lat": 37.66228012,
        "gas_station_lon": 127.0474415,
        "gas_station_type": "주유소",
        "gas_station_name": "오복주유소",
        "distance": 1016.4216106523425,
        "walking_time": "약 16분"
      },
      {
        "gas_station_lat": 37.64684419,
        "gas_station_lon": 127.0394451,
        "gas_station_type": "주유소",
        "gas_station_name": "구도일주유소 파크빌",
        "distance": 1104.2529913107626,
        "walking_time": "약 17분"
      },
      {
        "gas_station_lat": 37.66745171,
        "gas_station_lon": 127.0435627,
        "gas_station_type": "주유소",
        "gas_station_name": "구도일주유소 도봉",
        "distance": 1280.0221964211794,
        "walking_time": "약 20분"
      }
    ],
    "hospital": [
      {
        "hospital_lat": 37.65640546,
        "hospital_lon": 127.03879,
        "hospital_type": "병원",
        "hospital_name": "강북연세치과의원",
        "distance": 58.63587623054463,
        "walking_time": "약 1분"
      },
      {
        "hospital_lat": 37.65640546,
        "hospital_lon": 127.03879,
        "hospital_type": "병원",
        "hospital_name": "공생한의원",
        "distance": 58.63587623054463,
        "walking_time": "약 1분"
      },
      {
        "hospital_lat": 37.65640546,
        "hospital_lon": 127.03879,
        "hospital_type": "병원",
        "hospital_name": "구재형안과의원",
        "distance": 58.63587623054463,
        "walking_time": "약 1분"
      },
      {
        "hospital_lat": 37.65640546,
        "hospital_lon": 127.03879,
        "hospital_type": "병원",
        "hospital_name": "비-스킨피부과의원",
        "distance": 58.63587623054463,
        "walking_time": "약 1분"
      },
      {
        "hospital_lat": 37.65640546,
        "hospital_lon": 127.03879,
        "hospital_type": "병원",
        "hospital_name": "위플러스내과의원",
        "distance": 58.63587623054463,
        "walking_time": "약 1분"
      },
      {
        "hospital_lat": 37.65640546,
        "hospital_lon": 127.03879,
        "hospital_type": "병원",
        "hospital_name": "최이비인후과의원",
        "distance": 58.63587623054463,
        "walking_time": "약 1분"
      },
      {
        "hospital_lat": 37.65640546,
        "hospital_lon": 127.03879,
        "hospital_type": "병원",
        "hospital_name": "한얼통증의학과의원",
        "distance": 58.63587623054463,
        "walking_time": "약 1분"
      },
      {
        "hospital_lat": 37.656669,
        "hospital_lon": 127.039057,
        "hospital_type": "병원",
        "hospital_name": "고운이치과의원",
        "distance": 69.97328867297968,
        "walking_time": "약 2분"
      },
      {
        "hospital_lat": 37.656669,
        "hospital_lon": 127.039057,
        "hospital_type": "병원",
        "hospital_name": "성진한의원",
        "distance": 69.97328867297968,
        "walking_time": "약 2분"
      },
      {
        "hospital_lat": 37.656669,
        "hospital_lon": 127.039057,
        "hospital_type": "병원",
        "hospital_name": "왕영미산부인과의원",
        "distance": 69.97328867297968,
        "walking_time": "약 2분"
      }
    ],
    "music_room": [
      {
        "music_room_lat": 37.6568893,
        "music_room_lon": 127.0384641,
        "music_room_type": "노래방",
        "music_room_name": "커플 노래연습장",
        "distance": 24.77810519590984,
        "walking_time": "약 1분"
      },
      {
        "music_room_lat": 37.65729229,
        "music_room_lon": 127.0390877,
        "music_room_type": "노래방",
        "music_room_name": "MBC 노래연습장",
        "distance": 95.53899609974164,
        "walking_time": "약 2분"
      },
      {
        "music_room_lat": 37.65701209,
        "music_room_lon": 127.0393237,
        "music_room_type": "노래방",
        "music_room_name": "SBS노래연습장",
        "distance": 98.21663967635143,
        "walking_time": "약 2분"
      },
      {
        "music_room_lat": 37.65751497,
        "music_room_lon": 127.0375386,
        "music_room_type": "노래방",
        "music_room_name": "제이제이 노래연습장",
        "distance": 108.16436078741404,
        "walking_time": "약 2분"
      },
      {
        "music_room_lat": 37.65722173,
        "music_room_lon": 127.039374,
        "music_room_type": "노래방",
        "music_room_name": "샤방 노래연습장",
        "distance": 111.76434823486474,
        "walking_time": "약 2분"
      },
      {
        "music_room_lat": 37.65629406,
        "music_room_lon": 127.0397032,
        "music_room_type": "노래방",
        "music_room_name": "큐코인 노래연습장 창동점",
        "distance": 135.52720575419892,
        "walking_time": "약 3분"
      },
      {
        "music_room_lat": 37.65741592,
        "music_room_lon": 127.0395596,
        "music_room_type": "노래방",
        "music_room_name": "첼로 노래연습장",
        "distance": 136.99717885148198,
        "walking_time": "약 3분"
      },
      {
        "music_room_lat": 37.65568795,
        "music_room_lon": 127.039235,
        "music_room_type": "노래방",
        "music_room_name": "즐거운노래연습장",
        "distance": 143.97359095635244,
        "walking_time": "약 3분"
      },
      {
        "music_room_lat": 37.65765341,
        "music_room_lon": 127.0371064,
        "music_room_type": "노래방",
        "music_room_name": "자메이카 코인 노래연습장",
        "distance": 144.7082947005146,
        "walking_time": "약 3분"
      },
      {
        "music_room_lat": 37.65685969,
        "music_room_lon": 127.0400051,
        "music_room_type": "노래방",
        "music_room_name": "큐 노래연습장",
        "distance": 153.7625237526776,
        "walking_time": "약 3분"
      }
    ],
    "park": [
      {
        "park_lat": 37.6597135,
        "park_lon": 127.031982,
        "park_type": "공원",
        "park_name": "발바닥공원",
        "distance": 644.9730645987855,
        "walking_time": "약 10분"
      },
      {
        "park_lat": 37.6479483,
        "park_lon": 127.0405382,
        "park_type": "공원",
        "park_name": "초안산생태공원",
        "distance": 996.8680944877382,
        "walking_time": "약 15분"
      },
      {
        "park_lat": 37.6531456,
        "park_lon": 127.0271316,
        "park_type": "공원",
        "park_name": "쌍문근린공원",
        "distance": 1058.1761193951363,
        "walking_time": "약 16분"
      },
      {
        "park_lat": 37.648316,
        "park_lon": 127.0455446,
        "park_type": "공원",
        "park_name": "초안산근린공원",
        "distance": 1134.083447284274,
        "walking_time": "약 17분"
      }
    ],
    "park_station": [
      {
        "park_station_lat": 37.66006842,
        "park_station_lon": 127.0408691,
        "park_station_type": "주차장",
        "park_station_name": "쌍문2동 5공영주차장",
        "distance": 436.151019104325,
        "walking_time": "약 7분"
      },
      {
        "park_station_lat": 37.65325029,
        "park_station_lon": 127.0335631,
        "park_station_type": "주차장",
        "park_station_name": "쌍문2동 2공영주차장",
        "distance": 566.7487616871502,
        "walking_time": "약 9분"
      },
      {
        "park_station_lat": 37.65236462,
        "park_station_lon": 127.0456545,
        "park_station_type": "주차장",
        "park_station_name": "창동역 공영주차장",
        "distance": 811.6648027094517,
        "walking_time": "약 13분"
      },
      {
        "park_station_lat": 37.64915283,
        "park_station_lon": 127.0400853,
        "park_station_type": "주차장",
        "park_station_name": "초안산 창골주차장",
        "distance": 857.7402011407875,
        "walking_time": "약 13분"
      },
      {
        "park_station_lat": 37.66459353,
        "park_station_lon": 127.0339793,
        "park_station_type": "주차장",
        "park_station_name": "방학동 도깨비시장 공영주차장",
        "distance": 952.2303400659532,
        "walking_time": "약 15분"
      },
      {
        "park_station_lat": 37.64756826,
        "park_station_lon": 127.0359277,
        "park_station_type": "주차장",
        "park_station_name": "창동 쌍리단길 상점가 공영주차장",
        "distance": 1039.4386046507568,
        "walking_time": "약 16분"
      },
      {
        "park_station_lat": 37.65255522,
        "park_station_lon": 127.0489165,
        "park_station_type": "주차장",
        "park_station_name": "창동역 구청별관주차장",
        "distance": 1046.2792863641664,
        "walking_time": "약 16분"
      },
      {
        "park_station_lat": 37.64712558,
        "park_station_lon": 127.0371832,
        "park_station_type": "주차장",
        "park_station_name": "창1동 1공영주차장",
        "distance": 1072.3195223237246,
        "walking_time": "약 17분"
      },
      {
        "park_station_lat": 37.665246,
        "park_station_lon": 127.027521,
        "park_station_type": "주차장",
        "park_station_name": "간송옛집  공영주차장",
        "distance": 1338.31828793094,
        "walking_time": "약 20분"
      },
      {
        "park_station_lat": 37.66791444,
        "park_station_lon": 127.044582,
        "park_station_type": "주차장",
        "park_station_name": "방학동 월드상가 앞 주차장",
        "distance": 1362.164612504116,
        "walking_time": "약 21분"
      }
    ],
    "pc_room": [
      {
        "pc_room_lat": 37.6564054566286,
        "pc_room_lon": 127.038790046328,
        "pc_room_type": "PC방",
        "pc_room_name": "런PC",
        "distance": 58.6393161017536,
        "walking_time": "약 1분"
      },
      {
        "pc_room_lat": 37.6573355111957,
        "pc_room_lon": 127.038878812564,
        "pc_room_type": "PC방",
        "pc_room_name": "삼보인터넷플라자",
        "distance": 86.1891125780921,
        "walking_time": "약 2분"
      },
      {
        "pc_room_lat": 37.6572922851424,
        "pc_room_lon": 127.039087653089,
        "pc_room_type": "PC방",
        "pc_room_name": "유니넷 PC방",
        "distance": 95.53551662484016,
        "walking_time": "약 2분"
      },
      {
        "pc_room_lat": 37.6570120913861,
        "pc_room_lon": 127.039323680367,
        "pc_room_type": "PC방",
        "pc_room_name": "PLAYER",
        "distance": 98.21505026234568,
        "walking_time": "약 2분"
      },
      {
        "pc_room_lat": 37.6575149704247,
        "pc_room_lon": 127.037538574702,
        "pc_room_type": "PC방",
        "pc_room_name": "해커랜드",
        "distance": 108.16571725705664,
        "walking_time": "약 2분"
      },
      {
        "pc_room_lat": 37.6575149704247,
        "pc_room_lon": 127.037538574702,
        "pc_room_type": "PC방",
        "pc_room_name": "해커랜드",
        "distance": 108.16571725705664,
        "walking_time": "약 2분"
      },
      {
        "pc_room_lat": 37.657221733121,
        "pc_room_lon": 127.039373995084,
        "pc_room_type": "PC방",
        "pc_room_name": "미화pc게임랜드",
        "distance": 111.76413999268613,
        "walking_time": "약 2분"
      },
      {
        "pc_room_lat": 37.657221733121,
        "pc_room_lon": 127.039373995084,
        "pc_room_type": "PC방",
        "pc_room_name": "블루 PC방",
        "distance": 111.76413999268613,
        "walking_time": "약 2분"
      },
      {
        "pc_room_lat": 37.6562940617336,
        "pc_room_lon": 127.039703171252,
        "pc_room_type": "PC방",
        "pc_room_name": "MAXSPEED PC 창동본점",
        "distance": 135.52477412798865,
        "walking_time": "약 3분"
      },
      {
        "pc_room_lat": 37.657415922737,
        "pc_room_lon": 127.039559615486,
        "pc_room_type": "PC방",
        "pc_room_name": "버그버그pc방",
        "distance": 136.9984812186515,
        "walking_time": "약 3분"
      }
    ],
    "police_office": [
      {
        "police_office_lat": 37.65759555,
        "police_office_lon": 127.0380024,
        "police_office_type": "경찰소",
        "police_office_name": "쌍문파출소",
        "distance": 98.894554816524,
        "walking_time": "약 2분"
      },
      {
        "police_office_lat": 37.66450334,
        "police_office_lon": 127.0400155,
        "police_office_type": "경찰소",
        "police_office_name": "방학파출소",
        "distance": 877.8587023848801,
        "walking_time": "약 14분"
      },
      {
        "police_office_lat": 37.65850997,
        "police_office_lon": 127.0271851,
        "police_office_type": "경찰소",
        "police_office_name": "신방학파출소",
        "distance": 995.3102226338918,
        "walking_time": "약 15분"
      },
      {
        "police_office_lat": 37.64351954,
        "police_office_lon": 127.0346164,
        "police_office_type": "경찰소",
        "police_office_name": "신창파출소",
        "distance": 1503.774846488263,
        "walking_time": "약 23분"
      },
      {
        "police_office_lat": 37.64751276,
        "police_office_lon": 127.0255828,
        "police_office_type": "경찰소",
        "police_office_name": "숭미파출소",
        "distance": 1515.730711744514,
        "walking_time": "약 23분"
      },
      {
        "police_office_lat": 37.64433521,
        "police_office_lon": 127.0265847,
        "police_office_type": "경찰소",
        "police_office_name": "수유3파출소",
        "distance": 1719.7285010235917,
        "walking_time": "약 26분"
      }
    ],
    "post_office": [
      {
        "post_office_lat": 37.65634292,
        "post_office_lon": 127.0377161,
        "post_office_type": "우체국",
        "post_office_name": "서울쌍문2동우체국",
        "distance": 64.85006458420803,
        "walking_time": "약 1분"
      },
      {
        "post_office_lat": 37.65183368,
        "post_office_lon": 127.0427337,
        "post_office_type": "우체국",
        "post_office_name": "서울창5동우체국",
        "distance": 671.7408713200766,
        "walking_time": "약 11분"
      },
      {
        "post_office_lat": 37.66561618,
        "post_office_lon": 127.034146,
        "post_office_type": "우체국",
        "post_office_name": "서울방학2동우편취급국",
        "distance": 1052.447591805162,
        "walking_time": "약 16분"
      },
      {
        "post_office_lat": 37.66535584,
        "post_office_lon": 127.0436071,
        "post_office_type": "우체국",
        "post_office_name": "서울방학동우체국",
        "distance": 1068.0835118871394,
        "walking_time": "약 16분"
      },
      {
        "post_office_lat": 37.6479235,
        "post_office_lon": 127.0272422,
        "post_office_type": "우체국",
        "post_office_name": "서울도봉우체국",
        "distance": 1378.764297525805,
        "walking_time": "약 21분"
      },
      {
        "post_office_lat": 37.64492915,
        "post_office_lon": 127.0316588,
        "post_office_type": "우체국",
        "post_office_name": "서울쌍문한양우편취급국",
        "distance": 1435.4464442523297,
        "walking_time": "약 22분"
      },
      {
        "post_office_lat": 37.64122994,
        "post_office_lon": 127.0286569,
        "post_office_type": "우체국",
        "post_office_name": "서울수유3동우체국",
        "distance": 1920.060454444668,
        "walking_time": "약 29분"
      }
    ],
    "public_health_center": [
      {
        "public_health_center_lat": 37.65793243,
        "public_health_center_lon": 127.0388203,
        "public_health_center_type": "보건소",
        "public_health_center_name": "도봉구 보건소",
        "distance": 142.22538052381606,
        "walking_time": "약 3분"
      },
      {
        "public_health_center_lat": 37.64141508,
        "public_health_center_lon": 127.035653,
        "public_health_center_type": "보건소",
        "public_health_center_name": "창동 보건지소",
        "distance": 1718.5200088569377,
        "walking_time": "약 26분"
      }
    ],
    "school": [
      {
        "school_lat": 37.6562806786387,
        "school_lon": 127.035622286787,
        "school_type": "중학교",
        "school_name": "백운중학교",
        "distance": 238.05627390307205,
        "walking_time": "약 4분"
      },
      {
        "school_lat": 37.6566021823161,
        "school_lon": 127.034602499962,
        "school_type": "초등학교",
        "school_name": "서울창경초등학교",
        "distance": 322.82114290555387,
        "walking_time": "약 5분"
      },
      {
        "school_lat": 37.6526440884387,
        "school_lon": 127.039979883482,
        "school_type": "초등학교",
        "school_name": "서울창원초등학교",
        "distance": 478.835951216132,
        "walking_time": "약 8분"
      },
      {
        "school_lat": 37.6594678039701,
        "school_lon": 127.042950889775,
        "school_type": "초등학교",
        "school_name": "서울가인초등학교",
        "distance": 512.5344960691946,
        "walking_time": "약 8분"
      },
      {
        "school_lat": 37.6553630407375,
        "school_lon": 127.044832890478,
        "school_type": "초등학교",
        "school_name": "서울창동초등학교",
        "distance": 597.7745615166665,
        "walking_time": "약 9분"
      },
      {
        "school_lat": 37.6510357712645,
        "school_lon": 127.038819095625,
        "school_type": "고등학교",
        "school_name": "창동고등학교",
        "distance": 635.1496825778853,
        "walking_time": "약 10분"
      },
      {
        "school_lat": 37.6533558400471,
        "school_lon": 127.032427255133,
        "school_type": "고등학교",
        "school_name": "정의여자고등학교",
        "distance": 636.4362486405714,
        "walking_time": "약 10분"
      },
      {
        "school_lat": 37.6533558400471,
        "school_lon": 127.032427255133,
        "school_type": "중학교",
        "school_name": "정의여자중학교",
        "distance": 636.4362486405714,
        "walking_time": "약 10분"
      },
      {
        "school_lat": 37.6533558400471,
        "school_lon": 127.032427255133,
        "school_type": "초등학교",
        "school_name": "한신초등학교",
        "distance": 636.4362486405714,
        "walking_time": "약 10분"
      },
      {
        "school_lat": 37.6580556761129,
        "school_lon": 127.047017564524,
        "school_type": "초등학교",
        "school_name": "서울자운초등학교",
        "distance": 784.3601629146683,
        "walking_time": "약 12분"
      }
    ],
    "subway": [
      {
        "subway_lat": 37.6532084846758,
        "subway_lon": 127.04768378525,
        "subway_type": "지하철",
        "subway_name": "4호선-창동역",
        "distance": 916.946980251034,
        "walking_time": "약 14분"
      },
      {
        "subway_lat": 37.6488498649136,
        "subway_lon": 127.034880717215,
        "subway_type": "지하철",
        "subway_name": "4호선-쌍문역",
        "distance": 925.6326200908752,
        "walking_time": "약 14분"
      }
    ],
    "supermarket": [
      {
        "supermarket_lat": 37.65909265,
        "supermarket_lon": 127.0353085,
        "supermarket_type": "마트",
        "supermarket_name": "롯데슈퍼 쌍문점",
        "distance": 369.7864365776685,
        "walking_time": "약 6분"
      },
      {
        "supermarket_lat": 37.65371821,
        "supermarket_lon": 127.0413661,
        "supermarket_type": "마트",
        "supermarket_name": "GS THE FRESH 창동점",
        "distance": 432.0999865546172,
        "walking_time": "약 7분"
      },
      {
        "supermarket_lat": 37.66141801,
        "supermarket_lon": 127.038134,
        "supermarket_type": "마트",
        "supermarket_name": "금강아미움쇼핑센터",
        "distance": 521.3012512568713,
        "walking_time": "약 8분"
      },
      {
        "supermarket_lat": 37.65163612,
        "supermarket_lon": 127.0466993,
        "supermarket_type": "마트",
        "supermarket_name": "(주) 이마트 창동점",
        "distance": 933.8835222409976,
        "walking_time": "약 14분"
      },
      {
        "supermarket_lat": 37.66481089,
        "supermarket_lon": 127.0436865,
        "supermarket_type": "마트",
        "supermarket_name": "홈플러스(주)방학점",
        "distance": 1017.2854581514632,
        "walking_time": "약 16분"
      },
      {
        "supermarket_lat": 37.66010198,
        "supermarket_lon": 127.0273221,
        "supermarket_type": "마트",
        "supermarket_name": "GS THE FRESH 방학신동아점",
        "distance": 1033.7368523656628,
        "walking_time": "약 16분"
      },
      {
        "supermarket_lat": 37.66131898,
        "supermarket_lon": 127.0275004,
        "supermarket_type": "마트",
        "supermarket_name": "롯데슈퍼 방학점",
        "distance": 1076.272751075032,
        "walking_time": "약 17분"
      },
      {
        "supermarket_lat": 37.66131898,
        "supermarket_lon": 127.0275004,
        "supermarket_type": "마트",
        "supermarket_name": "신동아프라자",
        "distance": 1076.272751075032,
        "walking_time": "약 17분"
      },
      {
        "supermarket_lat": 37.64641958,
        "supermarket_lon": 127.0371393,
        "supermarket_type": "마트",
        "supermarket_name": "롯데프레쉬 창동점",
        "distance": 1150.8601957885332,
        "walking_time": "약 18분"
      },
      {
        "supermarket_lat": 37.64333589,
        "supermarket_lon": 127.0350214,
        "supermarket_type": "마트",
        "supermarket_name": "(주)에브리데이리테일 창동점",
        "distance": 1516.612343142731,
        "walking_time": "약 23분"
      }
    ],
    "theater": [
      {
        "theater_lat": 37.6546022496976,
        "theater_lon": 127.038732219793,
        "theater_type": "영화관",
        "theater_name": "메가박스 창동",
        "distance": 240.23807444626507,
        "walking_time": "약 4분"
      },
      {
        "theater_lat": 37.6424075100379,
        "theater_lon": 127.029806166339,
        "theater_type": "영화관",
        "theater_name": "CGV 수유",
        "distance": 1758.244092482541,
        "walking_time": "약 27분"
      }
    ]
  }
}