{
  "클러스터_위도": 37.594529800328566,
  "클러스터_경도": 127.01819119943394,
  "클러스터_level": 4.0,
  "facilities": {
    "bus": [
      {
        "bus_lat": 37.59374328,
        "bus_lon": 127.0181314,
        "bus_type": "버스정류장",
        "bus_name": "돈암사거리.성신여대입구",
        "distance": 87.61562601810121,
        "walking_time": "약 2분"
      },
      {
        "bus_lat": 37.59325096,
        "bus_lon": 127.0176838,
        "bus_type": "버스정류장",
        "bus_name": "돈암사거리.성신여대입구",
        "distance": 149.06213941722925,
        "walking_time": "약 3분"
      },
      {
        "bus_lat": 37.59374669,
        "bus_lon": 127.0164185,
        "bus_type": "버스정류장",
        "bus_name": "성신여대입구역",
        "distance": 178.81889170334622,
        "walking_time": "약 3분"
      },
      {
        "bus_lat": 37.59373997,
        "bus_lon": 127.0161355,
        "bus_type": "버스정류장",
        "bus_name": "성신여대입구역",
        "distance": 201.28875246680872,
        "walking_time": "약 4분"
      },
      {
        "bus_lat": 37.59350747,
        "bus_lon": 127.0162096,
        "bus_type": "버스정류장",
        "bus_name": "성신여대입구역",
        "distance": 208.3372147322873,
        "walking_time": "약 4분"
      },
      {
        "bus_lat": 37.59229187,
        "bus_lon": 127.0164517,
        "bus_type": "버스정류장",
        "bus_name": "성신여대입구역3번출구",
        "distance": 292.25591369730967,
        "walking_time": "약 5분"
      },
      {
        "bus_lat": 37.59619975,
        "bus_lon": 127.0156038,
        "bus_type": "버스정류장",
        "bus_name": "돈암2동주민센터입구.흥천사",
        "distance": 294.01821787651727,
        "walking_time": "약 5분"
      },
      {
        "bus_lat": 37.5917149,
        "bus_lon": 127.0167719,
        "bus_type": "버스정류장",
        "bus_name": "돈암시장입구",
        "distance": 337.0580233164573,
        "walking_time": "약 6분"
      },
      {
        "bus_lat": 37.59672013,
        "bus_lon": 127.015117,
        "bus_type": "버스정류장",
        "bus_name": "돈암2동주민센터입구.흥천사",
        "distance": 364.2489137157415,
        "walking_time": "약 6분"
      },
      {
        "bus_lat": 37.591444,
        "bus_lon": 127.016715,
        "bus_type": "버스정류장",
        "bus_name": "돈암시장입구",
        "distance": 366.94887027882896,
        "walking_time": "약 6분"
      }
    ],
    "community_center": [
      {
        "community_center_lat": 37.59398014,
        "community_center_lon": 127.0204087,
        "community_center_type": "주민센터",
        "community_center_name": "동선동 자치회관",
        "distance": 204.7107470614486,
        "walking_time": "약 4분"
      },
      {
        "community_center_lat": 37.59084573,
        "community_center_lon": 127.0146418,
        "community_center_type": "주민센터",
        "community_center_name": "삼선동 자치회관",
        "distance": 515.3753476175718,
        "walking_time": "약 8분"
      },
      {
        "community_center_lat": 37.59801698,
        "community_center_lon": 127.010539,
        "community_center_type": "주민센터",
        "community_center_name": "돈암2동 자치회관",
        "distance": 777.7379139090249,
        "walking_time": "약 12분"
      },
      {
        "community_center_lat": 37.6014358,
        "community_center_lon": 127.0166418,
        "community_center_type": "주민센터",
        "community_center_name": "정릉1동 자치회관",
        "distance": 779.9501705546489,
        "walking_time": "약 12분"
      },
      {
        "community_center_lat": 37.58582076,
        "community_center_lon": 127.0213756,
        "community_center_type": "주민센터",
        "community_center_name": "안암동 자치회관",
        "distance": 1008.2285646748892,
        "walking_time": "약 16분"
      },
      {
        "community_center_lat": 37.60257969,
        "community_center_lon": 127.0277374,
        "community_center_type": "주민센터",
        "community_center_name": "돈암1동 자치회관",
        "distance": 1228.2248395442105,
        "walking_time": "약 19분"
      },
      {
        "community_center_lat": 37.60454045,
        "community_center_lon": 127.011129,
        "community_center_type": "주민센터",
        "community_center_name": "정릉2동 자치회관",
        "distance": 1275.2122136252171,
        "walking_time": "약 20분"
      },
      {
        "community_center_lat": 37.59105175,
        "community_center_lon": 127.0032478,
        "community_center_type": "주민센터",
        "community_center_name": "성북동 자치회관",
        "distance": 1372.2452888664625,
        "walking_time": "약 21분"
      },
      {
        "community_center_lat": 37.60681328,
        "community_center_lon": 127.0272803,
        "community_center_type": "주민센터",
        "community_center_name": "길음2동 자치회관",
        "distance": 1583.2698096079016,
        "walking_time": "약 24분"
      },
      {
        "community_center_lat": 37.58037354,
        "community_center_lon": 127.0228035,
        "community_center_type": "주민센터",
        "community_center_name": "보문동 자치회관",
        "distance": 1625.7213856303251,
        "walking_time": "약 25분"
      }
    ],
    "convenience_store": [
      {
        "convenience_store_lat": 37.5947659,
        "convenience_store_lon": 127.0187639,
        "convenience_store_type": "편의점",
        "convenience_store_name": "CU 동선대로점",
        "distance": 56.87889002457419,
        "walking_time": "약 1분"
      },
      {
        "convenience_store_lat": 37.59378202,
        "convenience_store_lon": 127.017601,
        "convenience_store_type": "편의점",
        "convenience_store_name": "미니스톱 성신여대입구역점",
        "distance": 98.07038592718165,
        "walking_time": "약 2분"
      },
      {
        "convenience_store_lat": 37.59378202,
        "convenience_store_lon": 127.017601,
        "convenience_store_type": "편의점",
        "convenience_store_name": "세븐일레븐 성신여대입구역점",
        "distance": 98.07038592718165,
        "walking_time": "약 2분"
      },
      {
        "convenience_store_lat": 37.59370168,
        "convenience_store_lon": 127.0173545,
        "convenience_store_type": "편의점",
        "convenience_store_name": "세븐일레븐 보문점",
        "distance": 117.95576461043994,
        "walking_time": "약 2분"
      },
      {
        "convenience_store_lat": 37.59465868,
        "convenience_store_lon": 127.0198883,
        "convenience_store_type": "편의점",
        "convenience_store_name": "CU 유니쿱성신여대점",
        "distance": 150.20821077468008,
        "walking_time": "약 3분"
      },
      {
        "convenience_store_lat": 37.59421393,
        "convenience_store_lon": 127.0165129,
        "convenience_store_type": "편의점",
        "convenience_store_name": "GS25 성신돈암점",
        "distance": 151.98120303817865,
        "walking_time": "약 3분"
      },
      {
        "convenience_store_lat": 37.59315003,
        "convenience_store_lon": 127.0184133,
        "convenience_store_type": "편의점",
        "convenience_store_name": "세븐일레븐 동선점",
        "distance": 154.66634794256146,
        "walking_time": "약 3분"
      },
      {
        "convenience_store_lat": 37.59451804,
        "convenience_store_lon": 127.0163253,
        "convenience_store_type": "편의점",
        "convenience_store_name": "CU 돈암클럽",
        "distance": 164.4004062355037,
        "walking_time": "약 3분"
      },
      {
        "convenience_store_lat": 37.59305521,
        "convenience_store_lon": 127.0191526,
        "convenience_store_type": "편의점",
        "convenience_store_name": "세븐일레븐 성신코아루점",
        "distance": 184.55383751074345,
        "walking_time": "약 3분"
      },
      {
        "convenience_store_lat": 37.59378505,
        "convenience_store_lon": 127.0200696,
        "convenience_store_type": "편의점",
        "convenience_store_name": "CU 성북명랑점",
        "distance": 185.06027051316624,
        "walking_time": "약 3분"
      }
    ],
    "daycare": [
      {
        "daycare_lat": 37.59585688,
        "daycare_lon": 127.0178728,
        "daycare_type": "어린이집",
        "daycare_name": "돈암교회어린이집",
        "distance": 150.2072702947017,
        "walking_time": "약 3분"
      },
      {
        "daycare_lat": 37.59391648,
        "daycare_lon": 127.0158691,
        "daycare_type": "어린이집",
        "daycare_name": "에덴어린이집",
        "distance": 215.6568402211197,
        "walking_time": "약 4분"
      },
      {
        "daycare_lat": 37.59373397,
        "daycare_lon": 127.0205753,
        "daycare_type": "어린이집",
        "daycare_name": "돈암원광어린이집",
        "distance": 227.93183707169408,
        "walking_time": "약 4분"
      },
      {
        "daycare_lat": 37.5936731,
        "daycare_lon": 127.0205715,
        "daycare_type": "어린이집",
        "daycare_name": "한울안어린이집",
        "distance": 230.3391831497517,
        "walking_time": "약 4분"
      },
      {
        "daycare_lat": 37.59536304,
        "daycare_lon": 127.0151615,
        "daycare_type": "어린이집",
        "daycare_name": "동선어린이집",
        "distance": 282.5530424280786,
        "walking_time": "약 5분"
      },
      {
        "daycare_lat": 37.5917515,
        "daycare_lon": 127.0194667,
        "daycare_type": "어린이집",
        "daycare_name": "성일어린이집",
        "distance": 328.7382508919538,
        "walking_time": "약 5분"
      },
      {
        "daycare_lat": 37.59761746,
        "daycare_lon": 127.0178677,
        "daycare_type": "어린이집",
        "daycare_name": "돈암이수어린이집",
        "distance": 344.51306404308315,
        "walking_time": "약 6분"
      },
      {
        "daycare_lat": 37.59761746,
        "daycare_lon": 127.0178677,
        "daycare_type": "어린이집",
        "daycare_name": "이수 어린이집",
        "distance": 344.51306404308315,
        "walking_time": "약 6분"
      },
      {
        "daycare_lat": 37.59761746,
        "daycare_lon": 127.0178677,
        "daycare_type": "어린이집",
        "daycare_name": "꿈보어린이집",
        "distance": 344.51306404308315,
        "walking_time": "약 6분"
      },
      {
        "daycare_lat": 37.59761746,
        "daycare_lon": 127.0178677,
        "daycare_type": "어린이집",
        "daycare_name": "키즈맘",
        "distance": 344.51306404308315,
        "walking_time": "약 6분"
      }
    ],
    "education": [
      {
        "education_lat": 37.59262641,
        "education_lon": 127.0208992,
        "education_type": "미술관/갤러리",
        "education_name": "스페이스 아텔",
        "distance": 318.93660910845534,
        "walking_time": "약 5분"
      },
      {
        "education_lat": 37.59164697,
        "education_lon": 127.0173509,
        "education_type": "공연장",
        "education_name": "성북마을극장",
        "distance": 328.9947681506914,
        "walking_time": "약 5분"
      },
      {
        "education_lat": 37.59789909,
        "education_lon": 127.0214592,
        "education_type": "공연장",
        "education_name": "미아리고개예술극장",
        "distance": 472.50343815182055,
        "walking_time": "약 8분"
      },
      {
        "education_lat": 37.59165248,
        "education_lon": 127.0221456,
        "education_type": "박물관/기념관",
        "education_name": "성신여자대학교 박물관",
        "distance": 473.02530984485617,
        "walking_time": "약 8분"
      },
      {
        "education_lat": 37.594046935524666,
        "education_lon": 127.01056735667494,
        "education_type": "도서관",
        "education_name": "해오름도서관",
        "distance": 673.8438560576986,
        "walking_time": "약 11분"
      },
      {
        "education_lat": 37.60011909,
        "education_lon": 127.0138937,
        "education_type": "공연장",
        "education_name": "아리랑시네센터",
        "distance": 727.745893836384,
        "walking_time": "약 11분"
      },
      {
        "education_lat": 37.60011909,
        "education_lon": 127.0138937,
        "education_type": "도서관",
        "education_name": "아리랑도서관",
        "distance": 727.745893836384,
        "walking_time": "약 11분"
      },
      {
        "education_lat": 37.599831035698905,
        "education_lon": 127.01318969350766,
        "education_type": "도서관",
        "education_name": "아리랑어린이도서관",
        "distance": 735.96269690879,
        "walking_time": "약 11분"
      },
      {
        "education_lat": 37.58938075,
        "education_lon": 127.0087818,
        "education_type": "공연장",
        "education_name": "공간222",
        "distance": 1007.5347145849804,
        "walking_time": "약 16분"
      },
      {
        "education_lat": 37.58492375,
        "education_lon": 127.01617601720145,
        "education_type": "도서관",
        "education_name": "보문숲길도서관",
        "distance": 1082.801465429061,
        "walking_time": "약 17분"
      }
    ],
    "fitness": [
      {
        "fitness_lat": 37.59387409,
        "fitness_lon": 127.0193873,
        "fitness_type": "운동시설",
        "fitness_name": "크로스에듀테크(주)",
        "distance": 128.14711704509776,
        "walking_time": "약 2분"
      },
      {
        "fitness_lat": 37.59332603,
        "fitness_lon": 127.0181757,
        "fitness_type": "운동시설",
        "fitness_name": "올리브짐",
        "distance": 133.8601191741342,
        "walking_time": "약 2분"
      },
      {
        "fitness_lat": 37.594487,
        "fitness_lon": 127.0166216,
        "fitness_type": "운동시설",
        "fitness_name": "안핏 여성전용피티&그룹운동",
        "distance": 138.37156938690572,
        "walking_time": "약 3분"
      },
      {
        "fitness_lat": 37.59451804,
        "fitness_lon": 127.0163253,
        "fitness_type": "운동시설",
        "fitness_name": "머슬프렌즈짐",
        "distance": 164.4004062355037,
        "walking_time": "약 3분"
      },
      {
        "fitness_lat": 37.59305521,
        "fitness_lon": 127.0191526,
        "fitness_type": "운동시설",
        "fitness_name": "투(2J fitness)돈암체육관",
        "distance": 184.55383751074345,
        "walking_time": "약 3분"
      },
      {
        "fitness_lat": 37.59305521,
        "fitness_lon": 127.0191526,
        "fitness_type": "운동시설",
        "fitness_name": "투웬티핏",
        "distance": 184.55383751074345,
        "walking_time": "약 3분"
      },
      {
        "fitness_lat": 37.59450972,
        "fitness_lon": 127.0158864,
        "fitness_type": "운동시설",
        "fitness_name": "엠에프짐(MF GYM)",
        "distance": 203.07680840754728,
        "walking_time": "약 4분"
      },
      {
        "fitness_lat": 37.59373206,
        "fitness_lon": 127.0159782,
        "fitness_type": "운동시설",
        "fitness_name": "오라쁘띠휘트니스센터",
        "distance": 214.2072536214193,
        "walking_time": "약 4분"
      },
      {
        "fitness_lat": 37.59257476,
        "fitness_lon": 127.0170888,
        "fitness_type": "운동시설",
        "fitness_name": "유타짐",
        "distance": 238.10198484253868,
        "walking_time": "약 4분"
      },
      {
        "fitness_lat": 37.59302413,
        "fitness_lon": 127.0161745,
        "fitness_type": "운동시설",
        "fitness_name": "조인성퍼스널트레이닝 NO.2",
        "distance": 244.13471603895823,
        "walking_time": "약 4분"
      }
    ],
    "gas_station": [
      {
        "gas_station_lat": 37.6005363,
        "gas_station_lon": 127.0142117,
        "gas_station_type": "주유소",
        "gas_station_name": "현대오일뱅크(주)직영 아리랑주유소",
        "distance": 754.321156468721,
        "walking_time": "약 12분"
      },
      {
        "gas_station_lat": 37.58767101,
        "gas_station_lon": 127.0183894,
        "gas_station_type": "주유소",
        "gas_station_name": "(주)성북주유소",
        "distance": 762.8625963668627,
        "walking_time": "약 12분"
      },
      {
        "gas_station_lat": 37.58295795,
        "gas_station_lon": 127.0203742,
        "gas_station_type": "주유소",
        "gas_station_name": "동일주유소",
        "distance": 1301.0283174913957,
        "walking_time": "약 20분"
      },
      {
        "gas_station_lat": 37.58798513,
        "gas_station_lon": 127.0055411,
        "gas_station_type": "주유소",
        "gas_station_name": "삼선주유소",
        "distance": 1331.1276490485714,
        "walking_time": "약 20분"
      },
      {
        "gas_station_lat": 37.60543076,
        "gas_station_lon": 127.0085513,
        "gas_station_type": "주유소",
        "gas_station_name": "현대오일뱅크(주)직영 북악셀프주유소",
        "distance": 1480.0365163932506,
        "walking_time": "약 23분"
      },
      {
        "gas_station_lat": 37.60761582,
        "gas_station_lon": 127.0099732,
        "gas_station_type": "주유소",
        "gas_station_name": "㈜삼표에너지 정릉주유소",
        "distance": 1625.258595505019,
        "walking_time": "약 25분"
      },
      {
        "gas_station_lat": 37.60917749,
        "gas_station_lon": 127.0101203,
        "gas_station_type": "주유소",
        "gas_station_name": "㈜이케이에너지(주) 강산제2주유소",
        "distance": 1777.1797718686212,
        "walking_time": "약 27분"
      },
      {
        "gas_station_lat": 37.58606542,
        "gas_station_lon": 127.0010786,
        "gas_station_type": "주유소",
        "gas_station_name": "㈜중앙에너비스 혜화지점",
        "distance": 1777.4386689979517,
        "walking_time": "약 27분"
      },
      {
        "gas_station_lat": 37.60880835,
        "gas_station_lon": 127.0294735,
        "gas_station_type": "주유소",
        "gas_station_name": "지에스칼텍스(주) 세창주유소",
        "distance": 1873.1524921602104,
        "walking_time": "약 28분"
      }
    ],
    "hospital": [
      {
        "hospital_lat": 37.59431861,
        "hospital_lon": 127.0184446,
        "hospital_type": "병원",
        "hospital_name": "덕생당한의원",
        "distance": 32.40233167559912,
        "walking_time": "약 1분"
      },
      {
        "hospital_lat": 37.59438139,
        "hospital_lon": 127.0185262,
        "hospital_type": "병원",
        "hospital_name": "세연온마음의원",
        "distance": 33.81542898774611,
        "walking_time": "약 1분"
      },
      {
        "hospital_lat": 37.59415628,
        "hospital_lon": 127.0182186,
        "hospital_type": "병원",
        "hospital_name": "김윤호서울외과의원",
        "distance": 41.60366705619118,
        "walking_time": "약 1분"
      },
      {
        "hospital_lat": 37.59415628,
        "hospital_lon": 127.0182186,
        "hospital_type": "병원",
        "hospital_name": "무지개정신건강의학과의원",
        "distance": 41.60366705619118,
        "walking_time": "약 1분"
      },
      {
        "hospital_lat": 37.59415628,
        "hospital_lon": 127.0182186,
        "hospital_type": "병원",
        "hospital_name": "미래정형외과의원",
        "distance": 41.60366705619118,
        "walking_time": "약 1분"
      },
      {
        "hospital_lat": 37.59415628,
        "hospital_lon": 127.0182186,
        "hospital_type": "병원",
        "hospital_name": "유항맥서울외과의원",
        "distance": 41.60366705619118,
        "walking_time": "약 1분"
      },
      {
        "hospital_lat": 37.59415628,
        "hospital_lon": 127.0182186,
        "hospital_type": "병원",
        "hospital_name": "이인섭안과의원",
        "distance": 41.60366705619118,
        "walking_time": "약 1분"
      },
      {
        "hospital_lat": 37.59415628,
        "hospital_lon": 127.0182186,
        "hospital_type": "병원",
        "hospital_name": "이진형치과의원",
        "distance": 41.60366705619118,
        "walking_time": "약 1분"
      },
      {
        "hospital_lat": 37.59415628,
        "hospital_lon": 127.0182186,
        "hospital_type": "병원",
        "hospital_name": "준성형외과의원",
        "distance": 41.60366705619118,
        "walking_time": "약 1분"
      },
      {
        "hospital_lat": 37.59389575,
        "hospital_lon": 127.0179807,
        "hospital_type": "병원",
        "hospital_name": "탑경희한의원",
        "distance": 72.90170005028251,
        "walking_time": "약 2분"
      }
    ],
    "music_room": [
      {
        "music_room_lat": 37.59435679,
        "music_room_lon": 127.0167965,
        "music_room_type": "노래방",
        "music_room_name": "영 노래연습장",
        "distance": 124.37703222724627,
        "walking_time": "약 2분"
      },
      {
        "music_room_lat": 37.59469632,
        "music_room_lon": 127.0164965,
        "music_room_type": "노래방",
        "music_room_name": "즐거운 노래연습장",
        "distance": 150.45515295219704,
        "walking_time": "약 3분"
      },
      {
        "music_room_lat": 37.59311844,
        "music_room_lon": 127.0187418,
        "music_room_type": "노래방",
        "music_room_name": "코인쏭 코인노래연습장",
        "distance": 164.26282176664728,
        "walking_time": "약 3분"
      },
      {
        "music_room_lat": 37.59280444,
        "music_room_lon": 127.0175896,
        "music_room_type": "노래방",
        "music_room_name": "JOY 노래연습장",
        "distance": 199.03871934705728,
        "walking_time": "약 3분"
      },
      {
        "music_room_lat": 37.59450972,
        "music_room_lon": 127.0158864,
        "music_room_type": "노래방",
        "music_room_name": "방실방실 노래연습장",
        "distance": 203.07680840754728,
        "walking_time": "약 4분"
      },
      {
        "music_room_lat": 37.59263494,
        "music_room_lon": 127.017737,
        "music_room_type": "노래방",
        "music_room_name": "판도라 노래연습장",
        "distance": 214.46545258226809,
        "walking_time": "약 4분"
      },
      {
        "music_room_lat": 37.59264231,
        "music_room_lon": 127.0190068,
        "music_room_type": "노래방",
        "music_room_name": "로데오 노래연습장",
        "distance": 221.84030728556323,
        "walking_time": "약 4분"
      },
      {
        "music_room_lat": 37.59246384,
        "music_room_lon": 127.0177633,
        "music_room_type": "노래방",
        "music_room_name": "악쓰는하마 코인노래연습장",
        "distance": 232.79732579053496,
        "walking_time": "약 4분"
      },
      {
        "music_room_lat": 37.59220198,
        "music_room_lon": 127.0173919,
        "music_room_type": "노래방",
        "music_room_name": "코인 노래연습장",
        "distance": 268.25089474842616,
        "walking_time": "약 5분"
      },
      {
        "music_room_lat": 37.59225977,
        "music_room_lon": 127.0171091,
        "music_room_type": "노래방",
        "music_room_name": "리코스타 코인노래연습장",
        "distance": 269.8211630689259,
        "walking_time": "약 5분"
      }
    ],
    "park": [
      {
        "park_lat": 37.5965837,
        "park_lon": 127.0252858,
        "park_type": "공원",
        "park_name": "개운산근린공원",
        "distance": 665.4779702836547,
        "walking_time": "약 10분"
      },
      {
        "park_lat": 37.5948509,
        "park_lon": 127.0078625,
        "park_type": "공원",
        "park_name": "성북근린공원",
        "distance": 910.708954566664,
        "walking_time": "약 14분"
      },
      {
        "park_lat": 37.580477,
        "park_lon": 127.007587,
        "park_type": "공원",
        "park_name": "낙산근린공원",
        "distance": 1820.6509574853137,
        "walking_time": "약 28분"
      },
      {
        "park_lat": 37.5802295,
        "park_lon": 127.0027886,
        "park_type": "공원",
        "park_name": "마로니에공원",
        "distance": 2090.5537103536262,
        "walking_time": "약 32분"
      }
    ],
    "park_station": [
      {
        "park_station_lat": 37.59917503,
        "park_station_lon": 127.0147062,
        "park_station_type": "주차장",
        "park_station_name": "시네마빌딩공영주차장",
        "distance": 600.8914254042995,
        "walking_time": "약 9분"
      },
      {
        "park_station_lat": 37.5968653,
        "park_station_lon": 127.0263303,
        "park_station_type": "주차장",
        "park_station_name": "개운산",
        "distance": 762.6613823837155,
        "walking_time": "약 12분"
      },
      {
        "park_station_lat": 37.5857462,
        "park_station_lon": 127.0146177,
        "park_station_type": "주차장",
        "park_station_name": "경동고",
        "distance": 1026.1895188856236,
        "walking_time": "약 16분"
      },
      {
        "park_station_lat": 37.60421138,
        "park_station_lon": 127.0257722,
        "park_station_type": "주차장",
        "park_station_name": "길음역환승주차장",
        "distance": 1266.889500239511,
        "walking_time": "약 19분"
      },
      {
        "park_station_lat": 37.60821601,
        "park_station_lon": 127.0094179,
        "park_station_type": "주차장",
        "park_station_name": "정릉시장",
        "distance": 1706.857962125802,
        "walking_time": "약 26분"
      },
      {
        "park_station_lat": 37.58023405,
        "park_station_lon": 127.0087948,
        "park_station_type": "주차장",
        "park_station_name": "낙산성곽 버스전용 주차장",
        "distance": 1792.310406301673,
        "walking_time": "약 27분"
      }
    ],
    "pc_room": [
      {
        "pc_room_lat": 37.5935007844555,
        "pc_room_lon": 127.018398672357,
        "pc_room_type": "PC방",
        "pc_room_name": "이스포츠PC방 - 158대",
        "distance": 115.87228199422074,
        "walking_time": "약 2분"
      },
      {
        "pc_room_lat": 37.5935007844555,
        "pc_room_lon": 127.018398672357,
        "pc_room_type": "PC방",
        "pc_room_name": "이스포츠PC방",
        "distance": 115.87228199422074,
        "walking_time": "약 2분"
      },
      {
        "pc_room_lat": 37.5935007844555,
        "pc_room_lon": 127.018398672357,
        "pc_room_type": "PC방",
        "pc_room_name": "로제PC방",
        "distance": 115.87228199422074,
        "walking_time": "약 2분"
      },
      {
        "pc_room_lat": 37.5956412381816,
        "pc_room_lon": 127.01615614302,
        "pc_room_type": "PC방",
        "pc_room_name": "일프로 PC 아레나",
        "distance": 217.7639395391764,
        "walking_time": "약 4분"
      },
      {
        "pc_room_lat": 37.5925747617089,
        "pc_room_lon": 127.017088831326,
        "pc_room_type": "PC방",
        "pc_room_name": "브리즈 pc 카페",
        "distance": 238.10068547714172,
        "walking_time": "약 4분"
      },
      {
        "pc_room_lat": 37.5908419743847,
        "pc_room_lon": 127.01885953079,
        "pc_room_type": "PC방",
        "pc_room_name": "해피 PC방",
        "distance": 414.2738315993531,
        "walking_time": "약 7분"
      },
      {
        "pc_room_lat": 37.5908139536716,
        "pc_room_lon": 127.017694871938,
        "pc_room_type": "PC방",
        "pc_room_name": "헬리우스",
        "distance": 415.4909800079274,
        "walking_time": "약 7분"
      },
      {
        "pc_room_lat": 37.6020693327301,
        "pc_room_lon": 127.019324173459,
        "pc_room_type": "PC방",
        "pc_room_name": "맥PC카페",
        "distance": 844.2789193141463,
        "walking_time": "약 13분"
      },
      {
        "pc_room_lat": 37.6026042927717,
        "pc_room_lon": 127.012281507183,
        "pc_room_type": "PC방",
        "pc_room_name": "보아스 셀프 PC - 2022년도 부터 안함 직권말소 대상",
        "distance": 1037.8791540336576,
        "walking_time": "약 16분"
      },
      {
        "pc_room_lat": 37.5870978553531,
        "pc_room_lon": 127.009471864277,
        "pc_room_type": "PC방",
        "pc_room_name": "3POP 피시방",
        "distance": 1128.3373649060736,
        "walking_time": "약 17분"
      }
    ],
    "police_office": [
      {
        "police_office_lat": 37.59732258,
        "police_office_lon": 127.0124034,
        "police_office_type": "경찰소",
        "police_office_name": "돈암지구대",
        "distance": 597.0429594441584,
        "walking_time": "약 9분"
      },
      {
        "police_office_lat": 37.58672153,
        "police_office_lon": 127.0165984,
        "police_office_type": "경찰소",
        "police_office_name": "안암지구대",
        "distance": 879.5091764812855,
        "walking_time": "약 14분"
      },
      {
        "police_office_lat": 37.60456095,
        "police_office_lon": 127.0107204,
        "police_office_type": "경찰소",
        "police_office_name": "정릉2파출소",
        "distance": 1295.1196837376674,
        "walking_time": "약 20분"
      },
      {
        "police_office_lat": 37.5861084,
        "police_office_lon": 127.0014075,
        "police_office_type": "경찰소",
        "police_office_name": "혜화파출소",
        "distance": 1750.3609637293434,
        "walking_time": "약 27분"
      }
    ],
    "post_office": [
      {
        "post_office_lat": 37.59019237,
        "post_office_lon": 127.0157069,
        "post_office_type": "우체국",
        "post_office_name": "서울돈암동우체국",
        "distance": 529.6456336082232,
        "walking_time": "약 8분"
      },
      {
        "post_office_lat": 37.58964925,
        "post_office_lon": 127.0073916,
        "post_office_type": "우체국",
        "post_office_name": "서울동소문동우체국",
        "distance": 1095.4111545348303,
        "walking_time": "약 17분"
      },
      {
        "post_office_lat": 37.60569395,
        "post_office_lon": 127.0115303,
        "post_office_type": "우체국",
        "post_office_name": "서울정릉우체국",
        "distance": 1373.1051728868747,
        "walking_time": "약 21분"
      },
      {
        "post_office_lat": 37.58323585,
        "post_office_lon": 127.01039,
        "post_office_type": "우체국",
        "post_office_name": "한성대학교우편취급국",
        "distance": 1431.6412058015458,
        "walking_time": "약 22분"
      },
      {
        "post_office_lat": 37.59264968,
        "post_office_lon": 127.0018981,
        "post_office_type": "우체국",
        "post_office_name": "서울성북2동우편취급국",
        "distance": 1450.6658894334994,
        "walking_time": "약 22분"
      },
      {
        "post_office_lat": 37.5818354,
        "post_office_lon": 127.0246137,
        "post_office_type": "우체국",
        "post_office_name": "서울삼익아파트우편취급국",
        "distance": 1520.765575964335,
        "walking_time": "약 23분"
      },
      {
        "post_office_lat": 37.58039622,
        "post_office_lon": 127.0110117,
        "post_office_type": "우체국",
        "post_office_name": "서울창신2동우편취급국",
        "distance": 1694.127255406003,
        "walking_time": "약 26분"
      },
      {
        "post_office_lat": 37.60731274,
        "post_office_lon": 127.0293543,
        "post_office_type": "우체국",
        "post_office_name": "서울성북우체국",
        "distance": 1728.446997378999,
        "walking_time": "약 26분"
      },
      {
        "post_office_lat": 37.58588676,
        "post_office_lon": 127.0007091,
        "post_office_type": "우체국",
        "post_office_name": "서울혜화동우체국",
        "distance": 1815.577509360688,
        "walking_time": "약 28분"
      }
    ],
    "public_health_center": [
      {
        "public_health_center_lat": 37.59360802,
        "public_health_center_lon": 127.015754,
        "public_health_center_type": "보건소",
        "public_health_center_name": "동선보건지소",
        "distance": 237.9392253855984,
        "walking_time": "약 4분"
      },
      {
        "public_health_center_lat": 37.60522963,
        "public_health_center_lon": 127.0119867,
        "public_health_center_type": "보건소",
        "public_health_center_name": "정릉아동보건지소",
        "distance": 1309.3226722815878,
        "walking_time": "약 20분"
      }
    ],
    "school": [
      {
        "school_lat": 37.597674141541,
        "school_lon": 127.019187491701,
        "school_type": "고등학교",
        "school_name": "고명외식고등학교",
        "distance": 360.48468465698033,
        "walking_time": "약 6분"
      },
      {
        "school_lat": 37.597674141541,
        "school_lon": 127.019187491701,
        "school_type": "중학교",
        "school_name": "고명중학교",
        "distance": 360.48468465698033,
        "walking_time": "약 6분"
      },
      {
        "school_lat": 37.597674141541,
        "school_lon": 127.019187491701,
        "school_type": "초등학교",
        "school_name": "매원초등학교",
        "distance": 360.48468465698033,
        "walking_time": "약 6분"
      },
      {
        "school_lat": 37.5942896306119,
        "school_lon": 127.022407171613,
        "school_type": "고등학교",
        "school_name": "성신여자고등학교",
        "distance": 372.4078810245644,
        "walking_time": "약 6분"
      },
      {
        "school_lat": 37.5946226781717,
        "school_lon": 127.023128563512,
        "school_type": "중학교",
        "school_name": "성신여자중학교",
        "distance": 435.1290916830665,
        "walking_time": "약 7분"
      },
      {
        "school_lat": 37.5946226781717,
        "school_lon": 127.023128563512,
        "school_type": "초등학교",
        "school_name": "성신초등학교",
        "distance": 435.1290916830665,
        "walking_time": "약 7분"
      },
      {
        "school_lat": 37.5937262094153,
        "school_lon": 127.013004275409,
        "school_type": "초등학교",
        "school_name": "서울돈암초등학교",
        "distance": 465.6504985287165,
        "walking_time": "약 7분"
      },
      {
        "school_lat": 37.5946266547149,
        "school_lon": 127.024842114657,
        "school_type": "중학교",
        "school_name": "개운중학교",
        "distance": 586.0779015517168,
        "walking_time": "약 9분"
      },
      {
        "school_lat": 37.5982399496277,
        "school_lon": 127.013421324355,
        "school_type": "초등학교",
        "school_name": "서울정덕초등학교",
        "distance": 588.8961788186273,
        "walking_time": "약 9분"
      },
      {
        "school_lat": 37.5956408923336,
        "school_lon": 127.011400646113,
        "school_type": "초등학교",
        "school_name": "우촌초등학교",
        "distance": 610.9011703172304,
        "walking_time": "약 10분"
      }
    ],
    "self_laundromat": [
      {
        "self_laundromat_lat": 37.59575861,
        "self_laundromat_lon": 127.0169658,
        "self_laundromat_type": "셀프 빨래방",
        "self_laundromat_name": "워시타임 성신여대입구역점",
        "distance": 174.14301637054623,
        "walking_time": "약 3분"
      },
      {
        "self_laundromat_lat": 37.59575861,
        "self_laundromat_lon": 127.0169658,
        "self_laundromat_type": "셀프 빨래방",
        "self_laundromat_name": "워시타임 성신여대입구역점",
        "distance": 174.14301637054623,
        "walking_time": "약 3분"
      },
      {
        "self_laundromat_lat": 37.59360755,
        "self_laundromat_lon": 127.0200404,
        "self_laundromat_type": "셀프 빨래방",
        "self_laundromat_name": "셀피아 성북돈암점",
        "distance": 192.5122077481195,
        "walking_time": "약 3분"
      },
      {
        "self_laundromat_lat": 37.59360755,
        "self_laundromat_lon": 127.0200404,
        "self_laundromat_type": "셀프 빨래방",
        "self_laundromat_name": "셀피아 성북돈암점",
        "distance": 192.5122077481195,
        "walking_time": "약 3분"
      },
      {
        "self_laundromat_lat": 37.59176868,
        "self_laundromat_lon": 127.019748,
        "self_laundromat_type": "셀프 빨래방",
        "self_laundromat_name": "화이트365 성신여대점",
        "distance": 336.2692027202403,
        "walking_time": "약 6분"
      },
      {
        "self_laundromat_lat": 37.59176868,
        "self_laundromat_lon": 127.019748,
        "self_laundromat_type": "셀프 빨래방",
        "self_laundromat_name": "화이트365 성신여대점",
        "distance": 336.2692027202403,
        "walking_time": "약 6분"
      },
      {
        "self_laundromat_lat": 37.59212832,
        "self_laundromat_lon": 127.0128115,
        "self_laundromat_type": "셀프 빨래방",
        "self_laundromat_name": "워시프렌즈 셀프빨래방 동소문동점",
        "distance": 544.0307385767404,
        "walking_time": "약 9분"
      },
      {
        "self_laundromat_lat": 37.59212832,
        "self_laundromat_lon": 127.0128115,
        "self_laundromat_type": "셀프 빨래방",
        "self_laundromat_name": "워시프렌즈 셀프빨래방 동소문동점",
        "distance": 544.0307385767404,
        "walking_time": "약 9분"
      },
      {
        "self_laundromat_lat": 37.59267591,
        "self_laundromat_lon": 127.0122857,
        "self_laundromat_type": "셀프 빨래방",
        "self_laundromat_name": "크린토피아 코인워시 돈암초교점",
        "distance": 559.6592247675974,
        "walking_time": "약 9분"
      },
      {
        "self_laundromat_lat": 37.59267591,
        "self_laundromat_lon": 127.0122857,
        "self_laundromat_type": "셀프 빨래방",
        "self_laundromat_name": "크린토피아 코인워시 돈암초교점",
        "distance": 559.6592247675974,
        "walking_time": "약 9분"
      }
    ],
    "subway": [
      {
        "subway_lat": 37.5927179261346,
        "subway_lon": 127.016477649743,
        "subway_type": "지하철",
        "subway_name": "4호선-성신여대입구(돈암)역",
        "distance": 251.76154333391813,
        "walking_time": "약 4분"
      },
      {
        "subway_lat": 37.5855493513282,
        "subway_lon": 127.019489277672,
        "subway_type": "지하철",
        "subway_name": "6호선-보문역",
        "distance": 1005.1090495595962,
        "walking_time": "약 16분"
      },
      {
        "subway_lat": 37.6034576002933,
        "subway_lon": 127.024541211803,
        "subway_type": "지하철",
        "subway_name": "4호선-길음역",
        "distance": 1139.5052481086882,
        "walking_time": "약 18분"
      },
      {
        "subway_lat": 37.5883948842004,
        "subway_lon": 127.00595033342,
        "subway_type": "지하철",
        "subway_name": "4호선-한성대입구(삼선교)역",
        "distance": 1276.1575092521075,
        "walking_time": "약 20분"
      },
      {
        "subway_lat": 37.5864696091911,
        "subway_lon": 127.0291828742,
        "subway_type": "지하철",
        "subway_name": "6호선-안암(고대병원앞)역",
        "distance": 1319.5497272990344,
        "walking_time": "약 20분"
      },
      {
        "subway_lat": 37.5800168892429,
        "subway_lon": 127.015211194258,
        "subway_type": "지하철",
        "subway_name": "6호선-창신역",
        "distance": 1634.9849762624326,
        "walking_time": "약 25분"
      },
      {
        "subway_lat": 37.5818758763205,
        "subway_lon": 127.002292683609,
        "subway_type": "지하철",
        "subway_name": "4호선-혜화역",
        "distance": 1985.4977462492627,
        "walking_time": "약 30분"
      }
    ],
    "supermarket": [
      {
        "supermarket_lat": 37.59257476,
        "supermarket_lon": 127.0170888,
        "supermarket_type": "마트",
        "supermarket_name": "유타쇼핑몰",
        "distance": 238.10198484253868,
        "walking_time": "약 4분"
      },
      {
        "supermarket_lat": 37.59738598,
        "supermarket_lon": 127.019323,
        "supermarket_type": "마트",
        "supermarket_name": "GS슈퍼마켓 돈암점",
        "distance": 332.87878727312983,
        "walking_time": "약 5분"
      },
      {
        "supermarket_lat": 37.59153653,
        "supermarket_lon": 127.0159183,
        "supermarket_type": "마트",
        "supermarket_name": "돈암시장",
        "distance": 388.43709653155565,
        "walking_time": "약 6분"
      },
      {
        "supermarket_lat": 37.59447253,
        "supermarket_lon": 127.012706,
        "supermarket_type": "마트",
        "supermarket_name": "동소문스카이상가",
        "distance": 483.31599794929576,
        "walking_time": "약 8분"
      },
      {
        "supermarket_lat": 37.59447253,
        "supermarket_lon": 127.012706,
        "supermarket_type": "마트",
        "supermarket_name": "동소문스카이상가",
        "distance": 483.31599794929576,
        "walking_time": "약 8분"
      },
      {
        "supermarket_lat": 37.59447253,
        "supermarket_lon": 127.012706,
        "supermarket_type": "마트",
        "supermarket_name": "GS슈퍼마켓 동소문점",
        "distance": 483.31599794929576,
        "walking_time": "약 8분"
      },
      {
        "supermarket_lat": 37.60278063,
        "supermarket_lon": 127.021592,
        "supermarket_type": "마트",
        "supermarket_name": "길음시장",
        "distance": 965.1331902304702,
        "walking_time": "약 15분"
      },
      {
        "supermarket_lat": 37.60322851,
        "supermarket_lon": 127.0178662,
        "supermarket_type": "마트",
        "supermarket_name": "롯데슈퍼 정릉점",
        "distance": 967.6760768117136,
        "walking_time": "약 15분"
      },
      {
        "supermarket_lat": 37.5858003,
        "supermarket_lon": 127.0188005,
        "supermarket_type": "마트",
        "supermarket_name": "GS THE FRESH 보문역사거리점",
        "distance": 972.1596221055488,
        "walking_time": "약 15분"
      },
      {
        "supermarket_lat": 37.60434216,
        "supermarket_lon": 127.0224292,
        "supermarket_type": "마트",
        "supermarket_name": "이마트에브리데이 길음점",
        "distance": 1153.1985225865385,
        "walking_time": "약 18분"
      }
    ],
    "tax_office": [
      {
        "tax_office_lat": 37.58790069,
        "tax_office_lon": 127.0109264,
        "tax_office_type": "세무서",
        "tax_office_name": "성북세무서",
        "distance": 976.2537927264052,
        "walking_time": "약 15분"
      }
    ],
    "theater": [
      {
        "theater_lat": 37.5925747617089,
        "theater_lon": 127.017088831326,
        "theater_type": "영화관",
        "theater_name": "CGV 성신여대입구",
        "distance": 238.10068547714172,
        "walking_time": "약 4분"
      },
      {
        "theater_lat": 37.6001190917898,
        "theater_lon": 127.013893650352,
        "theater_type": "영화관",
        "theater_name": "아리랑시네센터",
        "distance": 727.7483394627043,
        "walking_time": "약 11분"
      }
    ],
    "university": [
      {
        "university_lat": 37.5946591280857,
        "university_lon": 127.019888420673,
        "university_type": "대학교",
        "university_name": "성신여자대학교",
        "distance": 150.22355516800624,
        "walking_time": "약 3분"
      },
      {
        "university_lat": 37.5832358514072,
        "university_lon": 127.010390004805,
        "university_type": "대학교",
        "university_name": "한성대학교",
        "distance": 1431.640865263529,
        "walking_time": "약 22분"
      },
      {
        "university_lat": 37.5849009775207,
        "university_lon": 127.004770664086,
        "university_type": "대학교",
        "university_name": "가톨릭대학교",
        "distance": 1595.192411385711,
        "walking_time": "약 24분"
      }
    ]
  }
}