{
  "클러스터_위도": 37.53011799999999,
  "클러스터_경도": 127.079155,
  "클러스터_level": 4.0,
  "facilities": {
    "bus": [
      {
        "bus_lat": 37.528429,
        "bus_lon": 127.078333,
        "bus_type": "버스정류장",
        "bus_name": "자양한강도서관",
        "distance": 201.31101972042737,
        "walking_time": "약 4분"
      },
      {
        "bus_lat": 37.53198601,
        "bus_lon": 127.0792388,
        "bus_type": "버스정류장",
        "bus_name": "국민은행자양지점",
        "distance": 207.844635829837,
        "walking_time": "약 4분"
      },
      {
        "bus_lat": 37.53153084,
        "bus_lon": 127.0807387,
        "bus_type": "버스정류장",
        "bus_name": "국민은행자양지점앞",
        "distance": 210.19779450255703,
        "walking_time": "약 4분"
      },
      {
        "bus_lat": 37.53227793,
        "bus_lon": 127.07903,
        "bus_type": "버스정류장",
        "bus_name": "국민은행자양지점",
        "distance": 240.42605787835524,
        "walking_time": "약 4분"
      },
      {
        "bus_lat": 37.53157273,
        "bus_lon": 127.0814131,
        "bus_type": "버스정류장",
        "bus_name": "국민은행자양지점앞",
        "distance": 256.54374402273294,
        "walking_time": "약 4분"
      },
      {
        "bus_lat": 37.53130001,
        "bus_lon": 127.0822557,
        "bus_type": "버스정류장",
        "bus_name": "성자초등학교앞",
        "distance": 303.37120380900967,
        "walking_time": "약 5분"
      },
      {
        "bus_lat": 37.53275,
        "bus_lon": 127.077319,
        "bus_type": "버스정류장",
        "bus_name": "자양미소약국.자양골목시장",
        "distance": 334.460429162688,
        "walking_time": "약 5분"
      },
      {
        "bus_lat": 37.53151966,
        "bus_lon": 127.0825683,
        "bus_type": "버스정류장",
        "bus_name": "성자초등학교앞",
        "distance": 338.94588270426925,
        "walking_time": "약 6분"
      },
      {
        "bus_lat": 37.53270034,
        "bus_lon": 127.0768713,
        "bus_type": "버스정류장",
        "bus_name": "자양미소약국.자양골목시장",
        "distance": 350.7185355882503,
        "walking_time": "약 6분"
      },
      {
        "bus_lat": 37.53044032,
        "bus_lon": 127.0749155,
        "bus_type": "버스정류장",
        "bus_name": "신자초등학교앞",
        "distance": 375.5577696484361,
        "walking_time": "약 6분"
      }
    ],
    "community_center": [
      {
        "community_center_lat": 37.52879933,
        "community_center_lon": 127.0843875,
        "community_center_type": "주민센터",
        "community_center_name": "자양2동 자치회관",
        "distance": 484.1505523397183,
        "walking_time": "약 8분"
      },
      {
        "community_center_lat": 37.53449795,
        "community_center_lon": 127.0823949,
        "community_center_type": "주민센터",
        "community_center_name": "자양1동 자치회관",
        "distance": 564.6373413537796,
        "walking_time": "약 9분"
      },
      {
        "community_center_lat": 37.53383394,
        "community_center_lon": 127.0729024,
        "community_center_type": "주민센터",
        "community_center_name": "자양3동 자치회관",
        "distance": 688.9950406980446,
        "walking_time": "약 11분"
      },
      {
        "community_center_lat": 37.53409779,
        "community_center_lon": 127.0662584,
        "community_center_type": "주민센터",
        "community_center_name": "자양4동 자치회관",
        "distance": 1220.2776637035402,
        "walking_time": "약 19분"
      },
      {
        "community_center_lat": 37.54241324,
        "community_center_lon": 127.0856773,
        "community_center_type": "주민센터",
        "community_center_name": "구의1동 자치회관",
        "distance": 1483.2012981643416,
        "walking_time": "약 23분"
      },
      {
        "community_center_lat": 37.54652678,
        "community_center_lon": 127.0712676,
        "community_center_type": "주민센터",
        "community_center_name": "화양동 자치회관",
        "distance": 1952.6161761739231,
        "walking_time": "약 30분"
      },
      {
        "community_center_lat": 37.5471696,
        "community_center_lon": 127.089934,
        "community_center_type": "주민센터",
        "community_center_name": "구의2동 자치회관",
        "distance": 2120.9115746397592,
        "walking_time": "약 32분"
      }
    ],
    "convenience_store": [
      {
        "convenience_store_lat": 37.52991683,
        "convenience_store_lon": 127.0788035,
        "convenience_store_type": "편의점",
        "convenience_store_name": "GS25 자양강변점",
        "distance": 38.22450730893684,
        "walking_time": "약 1분"
      },
      {
        "convenience_store_lat": 37.52968179,
        "convenience_store_lon": 127.0799644,
        "convenience_store_type": "편의점",
        "convenience_store_name": "세븐일레븐 자양강변점",
        "distance": 86.29563923768127,
        "walking_time": "약 2분"
      },
      {
        "convenience_store_lat": 37.53015631,
        "convenience_store_lon": 127.0804103,
        "convenience_store_type": "편의점",
        "convenience_store_name": "CU 자양진영점",
        "distance": 110.7758590846938,
        "walking_time": "약 2분"
      },
      {
        "convenience_store_lat": 37.53009221,
        "convenience_store_lon": 127.0768171,
        "convenience_store_type": "편의점",
        "convenience_store_name": "CU 자양동명점",
        "distance": 206.17897544252028,
        "walking_time": "약 4분"
      },
      {
        "convenience_store_lat": 37.53174107,
        "convenience_store_lon": 127.0780111,
        "convenience_store_type": "편의점",
        "convenience_store_name": "GS25 자양한양점",
        "distance": 206.7526284171514,
        "walking_time": "약 4분"
      },
      {
        "convenience_store_lat": 37.53145217,
        "convenience_store_lon": 127.0810196,
        "convenience_store_type": "편의점",
        "convenience_store_name": "미니스톱 자양점",
        "distance": 221.4564671075784,
        "walking_time": "약 4분"
      },
      {
        "convenience_store_lat": 37.53145217,
        "convenience_store_lon": 127.0810196,
        "convenience_store_type": "편의점",
        "convenience_store_name": "이마트24 24광진자양점",
        "distance": 221.4564671075784,
        "walking_time": "약 4분"
      },
      {
        "convenience_store_lat": 37.53225748,
        "convenience_store_lon": 127.0811561,
        "convenience_store_type": "편의점",
        "convenience_store_name": "GS25 광진자양로점",
        "distance": 296.1978467663964,
        "walking_time": "약 5분"
      },
      {
        "convenience_store_lat": 37.52987866,
        "convenience_store_lon": 127.0825739,
        "convenience_store_type": "편의점",
        "convenience_store_name": "GS25 자양에덴점",
        "distance": 302.65580076085774,
        "walking_time": "약 5분"
      },
      {
        "convenience_store_lat": 37.53303557,
        "convenience_store_lon": 127.0786416,
        "convenience_store_type": "편의점",
        "convenience_store_name": "세븐일레븐 자양정말공원점",
        "distance": 327.5624730811805,
        "walking_time": "약 5분"
      }
    ],
    "daycare": [
      {
        "daycare_lat": 37.530254,
        "daycare_lon": 127.079926,
        "daycare_type": "어린이집",
        "daycare_name": "착한어린이집",
        "distance": 69.64924603549798,
        "walking_time": "약 2분"
      },
      {
        "daycare_lat": 37.52964,
        "daycare_lon": 127.08079,
        "daycare_type": "어린이집",
        "daycare_name": "데커어린이집",
        "distance": 153.66199599349395,
        "walking_time": "약 3분"
      },
      {
        "daycare_lat": 37.52885,
        "daycare_lon": 127.080025,
        "daycare_type": "어린이집",
        "daycare_name": "자양민들레어린이집",
        "distance": 160.51586731839956,
        "walking_time": "약 3분"
      },
      {
        "daycare_lat": 37.53007113268252,
        "daycare_lon": 127.0766693254258,
        "daycare_type": "어린이집",
        "daycare_name": "구립 한가람어린이집",
        "distance": 219.2519580681173,
        "walking_time": "약 4분"
      },
      {
        "daycare_lat": 37.52809164117024,
        "daycare_lon": 127.08138311158154,
        "daycare_type": "어린이집",
        "daycare_name": "포도나무어린이집",
        "distance": 298.9548679215088,
        "walking_time": "약 5분"
      },
      {
        "daycare_lat": 37.52857186,
        "daycare_lon": 127.0820439,
        "daycare_type": "어린이집",
        "daycare_name": "사랑해어린이집",
        "distance": 307.33500929886645,
        "walking_time": "약 5분"
      },
      {
        "daycare_lat": 37.528572,
        "daycare_lon": 127.08205,
        "daycare_type": "어린이집",
        "daycare_name": "보람어린이집",
        "distance": 307.77233463331817,
        "walking_time": "약 5분"
      },
      {
        "daycare_lat": 37.531509494089576,
        "daycare_lon": 127.0761073747098,
        "daycare_type": "어린이집",
        "daycare_name": "평강마을어린이집",
        "distance": 310.10027061854146,
        "walking_time": "약 5분"
      },
      {
        "daycare_lat": 37.53294,
        "daycare_lon": 127.07809,
        "daycare_type": "어린이집",
        "daycare_name": "구립 중앙어린이집",
        "distance": 327.54358407054,
        "walking_time": "약 5분"
      },
      {
        "daycare_lat": 37.529514,
        "daycare_lon": 127.08285,
        "daycare_type": "어린이집",
        "daycare_name": "슬기어린이집",
        "distance": 332.6809532988889,
        "walking_time": "약 5분"
      }
    ],
    "education": [
      {
        "education_lat": 37.52921552,
        "education_lon": 127.077668,
        "education_type": "도서관",
        "education_name": "자양한강도서관",
        "distance": 165.11959619560955,
        "walking_time": "약 3분"
      },
      {
        "education_lat": 37.53918267,
        "education_lon": 127.0747119,
        "education_type": "공연장",
        "education_name": "건국대학교 새천년관대공연장",
        "distance": 1081.406925819956,
        "walking_time": "약 17분"
      },
      {
        "education_lat": 37.53757063,
        "education_lon": 127.070576,
        "education_type": "문화예술회관",
        "education_name": "나루아트센터",
        "distance": 1122.0430783920092,
        "walking_time": "약 17분"
      },
      {
        "education_lat": 37.534067607714206,
        "education_lon": 127.06609416533551,
        "education_type": "도서관",
        "education_name": "자양4동도서관",
        "distance": 1232.5854552344065,
        "walking_time": "약 19분"
      },
      {
        "education_lat": 37.54240517067264,
        "education_lon": 127.07559228463867,
        "education_type": "박물관/기념관",
        "education_name": "건국대학교 박물관",
        "distance": 1401.9200413591527,
        "walking_time": "약 21분"
      }
    ],
    "electric_gas_station": [
      {
        "electric_gas_station_lat": 37.54494633,
        "electric_gas_station_lon": 127.0642049,
        "electric_gas_station_type": "전기차 충전소",
        "electric_gas_station_name": "기아차 성동서비스센터",
        "distance": 2110.989357160756,
        "walking_time": "약 32분"
      }
    ],
    "fitness": [
      {
        "fitness_lat": 37.53115681,
        "fitness_lon": 127.0790314,
        "fitness_type": "운동시설",
        "fitness_name": "근 & 짐",
        "distance": 116.02346285005238,
        "walking_time": "약 2분"
      },
      {
        "fitness_lat": 37.53179226,
        "fitness_lon": 127.0797451,
        "fitness_type": "운동시설",
        "fitness_name": "타운케이 휘트니스",
        "distance": 193.3045217102255,
        "walking_time": "약 3분"
      },
      {
        "fitness_lat": 37.53208274,
        "fitness_lon": 127.0788072,
        "fitness_type": "운동시설",
        "fitness_name": "아름다운휘트니스",
        "distance": 220.61130214320764,
        "walking_time": "약 4분"
      },
      {
        "fitness_lat": 37.53130275,
        "fitness_lon": 127.0823622,
        "fitness_type": "운동시설",
        "fitness_name": "NX PT STUDIO",
        "distance": 311.9903687585309,
        "walking_time": "약 5분"
      },
      {
        "fitness_lat": 37.53048773,
        "fitness_lon": 127.0827224,
        "fitness_type": "운동시설",
        "fitness_name": "Must run 스피드 트레이닝 센터",
        "distance": 317.2521868315044,
        "walking_time": "약 5분"
      },
      {
        "fitness_lat": 37.532864,
        "fitness_lon": 127.077303,
        "fitness_type": "운동시설",
        "fitness_name": "피트니즈 자양점",
        "distance": 346.2701615607109,
        "walking_time": "약 6분"
      },
      {
        "fitness_lat": 37.53244934,
        "fitness_lon": 127.0763743,
        "fitness_type": "운동시설",
        "fitness_name": "프리원핏 건대점",
        "distance": 356.82738042636873,
        "walking_time": "약 6분"
      },
      {
        "fitness_lat": 37.52883578,
        "fitness_lon": 127.0829154,
        "fitness_type": "운동시설",
        "fitness_name": "광운헬스",
        "distance": 360.952049924822,
        "walking_time": "약 6분"
      },
      {
        "fitness_lat": 37.53215961,
        "fitness_lon": 127.0756142,
        "fitness_type": "운동시설",
        "fitness_name": "에이투짐(A2GYM)",
        "distance": 386.0348147227501,
        "walking_time": "약 6분"
      },
      {
        "fitness_lat": 37.53138727,
        "fitness_lon": 127.0749226,
        "fitness_type": "운동시설",
        "fitness_name": "짐에잇",
        "distance": 399.01014269127,
        "walking_time": "약 6분"
      }
    ],
    "gas_station": [
      {
        "gas_station_lat": 37.53132018,
        "gas_station_lon": 127.0858548,
        "gas_station_type": "주유소",
        "gas_station_name": "현대오일뱅크㈜직영 장호셀프주유소",
        "distance": 605.726581379139,
        "walking_time": "약 10분"
      },
      {
        "gas_station_lat": 37.53815181,
        "gas_station_lon": 127.075893,
        "gas_station_type": "주유소",
        "gas_station_name": "자양주유소",
        "distance": 938.4832141344996,
        "walking_time": "약 15분"
      },
      {
        "gas_station_lat": 37.54511911,
        "gas_station_lon": 127.0804396,
        "gas_station_type": "주유소",
        "gas_station_name": "㈜창원씨더블유",
        "distance": 1671.8884919612203,
        "walking_time": "약 25분"
      },
      {
        "gas_station_lat": 37.54202743,
        "gas_station_lon": 127.0634234,
        "gas_station_type": "주유소",
        "gas_station_name": "지에스칼텍스㈜ 도루코주유소",
        "distance": 1917.7572708628657,
        "walking_time": "약 29분"
      },
      {
        "gas_station_lat": 37.54411438,
        "gas_station_lon": 127.0646451,
        "gas_station_type": "주유소",
        "gas_station_name": "현대오일뱅크㈜ 직영 효진주유소",
        "distance": 2014.688238071253,
        "walking_time": "약 31분"
      }
    ],
    "hospital": [
      {
        "hospital_lat": 37.53174677,
        "hospital_lon": 127.0800042,
        "hospital_type": "병원",
        "hospital_name": "김동욱한의원",
        "distance": 195.981125612404,
        "walking_time": "약 3분"
      },
      {
        "hospital_lat": 37.53194242,
        "hospital_lon": 127.0793965,
        "hospital_type": "병원",
        "hospital_name": "조민수치과의원",
        "distance": 203.9809148858752,
        "walking_time": "약 4분"
      },
      {
        "hospital_lat": 37.53151361,
        "hospital_lon": 127.0807622,
        "hospital_type": "병원",
        "hospital_name": "서울삼성치과의원",
        "distance": 210.1615805680441,
        "walking_time": "약 4분"
      },
      {
        "hospital_lat": 37.5320496,
        "hospital_lon": 127.079985,
        "hospital_type": "병원",
        "hospital_name": "서소아과의원",
        "distance": 226.91170619079472,
        "walking_time": "약 4분"
      },
      {
        "hospital_lat": 37.53220551,
        "hospital_lon": 127.0795416,
        "hospital_type": "병원",
        "hospital_name": "이튼플러스치과의원",
        "distance": 234.6105112103056,
        "walking_time": "약 4분"
      },
      {
        "hospital_lat": 37.53229733,
        "hospital_lon": 127.0791174,
        "hospital_type": "병원",
        "hospital_name": "배건태한의원",
        "distance": 242.3531202365292,
        "walking_time": "약 4분"
      },
      {
        "hospital_lat": 37.5317745,
        "hospital_lon": 127.0812168,
        "hospital_type": "병원",
        "hospital_name": "굿모닝의원",
        "distance": 258.8097717107036,
        "walking_time": "약 4분"
      },
      {
        "hospital_lat": 37.5317745,
        "hospital_lon": 127.0812168,
        "hospital_type": "병원",
        "hospital_name": "서울허브치과의원",
        "distance": 258.8097717107036,
        "walking_time": "약 4분"
      },
      {
        "hospital_lat": 37.5317745,
        "hospital_lon": 127.0812168,
        "hospital_type": "병원",
        "hospital_name": "자양경희한의원",
        "distance": 258.8097717107036,
        "walking_time": "약 4분"
      },
      {
        "hospital_lat": 37.5317745,
        "hospital_lon": 127.0812168,
        "hospital_type": "병원",
        "hospital_name": "현대마취통증의학과의원",
        "distance": 258.8097717107036,
        "walking_time": "약 4분"
      }
    ],
    "music_room": [
      {
        "music_room_lat": 37.53077261,
        "music_room_lon": 127.0791882,
        "music_room_type": "노래방",
        "music_room_name": "킹",
        "distance": 72.84816167347202,
        "walking_time": "약 2분"
      },
      {
        "music_room_lat": 37.53105065,
        "music_room_lon": 127.0793322,
        "music_room_type": "노래방",
        "music_room_name": "우리",
        "distance": 104.87651708401096,
        "walking_time": "약 2분"
      },
      {
        "music_room_lat": 37.53142036,
        "music_room_lon": 127.0791645,
        "music_room_type": "노래방",
        "music_room_name": "스타노래연습장",
        "distance": 144.81824760591283,
        "walking_time": "약 3분"
      },
      {
        "music_room_lat": 37.53174677,
        "music_room_lon": 127.0800042,
        "music_room_type": "노래방",
        "music_room_name": "망고 노래연습장",
        "distance": 195.981125612404,
        "walking_time": "약 3분"
      },
      {
        "music_room_lat": 37.53194242,
        "music_room_lon": 127.0793965,
        "music_room_type": "노래방",
        "music_room_name": "자양노래연습장",
        "distance": 203.9809148858752,
        "walking_time": "약 4분"
      },
      {
        "music_room_lat": 37.53199217,
        "music_room_lon": 127.0792371,
        "music_room_type": "노래방",
        "music_room_name": "드라마",
        "distance": 208.5239066469455,
        "walking_time": "약 4분"
      },
      {
        "music_room_lat": 37.53151361,
        "music_room_lon": 127.0807622,
        "music_room_type": "노래방",
        "music_room_name": "방방노래연습장",
        "distance": 210.1615805680441,
        "walking_time": "약 4분"
      },
      {
        "music_room_lat": 37.53203298,
        "music_room_lon": 127.0791123,
        "music_room_type": "노래방",
        "music_room_name": "OK",
        "distance": 212.96934835503671,
        "walking_time": "약 4분"
      },
      {
        "music_room_lat": 37.53222483,
        "music_room_lon": 127.0798815,
        "music_room_type": "노래방",
        "music_room_name": "와와 노래연습장",
        "distance": 242.8701608607321,
        "walking_time": "약 4분"
      },
      {
        "music_room_lat": 37.53262707,
        "music_room_lon": 127.0780749,
        "music_room_type": "노래방",
        "music_room_name": "파티 노래연습장",
        "distance": 294.80487440658186,
        "walking_time": "약 5분"
      }
    ],
    "park": [
      {
        "park_lat": 37.5498987,
        "park_lon": 127.0809212,
        "park_type": "공원",
        "park_name": "어린이대공원",
        "distance": 2205.0192474141413,
        "walking_time": "약 33분"
      }
    ],
    "park_station": [
      {
        "park_station_lat": 37.52938428,
        "park_station_lon": 127.0775295,
        "park_station_type": "주차장",
        "park_station_name": "자양유수지 공영주차장",
        "distance": 164.9316181916568,
        "walking_time": "약 3분"
      },
      {
        "park_station_lat": 37.52754812,
        "park_station_lon": 127.0783651,
        "park_station_type": "주차장",
        "park_station_name": "뚝섬1주차장",
        "distance": 294.12466239934025,
        "walking_time": "약 5분"
      },
      {
        "park_station_lat": 37.53195251,
        "park_station_lon": 127.0755504,
        "park_station_type": "주차장",
        "park_station_name": "송림기사식당길 공영주차장",
        "distance": 377.6804813862812,
        "walking_time": "약 6분"
      },
      {
        "park_station_lat": 37.53152817,
        "park_station_lon": 127.0749452,
        "park_station_type": "주차장",
        "park_station_name": "송림기사식당길 공영주차장",
        "distance": 402.98039142715913,
        "walking_time": "약 7분"
      },
      {
        "park_station_lat": 37.53379756,
        "park_station_lon": 127.0771189,
        "park_station_type": "주차장",
        "park_station_name": "송림 기사식당길 공영주차장",
        "distance": 446.808182733273,
        "walking_time": "약 7분"
      },
      {
        "park_station_lat": 37.53379726,
        "park_station_lon": 127.0815891,
        "park_station_type": "주차장",
        "park_station_name": "자양전통시장 공영주차장",
        "distance": 462.0000549172229,
        "walking_time": "약 7분"
      },
      {
        "park_station_lat": 37.52939776,
        "park_station_lon": 127.0730566,
        "park_station_type": "주차장",
        "park_station_name": "뚝섬2주차장",
        "distance": 543.698044762637,
        "walking_time": "약 9분"
      },
      {
        "park_station_lat": 37.53522965,
        "park_station_lon": 127.0758119,
        "park_station_type": "주차장",
        "park_station_name": "송림 기사식당길 공영주차장",
        "distance": 640.286700756783,
        "walking_time": "약 10분"
      },
      {
        "park_station_lat": 37.53714077,
        "park_station_lon": 127.0766272,
        "park_station_type": "주차장",
        "park_station_name": "송림기사식당길 공영주차장",
        "distance": 812.0843370339892,
        "walking_time": "약 13분"
      },
      {
        "park_station_lat": 37.53774586,
        "park_station_lon": 127.0773479,
        "park_station_type": "주차장",
        "park_station_name": "송림 기사식당길 공영주차장",
        "distance": 863.0172443413446,
        "walking_time": "약 13분"
      }
    ],
    "pc_room": [
      {
        "pc_room_lat": 37.531532669959,
        "pc_room_lon": 127.079629698305,
        "pc_room_type": "PC방",
        "pc_room_name": "맥PC카페 자양점",
        "distance": 162.77828918118678,
        "walking_time": "약 3분"
      },
      {
        "pc_room_lat": 37.53262182371,
        "pc_room_lon": 127.080127422591,
        "pc_room_type": "PC방",
        "pc_room_name": "오엑스피씨방 자양동점",
        "distance": 291.3181077255071,
        "walking_time": "약 5분"
      },
      {
        "pc_room_lat": 37.532708250351,
        "pc_room_lon": 127.077942462278,
        "pc_room_type": "PC방",
        "pc_room_name": "맵스 PC방",
        "distance": 307.2283038260009,
        "walking_time": "약 5분"
      },
      {
        "pc_room_lat": 37.5313918517588,
        "pc_room_lon": 127.075360551131,
        "pc_room_type": "PC방",
        "pc_room_name": "제트4PC방",
        "distance": 363.3432885980723,
        "walking_time": "약 6분"
      },
      {
        "pc_room_lat": 37.5349321680697,
        "pc_room_lon": 127.082356422124,
        "pc_room_type": "PC방",
        "pc_room_name": "스마일PC",
        "distance": 605.185239126052,
        "walking_time": "약 10분"
      },
      {
        "pc_room_lat": 37.535821774302,
        "pc_room_lon": 127.082545105767,
        "pc_room_type": "PC방",
        "pc_room_name": "비원PC방",
        "distance": 701.1485203557927,
        "walking_time": "약 11분"
      },
      {
        "pc_room_lat": 37.535732559894,
        "pc_room_lon": 127.083208933655,
        "pc_room_type": "PC방",
        "pc_room_name": "놀이터PC",
        "distance": 719.4072272314929,
        "walking_time": "약 11분"
      },
      {
        "pc_room_lat": 37.5364830461728,
        "pc_room_lon": 127.082634313783,
        "pc_room_type": "PC방",
        "pc_room_name": "라이온 PC",
        "distance": 771.3948053402441,
        "walking_time": "약 12분"
      },
      {
        "pc_room_lat": 37.5372444977042,
        "pc_room_lon": 127.08209431704,
        "pc_room_type": "PC방",
        "pc_room_name": "구의 PC",
        "distance": 833.7387879330615,
        "walking_time": "약 13분"
      },
      {
        "pc_room_lat": 37.537235766975,
        "pc_room_lon": 127.084759909345,
        "pc_room_type": "PC방",
        "pc_room_name": "에코스PC방 구의점",
        "distance": 933.0948873494812,
        "walking_time": "약 14분"
      }
    ],
    "police_office": [
      {
        "police_office_lat": 37.53662079,
        "police_office_lon": 127.0769223,
        "police_office_type": "경찰소",
        "police_office_name": "자양1파출소",
        "distance": 749.3997532755413,
        "walking_time": "약 12분"
      },
      {
        "police_office_lat": 37.53385103,
        "police_office_lon": 127.0716125,
        "police_office_type": "경찰소",
        "police_office_name": "자양파출소",
        "distance": 783.9952361582484,
        "walking_time": "약 12분"
      },
      {
        "police_office_lat": 37.53518701,
        "police_office_lon": 127.063636,
        "police_office_type": "경찰소",
        "police_office_name": "자양4파출소",
        "distance": 1479.9742005010155,
        "walking_time": "약 23분"
      },
      {
        "police_office_lat": 37.54652678,
        "police_office_lon": 127.0712676,
        "police_office_type": "경찰소",
        "police_office_name": "화양지구대",
        "distance": 1952.6161761739231,
        "walking_time": "약 30분"
      }
    ],
    "post_office": [
      {
        "post_office_lat": 37.53150528,
        "post_office_lon": 127.0805542,
        "post_office_type": "우체국",
        "post_office_name": "서울자양동우체국",
        "distance": 197.5318299217365,
        "walking_time": "약 3분"
      },
      {
        "post_office_lat": 37.53560103,
        "post_office_lon": 127.0873067,
        "post_office_type": "우체국",
        "post_office_name": "동서울우편집중국",
        "distance": 942.5447510014194,
        "walking_time": "약 15분"
      },
      {
        "post_office_lat": 37.53918267,
        "post_office_lon": 127.0747119,
        "post_office_type": "우체국",
        "post_office_name": "건국대학교우편취급국",
        "distance": 1081.406925819956,
        "walking_time": "약 17분"
      },
      {
        "post_office_lat": 37.53775396,
        "post_office_lon": 127.0899611,
        "post_office_type": "우체국",
        "post_office_name": "서울광진우체국",
        "distance": 1276.26564915297,
        "walking_time": "약 20분"
      },
      {
        "post_office_lat": 37.53775396,
        "post_office_lon": 127.0899611,
        "post_office_type": "우체국",
        "post_office_name": "동서울물류센터",
        "distance": 1276.26564915297,
        "walking_time": "약 20분"
      },
      {
        "post_office_lat": 37.53955017,
        "post_office_lon": 127.0674106,
        "post_office_type": "우체국",
        "post_office_name": "서울성수노룬산우편취급국",
        "distance": 1473.9090256620327,
        "walking_time": "약 22분"
      },
      {
        "post_office_lat": 37.5479075,
        "post_office_lon": 127.0693931,
        "post_office_type": "우체국",
        "post_office_name": "서울화양동우체국",
        "distance": 2157.247514761425,
        "walking_time": "약 33분"
      },
      {
        "post_office_lat": 37.54793719,
        "post_office_lon": 127.0889468,
        "post_office_type": "우체국",
        "post_office_name": "서울경안우편취급국",
        "distance": 2161.326797652468,
        "walking_time": "약 33분"
      }
    ],
    "public_health_center": [
      {
        "public_health_center_lat": 37.53853161,
        "public_health_center_lon": 127.0819098,
        "public_health_center_type": "보건소",
        "public_health_center_name": "광진구청",
        "distance": 966.57101554186,
        "walking_time": "약 15분"
      },
      {
        "public_health_center_lat": 37.54026343,
        "public_health_center_lon": 127.0651093,
        "public_health_center_type": "보건소",
        "public_health_center_name": "자양보건지소",
        "distance": 1675.2602053589806,
        "walking_time": "약 26분"
      }
    ],
    "school": [
      {
        "school_lat": 37.5302454529249,
        "school_lon": 127.075587591515,
        "school_type": "초등학교",
        "school_name": "서울신자초등학교",
        "distance": 314.8974220237906,
        "walking_time": "약 5분"
      },
      {
        "school_lat": 37.531493571169,
        "school_lon": 127.083408323591,
        "school_type": "초등학교",
        "school_name": "서울성자초등학교",
        "distance": 405.0502737332002,
        "walking_time": "약 7분"
      },
      {
        "school_lat": 37.529378916523,
        "school_lon": 127.085182284683,
        "school_type": "고등학교",
        "school_name": "광양고등학교",
        "distance": 537.8124326880132,
        "walking_time": "약 9분"
      },
      {
        "school_lat": 37.5308913414973,
        "school_lon": 127.08616998675,
        "school_type": "중학교",
        "school_name": "광양중학교",
        "distance": 624.5356241601285,
        "walking_time": "약 10분"
      },
      {
        "school_lat": 37.5368378891148,
        "school_lon": 127.080107720459,
        "school_type": "초등학교",
        "school_name": "서울자양초등학교",
        "distance": 751.9251990610367,
        "walking_time": "약 12분"
      },
      {
        "school_lat": 37.5357298982053,
        "school_lon": 127.074368913785,
        "school_type": "중학교",
        "school_name": "자양중학교",
        "distance": 753.326799957545,
        "walking_time": "약 12분"
      },
      {
        "school_lat": 37.5350582094918,
        "school_lon": 127.072179165371,
        "school_type": "초등학교",
        "school_name": "서울동자초등학교",
        "distance": 824.6993196281586,
        "walking_time": "약 13분"
      },
      {
        "school_lat": 37.536077967735,
        "school_lon": 127.073339535384,
        "school_type": "고등학교",
        "school_name": "자양고등학교",
        "distance": 837.946094578831,
        "walking_time": "약 13분"
      },
      {
        "school_lat": 37.5311232360546,
        "school_lon": 127.089234331023,
        "school_type": "초등학교",
        "school_name": "서울양남초등학교",
        "distance": 895.803299691242,
        "walking_time": "약 14분"
      },
      {
        "school_lat": 37.5346820949284,
        "school_lon": 127.0699952764,
        "school_type": "초등학교",
        "school_name": "서울신양초등학교",
        "distance": 953.9003363802968,
        "walking_time": "약 15분"
      }
    ],
    "subway": [
      {
        "subway_lat": 37.5371535596228,
        "subway_lon": 127.086179228767,
        "subway_type": "지하철",
        "subway_name": "2호선-구의(광진구청)역",
        "distance": 997.8222201901664,
        "walking_time": "약 15분"
      },
      {
        "subway_lat": 37.5317034538759,
        "subway_lon": 127.066765925738,
        "subway_type": "지하철",
        "subway_name": "7호선-자양(뚝섬유원지)역",
        "distance": 1106.6057812780855,
        "walking_time": "약 17분"
      },
      {
        "subway_lat": 37.540657941434,
        "subway_lon": 127.07141185507,
        "subway_type": "지하철",
        "subway_name": "7호선-건대입구역",
        "distance": 1356.357756330972,
        "walking_time": "약 21분"
      },
      {
        "subway_lat": 37.5404188872176,
        "subway_lon": 127.069173281554,
        "subway_type": "지하철",
        "subway_name": "2호선-건대입구역",
        "distance": 1444.507513970481,
        "walking_time": "약 22분"
      },
      {
        "subway_lat": 37.547871203305,
        "subway_lon": 127.074549925093,
        "subway_type": "지하철",
        "subway_name": "7호선-어린이대공원(세종대)역",
        "distance": 2015.390766091789,
        "walking_time": "약 31분"
      }
    ],
    "supermarket": [
      {
        "supermarket_lat": 37.53213533,
        "supermarket_lon": 127.076531,
        "supermarket_type": "마트",
        "supermarket_name": "자양종합시장",
        "distance": 322.2682953456357,
        "walking_time": "약 5분"
      },
      {
        "supermarket_lat": 37.53092173,
        "supermarket_lon": 127.084141,
        "supermarket_type": "마트",
        "supermarket_name": "프라젠 스파",
        "distance": 448.6606170064889,
        "walking_time": "약 7분"
      },
      {
        "supermarket_lat": 37.53855827,
        "supermarket_lon": 127.0729962,
        "supermarket_type": "마트",
        "supermarket_name": "(주)이마트 자양점",
        "distance": 1084.308556103415,
        "walking_time": "약 17분"
      },
      {
        "supermarket_lat": 37.53903739,
        "supermarket_lon": 127.0714321,
        "supermarket_type": "마트",
        "supermarket_name": "롯데백화점 건대스타시티점",
        "distance": 1203.069152477023,
        "walking_time": "약 18분"
      },
      {
        "supermarket_lat": 37.53899664,
        "supermarket_lon": 127.0674893,
        "supermarket_type": "마트",
        "supermarket_name": "조양시장",
        "distance": 1425.7530600563875,
        "walking_time": "약 22분"
      },
      {
        "supermarket_lat": 37.53644772,
        "supermarket_lon": 127.0648999,
        "supermarket_type": "마트",
        "supermarket_name": "노룬산시장",
        "distance": 1440.617235986224,
        "walking_time": "약 22분"
      },
      {
        "supermarket_lat": 37.54263602,
        "supermarket_lon": 127.0846048,
        "supermarket_type": "마트",
        "supermarket_name": "GS THE FRESH 광진구의점",
        "distance": 1472.5511494366672,
        "walking_time": "약 22분"
      },
      {
        "supermarket_lat": 37.54105663,
        "supermarket_lon": 127.0656692,
        "supermarket_type": "마트",
        "supermarket_name": "커먼그라운드",
        "distance": 1701.0032498972464,
        "walking_time": "약 26분"
      },
      {
        "supermarket_lat": 37.54395902,
        "supermarket_lon": 127.0697577,
        "supermarket_type": "마트",
        "supermarket_name": "한아름시장",
        "distance": 1747.92399293642,
        "walking_time": "약 27분"
      },
      {
        "supermarket_lat": 37.54395902,
        "supermarket_lon": 127.0697577,
        "supermarket_type": "마트",
        "supermarket_name": "(주)지에스리테일GS수퍼 광진화양점",
        "distance": 1747.92399293642,
        "walking_time": "약 27분"
      }
    ],
    "tax_office": [
      {
        "tax_office_lat": 37.54850152,
        "tax_office_lon": 127.0628187,
        "tax_office_type": "세무서",
        "tax_office_name": "성동세무서",
        "distance": 2500.6510019874186,
        "walking_time": "약 38분"
      }
    ],
    "theater": [
      {
        "theater_lat": 37.5385582736952,
        "theater_lon": 127.072996184863,
        "theater_type": "영화관",
        "theater_name": "롯데시네마 건대입구관",
        "distance": 1084.309580215937,
        "walking_time": "약 17분"
      },
      {
        "theater_lat": 37.5397607621364,
        "theater_lon": 127.066887730045,
        "theater_type": "영화관",
        "theater_name": "CGV 건대입구",
        "distance": 1523.0517787385108,
        "walking_time": "약 23분"
      }
    ],
    "university": [
      {
        "university_lat": 37.5464762611364,
        "university_lon": 127.071367614735,
        "university_type": "대학교",
        "university_name": "건국대학교",
        "distance": 1944.2364090670392,
        "walking_time": "약 30분"
      }
    ]
  }
}