{
  "클러스터_위도": 37.501642,
  "클러스터_경도": 126.868622,
  "클러스터_level": 4.0,
  "facilities": {
    "bus": [
      {
        "bus_lat": 37.4996344,
        "bus_lon": 126.8679977,
        "bus_type": "버스정류장",
        "bus_name": "동양미래대학.구로성심병원",
        "distance": 229.9280464664603,
        "walking_time": "약 4분"
      },
      {
        "bus_lat": 37.50029407,
        "bus_lon": 126.8664493,
        "bus_type": "버스정류장",
        "bus_name": "동양미래대학교.구로성심병원",
        "distance": 243.312305147921,
        "walking_time": "약 4분"
      },
      {
        "bus_lat": 37.49937648,
        "bus_lon": 126.8670187,
        "bus_type": "버스정류장",
        "bus_name": "동양미래대학.구로성심병원",
        "distance": 288.90360606795906,
        "walking_time": "약 5분"
      },
      {
        "bus_lat": 37.50127317,
        "bus_lon": 126.8653108,
        "bus_type": "버스정류장",
        "bus_name": "유풍약국",
        "distance": 294.963081906811,
        "walking_time": "약 5분"
      },
      {
        "bus_lat": 37.50193991,
        "bus_lon": 126.8644523,
        "bus_type": "버스정류장",
        "bus_name": "한일한의원",
        "distance": 369.3176732501903,
        "walking_time": "약 6분"
      },
      {
        "bus_lat": 37.50050808,
        "bus_lon": 126.8644775,
        "bus_type": "버스정류장",
        "bus_name": "청구아파트.동아한신아파트",
        "distance": 386.7402909245323,
        "walking_time": "약 6분"
      },
      {
        "bus_lat": 37.50267444,
        "bus_lon": 126.8639481,
        "bus_type": "버스정류장",
        "bus_name": "경서농협앞",
        "distance": 427.98930573246855,
        "walking_time": "약 7분"
      },
      {
        "bus_lat": 37.50046556,
        "bus_lon": 126.8638647,
        "bus_type": "버스정류장",
        "bus_name": "고척중학교",
        "distance": 439.5835783060038,
        "walking_time": "약 7분"
      },
      {
        "bus_lat": 37.50114585,
        "bus_lon": 126.8635071,
        "bus_type": "버스정류장",
        "bus_name": "청구아파트후문",
        "distance": 454.57227335570246,
        "walking_time": "약 7분"
      },
      {
        "bus_lat": 37.50096715,
        "bus_lon": 126.8632418,
        "bus_type": "버스정류장",
        "bus_name": "고척중학교",
        "distance": 480.5116244960444,
        "walking_time": "약 8분"
      }
    ],
    "community_center": [
      {
        "community_center_lat": 37.50040448,
        "community_center_lon": 126.8627884,
        "community_center_type": "주민센터",
        "community_center_name": "고척1동 자치회관",
        "distance": 532.6948941971823,
        "walking_time": "약 8분"
      },
      {
        "community_center_lat": 37.50669208,
        "community_center_lon": 126.8586053,
        "community_center_type": "주민센터",
        "community_center_name": "고척2동 자치회관",
        "distance": 1046.9320318722478,
        "walking_time": "약 16분"
      },
      {
        "community_center_lat": 37.49304008,
        "community_center_lon": 126.8757883,
        "community_center_type": "주민센터",
        "community_center_name": "구로1동 자치회관",
        "distance": 1146.5442240602629,
        "walking_time": "약 18분"
      },
      {
        "community_center_lat": 37.49071338,
        "community_center_lon": 126.8565906,
        "community_center_type": "주민센터",
        "community_center_name": "개봉2동 자치회관",
        "distance": 1613.4915555626217,
        "walking_time": "약 25분"
      },
      {
        "community_center_lat": 37.51439945,
        "community_center_lon": 126.8596713,
        "community_center_type": "주민센터",
        "community_center_name": "신정7동 자치회관",
        "distance": 1623.472050357638,
        "walking_time": "약 25분"
      },
      {
        "community_center_lat": 37.51705671,
        "community_center_lon": 126.8643886,
        "community_center_type": "주민센터",
        "community_center_name": "신정6동 자치회관",
        "distance": 1754.2406125501884,
        "walking_time": "약 27분"
      },
      {
        "community_center_lat": 37.51514715,
        "community_center_lon": 126.8547892,
        "community_center_type": "주민센터",
        "community_center_name": "신정3동 자치회관",
        "distance": 1934.9106241089544,
        "walking_time": "약 29분"
      },
      {
        "community_center_lat": 37.51921418,
        "community_center_lon": 126.870674,
        "community_center_type": "주민센터",
        "community_center_name": "신정2동 자치회관",
        "distance": 1962.302293728747,
        "walking_time": "약 30분"
      },
      {
        "community_center_lat": 37.51857188,
        "community_center_lon": 126.8542861,
        "community_center_type": "주민센터",
        "community_center_name": "신정1동 자치회관",
        "distance": 2267.779075759192,
        "walking_time": "약 34분"
      }
    ],
    "convenience_store": [
      {
        "convenience_store_lat": 37.49999579,
        "convenience_store_lon": 126.8681697,
        "convenience_store_type": "편의점",
        "convenience_store_name": "CU 동양미래대학교점",
        "distance": 187.3483116253309,
        "walking_time": "약 3분"
      },
      {
        "convenience_store_lat": 37.50016432,
        "convenience_store_lon": 126.8671649,
        "convenience_store_type": "편의점",
        "convenience_store_name": "GS25 고척점",
        "distance": 208.61515594253405,
        "walking_time": "약 4분"
      },
      {
        "convenience_store_lat": 37.50342031,
        "convenience_store_lon": 126.864178,
        "convenience_store_type": "편의점",
        "convenience_store_name": "GS25 고척사랑점",
        "distance": 439.0698632867694,
        "walking_time": "약 7분"
      },
      {
        "convenience_store_lat": 37.50464975,
        "convenience_store_lon": 126.863331,
        "convenience_store_type": "편의점",
        "convenience_store_name": "세븐일레븐 고척중앙점",
        "distance": 574.1922779490108,
        "walking_time": "약 9분"
      },
      {
        "convenience_store_lat": 37.50710108,
        "convenience_store_lon": 126.8709955,
        "convenience_store_type": "편의점",
        "convenience_store_name": "CU 신정복지충전소점",
        "distance": 642.1150237923773,
        "walking_time": "약 10분"
      },
      {
        "convenience_store_lat": 37.50495917,
        "convenience_store_lon": 126.8618782,
        "convenience_store_type": "편의점",
        "convenience_store_name": "GS25 고척센츄리점",
        "distance": 699.962128354548,
        "walking_time": "약 11분"
      },
      {
        "convenience_store_lat": 37.50237706,
        "convenience_store_lon": 126.8766013,
        "convenience_store_type": "편의점",
        "convenience_store_name": "GS25 구로중앙유통점",
        "distance": 708.6194956325539,
        "walking_time": "약 11분"
      },
      {
        "convenience_store_lat": 37.49594045,
        "convenience_store_lon": 126.8722666,
        "convenience_store_type": "편의점",
        "convenience_store_name": "GS25 구로허브점",
        "distance": 710.8518548811566,
        "walking_time": "약 11분"
      },
      {
        "convenience_store_lat": 37.49743258,
        "convenience_store_lon": 126.862073,
        "convenience_store_type": "편의점",
        "convenience_store_name": "GS25 구로아울렛점",
        "distance": 743.5486653144714,
        "walking_time": "약 12분"
      },
      {
        "convenience_store_lat": 37.49507484,
        "convenience_store_lon": 126.8720078,
        "convenience_store_type": "편의점",
        "convenience_store_name": "세븐일레븐 구일역점",
        "distance": 788.9609776158081,
        "walking_time": "약 12분"
      }
    ],
    "daycare": [
      {
        "daycare_lat": 37.50314773,
        "daycare_lon": 126.8661549,
        "daycare_type": "어린이집",
        "daycare_name": "햇살어린이집",
        "distance": 274.58460906899177,
        "walking_time": "약 5분"
      },
      {
        "daycare_lat": 37.50344356243832,
        "daycare_lon": 126.86599681274583,
        "daycare_type": "어린이집",
        "daycare_name": "햇살어린이집",
        "distance": 306.1997282207478,
        "walking_time": "약 5분"
      },
      {
        "daycare_lat": 37.50238437,
        "daycare_lon": 126.8651983,
        "daycare_type": "어린이집",
        "daycare_name": "맑은샘어린이집",
        "distance": 313.0977183689515,
        "walking_time": "약 5분"
      },
      {
        "daycare_lat": 37.50392073,
        "daycare_lon": 126.8660516,
        "daycare_type": "어린이집",
        "daycare_name": "예나어린이집",
        "distance": 340.02349926661685,
        "walking_time": "약 6분"
      },
      {
        "daycare_lat": 37.50284135,
        "daycare_lon": 126.8649324,
        "daycare_type": "어린이집",
        "daycare_name": "남산어린이집",
        "distance": 351.7377115873296,
        "walking_time": "약 6분"
      },
      {
        "daycare_lat": 37.50149167,
        "daycare_lon": 126.8638151,
        "daycare_type": "어린이집",
        "daycare_name": "해님달님어린이집",
        "distance": 424.3701051592457,
        "walking_time": "약 7분"
      },
      {
        "daycare_lat": 37.50102878,
        "daycare_lon": 126.8746656,
        "daycare_type": "어린이집",
        "daycare_name": "하람어린이집",
        "distance": 537.48069862492,
        "walking_time": "약 9분"
      },
      {
        "daycare_lat": 37.49857893,
        "daycare_lon": 126.8631506,
        "daycare_type": "어린이집",
        "daycare_name": "파란나라어린이집",
        "distance": 590.7421621395043,
        "walking_time": "약 9분"
      },
      {
        "daycare_lat": 37.49872694,
        "daycare_lon": 126.8628425,
        "daycare_type": "어린이집",
        "daycare_name": "파란나라어린이집",
        "distance": 604.1620387933888,
        "walking_time": "약 10분"
      },
      {
        "daycare_lat": 37.5044855,
        "daycare_lon": 126.8621919,
        "daycare_type": "어린이집",
        "daycare_name": "아이꿈터어린이집",
        "distance": 649.3920788954579,
        "walking_time": "약 10분"
      }
    ],
    "education": [
      {
        "education_lat": 37.50673513,
        "education_lon": 126.8773759,
        "education_type": "도서관",
        "education_name": "구로기적의도서관",
        "distance": 957.61168413672,
        "walking_time": "약 15분"
      },
      {
        "education_lat": 37.51076244,
        "education_lon": 126.8702069,
        "education_type": "문화원",
        "education_name": "양천문화원",
        "distance": 1023.7374679589844,
        "walking_time": "약 16분"
      },
      {
        "education_lat": 37.50531999,
        "education_lon": 126.8530393,
        "education_type": "도서관",
        "education_name": "서울특별시교육청 고척도서관",
        "distance": 1434.1426588268994,
        "walking_time": "약 22분"
      },
      {
        "education_lat": 37.51597606,
        "education_lon": 126.8638545,
        "education_type": "공연장",
        "education_name": "해누리타운 해누리홀?아트홀",
        "distance": 1648.416632593841,
        "walking_time": "약 25분"
      },
      {
        "education_lat": 37.51652093,
        "education_lon": 126.86334,
        "education_type": "문화예술회관",
        "education_name": "양천문화회관",
        "distance": 1718.810706232983,
        "walking_time": "약 26분"
      },
      {
        "education_lat": 37.51801244,
        "education_lon": 126.868163,
        "education_type": "도서관",
        "education_name": "양천공원 책쉼터",
        "distance": 1820.760053970288,
        "walking_time": "약 28분"
      }
    ],
    "fitness": [
      {
        "fitness_lat": 37.50219264,
        "fitness_lon": 126.8645261,
        "fitness_type": "운동시설",
        "fitness_name": "진트짐",
        "distance": 366.4692958212733,
        "walking_time": "약 6분"
      },
      {
        "fitness_lat": 37.50471675,
        "fitness_lon": 126.8702564,
        "fitness_type": "운동시설",
        "fitness_name": "제니스 스포츠클럽",
        "distance": 371.05237154202007,
        "walking_time": "약 6분"
      },
      {
        "fitness_lat": 37.49923094,
        "fitness_lon": 126.8635807,
        "fitness_type": "운동시설",
        "fitness_name": "신원 건강랜드",
        "distance": 519.2848442446314,
        "walking_time": "약 8분"
      },
      {
        "fitness_lat": 37.49795843,
        "fitness_lon": 126.8643477,
        "fitness_type": "운동시설",
        "fitness_name": "원메디짐",
        "distance": 556.7284148461189,
        "walking_time": "약 9분"
      },
      {
        "fitness_lat": 37.5034895,
        "fitness_lon": 126.8626141,
        "fitness_type": "운동시설",
        "fitness_name": "리얼바디짐 고척점",
        "distance": 568.402373773882,
        "walking_time": "약 9분"
      },
      {
        "fitness_lat": 37.49769957,
        "fitness_lon": 126.8638709,
        "fitness_type": "운동시설",
        "fitness_name": "프리덤짐",
        "distance": 606.5019203298178,
        "walking_time": "약 10분"
      },
      {
        "fitness_lat": 37.49807255,
        "fitness_lon": 126.8626774,
        "fitness_type": "운동시설",
        "fitness_name": "짐라이트 고척점",
        "distance": 657.6811107982587,
        "walking_time": "약 10분"
      },
      {
        "fitness_lat": 37.49744219,
        "fitness_lon": 126.8630489,
        "fitness_type": "운동시설",
        "fitness_name": "지니핏 피티짐",
        "distance": 678.0862586899445,
        "walking_time": "약 11분"
      },
      {
        "fitness_lat": 37.49594045,
        "fitness_lon": 126.8722666,
        "fitness_type": "운동시설",
        "fitness_name": "그릿 PT&GYM",
        "distance": 710.8518548811566,
        "walking_time": "약 11분"
      },
      {
        "fitness_lat": 37.49657523,
        "fitness_lon": 126.8736295,
        "fitness_type": "운동시설",
        "fitness_name": "STAY GYM",
        "distance": 715.9348556481297,
        "walking_time": "약 11분"
      }
    ],
    "gas_station": [
      {
        "gas_station_lat": 37.50586106,
        "gas_station_lon": 126.8706964,
        "gas_station_type": "주유소",
        "gas_station_name": "㈜부흥에너지 평화주유소",
        "distance": 503.5623971639093,
        "walking_time": "약 8분"
      },
      {
        "gas_station_lat": 37.50639267,
        "gas_station_lon": 126.8711231,
        "gas_station_type": "주유소",
        "gas_station_name": "신정동주유소",
        "distance": 572.4726260414136,
        "walking_time": "약 9분"
      },
      {
        "gas_station_lat": 37.5093947,
        "gas_station_lon": 126.8662393,
        "gas_station_type": "주유소",
        "gas_station_name": "SK에너지(주)신평주유소",
        "distance": 887.3128723430926,
        "walking_time": "약 14분"
      },
      {
        "gas_station_lat": 37.49370595,
        "gas_station_lon": 126.8721798,
        "gas_station_type": "주유소",
        "gas_station_name": "SK구로주유소",
        "distance": 936.6046718700176,
        "walking_time": "약 14분"
      },
      {
        "gas_station_lat": 37.50245429,
        "gas_station_lon": 126.8797539,
        "gas_station_type": "주유소",
        "gas_station_name": "구인주유소",
        "distance": 986.1395221789064,
        "walking_time": "약 15분"
      },
      {
        "gas_station_lat": 37.51047311,
        "gas_station_lon": 126.8712656,
        "gas_station_type": "주유소",
        "gas_station_name": "현대오일뱅크㈜직영 양천셀프주유소",
        "distance": 1009.2830628834568,
        "walking_time": "약 16분"
      },
      {
        "gas_station_lat": 37.50510397,
        "gas_station_lon": 126.855483,
        "gas_station_type": "주유소",
        "gas_station_name": "근린공원주유소",
        "distance": 1221.2851954776424,
        "walking_time": "약 19분"
      },
      {
        "gas_station_lat": 37.49764075,
        "gas_station_lon": 126.8523352,
        "gas_station_type": "주유소",
        "gas_station_name": "SK에너지㈜ 개봉동주유소",
        "distance": 1504.088371353661,
        "walking_time": "약 23분"
      },
      {
        "gas_station_lat": 37.51948933,
        "gas_station_lon": 126.8710714,
        "gas_station_type": "주유소",
        "gas_station_name": "현대오일뱅크㈜직영 신목동셀프주유소",
        "distance": 1996.2580242901656,
        "walking_time": "약 30분"
      },
      {
        "gas_station_lat": 37.51674682,
        "gas_station_lon": 126.8547381,
        "gas_station_type": "주유소",
        "gas_station_name": "㈜타이거오일 신정주유소",
        "distance": 2078.6385057706334,
        "walking_time": "약 32분"
      }
    ],
    "hospital": [
      {
        "hospital_lat": 37.50150741,
        "hospital_lon": 126.8653015,
        "hospital_type": "병원",
        "hospital_name": "송미영가정의학과의원",
        "distance": 293.299991802628,
        "walking_time": "약 5분"
      },
      {
        "hospital_lat": 37.49964687,
        "hospital_lon": 126.8663582,
        "hospital_type": "병원",
        "hospital_name": "구로성심병원",
        "distance": 298.49324720758267,
        "walking_time": "약 5분"
      },
      {
        "hospital_lat": 37.50003802,
        "hospital_lon": 126.8657488,
        "hospital_type": "병원",
        "hospital_name": "구로성심치과의원",
        "distance": 309.92453074254774,
        "walking_time": "약 5분"
      },
      {
        "hospital_lat": 37.50190688,
        "hospital_lon": 126.8644,
        "hospital_type": "병원",
        "hospital_name": "한일한의원",
        "distance": 373.605549234727,
        "walking_time": "약 6분"
      },
      {
        "hospital_lat": 37.50276703,
        "hospital_lon": 126.8642866,
        "hospital_type": "병원",
        "hospital_name": "강내과의원",
        "distance": 402.3840388450131,
        "walking_time": "약 7분"
      },
      {
        "hospital_lat": 37.50283994,
        "hospital_lon": 126.8638354,
        "hospital_type": "병원",
        "hospital_name": "고려센트럴재활의학과의원",
        "distance": 442.7588153884075,
        "walking_time": "약 7분"
      },
      {
        "hospital_lat": 37.50283994,
        "hospital_lon": 126.8638354,
        "hospital_type": "병원",
        "hospital_name": "골드맥치과의원",
        "distance": 442.7588153884075,
        "walking_time": "약 7분"
      },
      {
        "hospital_lat": 37.50283994,
        "hospital_lon": 126.8638354,
        "hospital_type": "병원",
        "hospital_name": "골드맥치과의원",
        "distance": 442.7588153884075,
        "walking_time": "약 7분"
      },
      {
        "hospital_lat": 37.50364614,
        "hospital_lon": 126.863898,
        "hospital_type": "병원",
        "hospital_name": "경희바른한의원",
        "distance": 472.566612860996,
        "walking_time": "약 8분"
      },
      {
        "hospital_lat": 37.50340211,
        "hospital_lon": 126.8636273,
        "hospital_type": "병원",
        "hospital_name": "경희길한의원",
        "distance": 482.1146273402985,
        "walking_time": "약 8분"
      }
    ],
    "music_room": [
      {
        "music_room_lat": 37.50051834,
        "music_room_lon": 126.866778,
        "music_room_type": "노래방",
        "music_room_name": "FULL동전노래연습장",
        "distance": 205.1163275518605,
        "walking_time": "약 4분"
      },
      {
        "music_room_lat": 37.50038051,
        "music_room_lon": 126.8668783,
        "music_room_type": "노래방",
        "music_room_name": "쎄븐노래연습장",
        "distance": 208.1757416572568,
        "walking_time": "약 4분"
      },
      {
        "music_room_lat": 37.50024167,
        "music_room_lon": 126.8670464,
        "music_room_type": "노래방",
        "music_room_name": "K-POP코인노래연습장",
        "distance": 208.72100790483807,
        "walking_time": "약 4분"
      },
      {
        "music_room_lat": 37.50009664,
        "music_room_lon": 126.867227,
        "music_room_type": "노래방",
        "music_room_name": "대학노래연습장",
        "distance": 211.35683137796016,
        "walking_time": "약 4분"
      },
      {
        "music_room_lat": 37.50077094,
        "music_room_lon": 126.8664161,
        "music_room_type": "노래방",
        "music_room_name": "킹노래연습장",
        "distance": 217.3668852992626,
        "walking_time": "약 4분"
      },
      {
        "music_room_lat": 37.49980374,
        "music_room_lon": 126.8672425,
        "music_room_type": "노래방",
        "music_room_name": "스타 노래연습장",
        "distance": 237.88843393511928,
        "walking_time": "약 4분"
      },
      {
        "music_room_lat": 37.5010779,
        "music_room_lon": 126.8660076,
        "music_room_type": "노래방",
        "music_room_name": "테마노래연습장",
        "distance": 239.00756961813653,
        "walking_time": "약 4분"
      },
      {
        "music_room_lat": 37.50038486,
        "music_room_lon": 126.8664172,
        "music_room_type": "노래방",
        "music_room_name": "보가코인노래연습장",
        "distance": 239.5203672049885,
        "walking_time": "약 4분"
      },
      {
        "music_room_lat": 37.49995246,
        "music_room_lon": 126.866895,
        "music_room_type": "노래방",
        "music_room_name": "아프리카 마이크 코인노래연습장 고척점",
        "distance": 241.8774010307631,
        "walking_time": "약 4분"
      },
      {
        "music_room_lat": 37.50003259,
        "music_room_lon": 126.8667635,
        "music_room_type": "노래방",
        "music_room_name": "별 노래연습장",
        "distance": 242.70432573740788,
        "walking_time": "약 4분"
      }
    ],
    "outdoor_sports": [
      {
        "outdoor_sports_lat": 37.5006906781298,
        "outdoor_sports_lon": 126.869662587859,
        "outdoor_sports_type": "야외 체육시설",
        "outdoor_sports_name": "동양미래대학교 농구장 앞",
        "distance": 140.05843774816304,
        "walking_time": "약 3분"
      },
      {
        "outdoor_sports_lat": 37.5025355630038,
        "outdoor_sports_lon": 126.866823112368,
        "outdoor_sports_type": "야외 체육시설",
        "outdoor_sports_name": "우성꿈동산아파트 놀이터 옆",
        "distance": 187.22756065996003,
        "walking_time": "약 3분"
      },
      {
        "outdoor_sports_lat": 37.4999386553097,
        "outdoor_sports_lon": 126.87052416647,
        "outdoor_sports_type": "야외 체육시설",
        "outdoor_sports_name": "어린이야구연습장 옆",
        "distance": 253.04330012740465,
        "walking_time": "약 4분"
      },
      {
        "outdoor_sports_lat": 37.499386134775,
        "outdoor_sports_lon": 126.869031219815,
        "outdoor_sports_type": "야외 체육시설",
        "outdoor_sports_name": "고척교 하부",
        "distance": 253.42511622843,
        "walking_time": "약 4분"
      },
      {
        "outdoor_sports_lat": 37.5014710368452,
        "outdoor_sports_lon": 126.872384028749,
        "outdoor_sports_type": "야외 체육시설",
        "outdoor_sports_name": "안양천 제방(고척교~오금교, 족구장B 위쪽)",
        "distance": 332.411501655959,
        "walking_time": "약 5분"
      },
      {
        "outdoor_sports_lat": 37.5049767926374,
        "outdoor_sports_lon": 126.866226712976,
        "outdoor_sports_type": "야외 체육시설",
        "outdoor_sports_name": "오금어린이공원",
        "distance": 426.78716134039166,
        "walking_time": "약 7분"
      },
      {
        "outdoor_sports_lat": 37.5048935725245,
        "outdoor_sports_lon": 126.865225048936,
        "outdoor_sports_type": "야외 체육시설",
        "outdoor_sports_name": "무궁화소공원",
        "distance": 469.5931542774294,
        "walking_time": "약 8분"
      },
      {
        "outdoor_sports_lat": 37.5056177023071,
        "outdoor_sports_lon": 126.862404892341,
        "outdoor_sports_type": "야외 체육시설",
        "outdoor_sports_name": "고척동 경남1차아파트 우측",
        "distance": 704.4183199248378,
        "walking_time": "약 11분"
      },
      {
        "outdoor_sports_lat": 37.4950885295021,
        "outdoor_sports_lon": 126.871008276567,
        "outdoor_sports_type": "야외 체육시설",
        "outdoor_sports_name": "구일역 제방위(구일역 1번출구 옆)",
        "distance": 758.5107057682609,
        "walking_time": "약 12분"
      },
      {
        "outdoor_sports_lat": 37.4978848081215,
        "outdoor_sports_lon": 126.857974675569,
        "outdoor_sports_type": "야외 체육시설",
        "outdoor_sports_name": "고척동 삼환로즈빌 앞 보도",
        "distance": 1027.9986249937378,
        "walking_time": "약 16분"
      }
    ],
    "park": [
      {
        "park_lat": 37.5082119,
        "park_lon": 126.8689146,
        "park_type": "공원",
        "park_name": "갈산근린공원",
        "distance": 730.9953601756081,
        "walking_time": "약 11분"
      },
      {
        "park_lat": 37.5042944,
        "park_lon": 126.8521495,
        "park_type": "공원",
        "park_name": "고척근린공원",
        "distance": 1482.7236886371188,
        "walking_time": "약 23분"
      }
    ],
    "park_station": [
      {
        "park_station_lat": 37.50231852,
        "park_station_lon": 126.8639042,
        "park_station_type": "주차장",
        "park_station_name": "고척1동마을공동주차장",
        "distance": 422.9224860855781,
        "walking_time": "약 7분"
      },
      {
        "park_station_lat": 37.51060336,
        "park_station_lon": 126.870329,
        "park_station_type": "주차장",
        "park_station_name": "갈산 거주자우선주차장",
        "distance": 1007.7700953166518,
        "walking_time": "약 16분"
      },
      {
        "park_station_lat": 37.50517006,
        "park_station_lon": 126.857371,
        "park_station_type": "주차장",
        "park_station_name": "고척리본타운주차장",
        "distance": 1067.2033721950038,
        "walking_time": "약 16분"
      },
      {
        "park_station_lat": 37.50517006,
        "park_station_lon": 126.857371,
        "park_station_type": "주차장",
        "park_station_name": "고척리본타운",
        "distance": 1067.2033721950038,
        "walking_time": "약 16분"
      },
      {
        "park_station_lat": 37.50559235,
        "park_station_lon": 126.8519725,
        "park_station_type": "주차장",
        "park_station_name": "고척근린공원지하주차장",
        "distance": 1532.9758692959797,
        "walking_time": "약 23분"
      },
      {
        "park_station_lat": 37.49999219,
        "park_station_lon": 126.8510372,
        "park_station_type": "주차장",
        "park_station_name": "개봉1동 노외주차장",
        "distance": 1562.0686592758618,
        "walking_time": "약 24분"
      },
      {
        "park_station_lat": 37.51539852,
        "park_station_lon": 126.8626901,
        "park_station_type": "주차장",
        "park_station_name": "누리 공영주차장",
        "distance": 1616.6690613328255,
        "walking_time": "약 25분"
      },
      {
        "park_station_lat": 37.51523503,
        "park_station_lon": 126.8614934,
        "park_station_type": "주차장",
        "park_station_name": "하늘 공영주차장",
        "distance": 1637.0517978781777,
        "walking_time": "약 25분"
      },
      {
        "park_station_lat": 37.51483161,
        "park_station_lon": 126.8601584,
        "park_station_type": "주차장",
        "park_station_name": "신정7동 한사랑교회 주차장",
        "distance": 1645.692642992787,
        "walking_time": "약 25분"
      },
      {
        "park_station_lat": 37.51635197,
        "park_station_lon": 126.8625391,
        "park_station_type": "주차장",
        "park_station_name": "문화회관서측 노외주차장",
        "distance": 1721.4282266128678,
        "walking_time": "약 26분"
      }
    ],
    "pc_room": [
      {
        "pc_room_lat": 37.5006460911964,
        "pc_room_lon": 126.866606846487,
        "pc_room_type": "PC방",
        "pc_room_name": "사이버붐 PC방",
        "distance": 209.439111370888,
        "walking_time": "약 4분"
      },
      {
        "pc_room_lat": 37.5006460911964,
        "pc_room_lon": 126.866606846487,
        "pc_room_type": "PC방",
        "pc_room_name": "제로백",
        "distance": 209.439111370888,
        "walking_time": "약 4분"
      },
      {
        "pc_room_lat": 37.5000325932362,
        "pc_room_lon": 126.86676354913,
        "pc_room_type": "PC방",
        "pc_room_name": "리그PC (고척스카이돔점)",
        "distance": 242.70113272662647,
        "walking_time": "약 4분"
      },
      {
        "pc_room_lat": 37.500600724163,
        "pc_room_lon": 126.866087955132,
        "pc_room_type": "PC방",
        "pc_room_name": "찰리팝PC카페",
        "distance": 251.7482074659196,
        "walking_time": "약 4분"
      },
      {
        "pc_room_lat": 37.5014315069811,
        "pc_room_lon": 126.865502692081,
        "pc_room_type": "PC방",
        "pc_room_name": "잘란PC",
        "distance": 276.1635511511551,
        "walking_time": "약 5분"
      },
      {
        "pc_room_lat": 37.502981375957,
        "pc_room_lon": 126.864129212218,
        "pc_room_type": "PC방",
        "pc_room_name": "신게임PC방",
        "distance": 423.38644740663,
        "walking_time": "약 7분"
      },
      {
        "pc_room_lat": 37.500768283874,
        "pc_room_lon": 126.863856941873,
        "pc_room_type": "PC방",
        "pc_room_name": "Fall PC방",
        "distance": 431.4327622826201,
        "walking_time": "약 7분"
      },
      {
        "pc_room_lat": 37.5034021075538,
        "pc_room_lon": 126.863627327303,
        "pc_room_type": "PC방",
        "pc_room_name": "싸이버피시방",
        "distance": 482.1123158080149,
        "walking_time": "약 8분"
      },
      {
        "pc_room_lat": 37.5037992525197,
        "pc_room_lon": 126.862833580926,
        "pc_room_type": "PC방",
        "pc_room_name": "레드PC방",
        "distance": 564.1547590984563,
        "walking_time": "약 9분"
      },
      {
        "pc_room_lat": 37.5046497469025,
        "pc_room_lon": 126.863331006909,
        "pc_room_type": "PC방",
        "pc_room_name": "팡팡PC",
        "distance": 574.1915819353621,
        "walking_time": "약 9분"
      }
    ],
    "police_office": [
      {
        "police_office_lat": 37.50660107,
        "police_office_lon": 126.8583023,
        "police_office_type": "경찰소",
        "police_office_name": "고척지구대",
        "distance": 1064.3085745357218,
        "walking_time": "약 16분"
      },
      {
        "police_office_lat": 37.49183226,
        "police_office_lon": 126.856449,
        "police_office_type": "경찰소",
        "police_office_name": "개봉지구대",
        "distance": 1530.723537210914,
        "walking_time": "약 23분"
      },
      {
        "police_office_lat": 37.51491917,
        "police_office_lon": 126.8549857,
        "police_office_type": "경찰소",
        "police_office_name": "신정3파출소",
        "distance": 1904.3089737166308,
        "walking_time": "약 29분"
      }
    ],
    "post_office": [
      {
        "post_office_lat": 37.5020321,
        "post_office_lon": 126.8761173,
        "post_office_type": "우체국",
        "post_office_name": "서울구로역전우편취급국",
        "distance": 662.6169427381062,
        "walking_time": "약 10분"
      },
      {
        "post_office_lat": 37.50444791,
        "post_office_lon": 126.8617685,
        "post_office_type": "우체국",
        "post_office_name": "서울고척동우체국",
        "distance": 680.3310169181826,
        "walking_time": "약 11분"
      },
      {
        "post_office_lat": 37.49844029,
        "post_office_lon": 126.8617086,
        "post_office_type": "우체국",
        "post_office_name": "서울고척1동우편취급국",
        "distance": 706.1850032826445,
        "walking_time": "약 11분"
      },
      {
        "post_office_lat": 37.49190259,
        "post_office_lon": 126.874113,
        "post_office_type": "우체국",
        "post_office_name": "서울구로1동우체국",
        "distance": 1186.3780894024906,
        "walking_time": "약 18분"
      },
      {
        "post_office_lat": 37.50152024,
        "post_office_lon": 126.8504265,
        "post_office_type": "우체국",
        "post_office_name": "서울고척2동우편취급국",
        "distance": 1605.1731017407074,
        "walking_time": "약 24분"
      },
      {
        "post_office_lat": 37.49042702,
        "post_office_lon": 126.8557604,
        "post_office_type": "우체국",
        "post_office_name": "서울개봉2동우편취급국",
        "distance": 1686.0034368283818,
        "walking_time": "약 26분"
      },
      {
        "post_office_lat": 37.51311977,
        "post_office_lon": 126.8550521,
        "post_office_type": "우체국",
        "post_office_name": "서울신정3동우체국",
        "distance": 1749.747248977104,
        "walking_time": "약 27분"
      },
      {
        "post_office_lat": 37.51732856,
        "post_office_lon": 126.8714995,
        "post_office_type": "우체국",
        "post_office_name": "서울신정6동우편취급국",
        "distance": 1762.6355012654224,
        "walking_time": "약 27분"
      }
    ],
    "public_health_center": [
      {
        "public_health_center_lat": 37.51770616,
        "public_health_center_lon": 126.8657394,
        "public_health_center_type": "보건소",
        "public_health_center_name": "양천구보건소",
        "distance": 1804.2585073173027,
        "walking_time": "약 27분"
      }
    ],
    "school": [
      {
        "school_lat": 37.4993252329505,
        "school_lon": 126.865350068539,
        "school_type": "초등학교",
        "school_name": "서울고산초등학교",
        "distance": 386.8798653164042,
        "walking_time": "약 6분"
      },
      {
        "school_lat": 37.4976454267483,
        "school_lon": 126.865771276704,
        "school_type": "초등학교",
        "school_name": "서울고원초등학교",
        "distance": 510.621107178188,
        "walking_time": "약 8분"
      },
      {
        "school_lat": 37.5022832205782,
        "school_lon": 126.874418207198,
        "school_type": "고등학교",
        "school_name": "구현고등학교",
        "distance": 516.2571701105446,
        "walking_time": "약 8분"
      },
      {
        "school_lat": 37.4997408260167,
        "school_lon": 126.861342460735,
        "school_type": "중학교",
        "school_name": "고척중학교",
        "distance": 676.0735695375506,
        "walking_time": "약 11분"
      },
      {
        "school_lat": 37.4959926823743,
        "school_lon": 126.86542887783,
        "school_type": "고등학교",
        "school_name": "경인고등학교",
        "distance": 688.4436195651114,
        "walking_time": "약 11분"
      },
      {
        "school_lat": 37.4953009067244,
        "school_lon": 126.873770176593,
        "school_type": "중학교",
        "school_name": "구일중학교",
        "distance": 838.7064256503229,
        "walking_time": "약 13분"
      },
      {
        "school_lat": 37.4931918730561,
        "school_lon": 126.873472709056,
        "school_type": "초등학교",
        "school_name": "서울구일초등학교",
        "distance": 1032.4692025917602,
        "walking_time": "약 16분"
      },
      {
        "school_lat": 37.5009977911143,
        "school_lon": 126.8568624099,
        "school_type": "초등학교",
        "school_name": "서울고척초등학교",
        "distance": 1039.846098637475,
        "walking_time": "약 16분"
      },
      {
        "school_lat": 37.4935052933826,
        "school_lon": 126.874618469825,
        "school_type": "고등학교",
        "school_name": "구일고등학교",
        "distance": 1048.0648470397266,
        "walking_time": "약 16분"
      },
      {
        "school_lat": 37.5111416389366,
        "school_lon": 126.867180395408,
        "school_type": "초등학교",
        "school_name": "서울은정초등학교",
        "distance": 1063.9383103859916,
        "walking_time": "약 16분"
      }
    ],
    "self_laundromat": [
      {
        "self_laundromat_lat": 37.50749203,
        "self_laundromat_lon": 126.8645577,
        "self_laundromat_type": "셀프 빨래방",
        "self_laundromat_name": "백의민족 셀프빨래방 신정점",
        "distance": 742.7496666201632,
        "walking_time": "약 12분"
      },
      {
        "self_laundromat_lat": 37.50749203,
        "self_laundromat_lon": 126.8645577,
        "self_laundromat_type": "셀프 빨래방",
        "self_laundromat_name": "백의민족 셀프빨래방 신정점",
        "distance": 742.7496666201632,
        "walking_time": "약 12분"
      },
      {
        "self_laundromat_lat": 37.51804022,
        "self_laundromat_lon": 126.8726221,
        "self_laundromat_type": "셀프 빨래방",
        "self_laundromat_name": "셀빨래방 신정점",
        "distance": 1857.2216579330736,
        "walking_time": "약 28분"
      },
      {
        "self_laundromat_lat": 37.51804022,
        "self_laundromat_lon": 126.8726221,
        "self_laundromat_type": "셀프 빨래방",
        "self_laundromat_name": "셀빨래방 신정점",
        "distance": 1857.2216579330736,
        "walking_time": "약 28분"
      }
    ],
    "subway": [
      {
        "subway_lat": 37.5126989358446,
        "subway_lon": 126.866065211751,
        "subway_type": "지하철",
        "subway_name": "2호선-양천구청역",
        "distance": 1249.989223331405,
        "walking_time": "약 19분"
      },
      {
        "subway_lat": 37.5196382328727,
        "subway_lon": 126.852777370536,
        "subway_type": "지하철",
        "subway_name": "2호선-신정네거리역",
        "distance": 2440.808566669769,
        "walking_time": "약 37분"
      }
    ],
    "supermarket": [
      {
        "supermarket_lat": 37.50379925,
        "supermarket_lon": 126.8628336,
        "supermarket_type": "마트",
        "supermarket_name": "고척스카이프라자",
        "distance": 564.1531170621603,
        "walking_time": "약 9분"
      },
      {
        "supermarket_lat": 37.5020321,
        "supermarket_lon": 126.8761173,
        "supermarket_type": "마트",
        "supermarket_name": "중앙유통단지",
        "distance": 662.6169427381062,
        "walking_time": "약 10분"
      },
      {
        "supermarket_lat": 37.49744219,
        "supermarket_lon": 126.8630489,
        "supermarket_type": "마트",
        "supermarket_name": "일이삼전자타운",
        "distance": 678.0862586899445,
        "walking_time": "약 11분"
      },
      {
        "supermarket_lat": 37.49744219,
        "supermarket_lon": 126.8630489,
        "supermarket_type": "마트",
        "supermarket_name": "일이삼전자타운",
        "distance": 678.0862586899445,
        "walking_time": "약 11분"
      },
      {
        "supermarket_lat": 37.49863442,
        "supermarket_lon": 126.8619044,
        "supermarket_type": "마트",
        "supermarket_name": "동국종합상가",
        "distance": 680.457175584319,
        "walking_time": "약 11분"
      },
      {
        "supermarket_lat": 37.49594045,
        "supermarket_lon": 126.8722666,
        "supermarket_type": "마트",
        "supermarket_name": "홈플러스 익스프레스 서울구로점",
        "distance": 710.8518548811566,
        "walking_time": "약 11분"
      },
      {
        "supermarket_lat": 37.49820968,
        "supermarket_lon": 126.8614353,
        "supermarket_type": "마트",
        "supermarket_name": "고척산업용품상가",
        "distance": 740.0023753836473,
        "walking_time": "약 12분"
      },
      {
        "supermarket_lat": 37.4999557,
        "supermarket_lon": 126.8603317,
        "supermarket_type": "마트",
        "supermarket_name": "고척산업용품상가",
        "distance": 754.9915725911015,
        "walking_time": "약 12분"
      },
      {
        "supermarket_lat": 37.50630248,
        "supermarket_lon": 126.8754919,
        "supermarket_type": "마트",
        "supermarket_name": "라이프공구상가",
        "distance": 797.3709549142594,
        "walking_time": "약 12분"
      },
      {
        "supermarket_lat": 37.5082875,
        "supermarket_lon": 126.8645355,
        "supermarket_type": "마트",
        "supermarket_name": "(주)지에스리테일 신정2점",
        "distance": 822.1816760205606,
        "walking_time": "약 13분"
      }
    ],
    "university": [
      {
        "university_lat": 37.4999957879198,
        "university_lon": 126.868169656727,
        "university_type": "전문대학교(3년제)",
        "university_name": "동양미래대학교",
        "distance": 187.3493506569256,
        "walking_time": "약 3분"
      },
      {
        "university_lat": 37.4965810660171,
        "university_lon": 126.8512499816,
        "university_type": "대학교",
        "university_name": "한영신학대학교",
        "distance": 1632.5793416766796,
        "walking_time": "약 25분"
      }
    ]
  }
}