{
  "클러스터_위도": 37.622523,
  "클러스터_경도": 127.024349,
  "클러스터_level": 4.0,
  "facilities": {
    "bus": [
      {
        "bus_lat": 37.62429503,
        "bus_lon": 127.027045,
        "bus_type": "버스정류장",
        "bus_name": "미아역.신일중고",
        "distance": 308.5487895892515,
        "walking_time": "약 5분"
      },
      {
        "bus_lat": 37.62486968,
        "bus_lon": 127.0266493,
        "bus_type": "버스정류장",
        "bus_name": "미아역.신일중고",
        "distance": 330.3502150535716,
        "walking_time": "약 5분"
      },
      {
        "bus_lat": 37.62541735,
        "bus_lon": 127.0232915,
        "bus_type": "버스정류장",
        "bus_name": "삼양신협",
        "distance": 335.0418827729964,
        "walking_time": "약 6분"
      },
      {
        "bus_lat": 37.62151722,
        "bus_lon": 127.0205867,
        "bus_type": "버스정류장",
        "bus_name": "삼양사거리역",
        "distance": 349.71977675604586,
        "walking_time": "약 6분"
      },
      {
        "bus_lat": 37.62563826,
        "bus_lon": 127.0235197,
        "bus_type": "버스정류장",
        "bus_name": "삼양신협",
        "distance": 354.0170310870614,
        "walking_time": "약 6분"
      },
      {
        "bus_lat": 37.62182995,
        "bus_lon": 127.0201741,
        "bus_type": "버스정류장",
        "bus_name": "삼양사거리역",
        "distance": 375.6821130310242,
        "walking_time": "약 6분"
      },
      {
        "bus_lat": 37.62486359,
        "bus_lon": 127.02114,
        "bus_type": "버스정류장",
        "bus_name": "구.삼양극장",
        "distance": 384.199534912456,
        "walking_time": "약 6분"
      },
      {
        "bus_lat": 37.62510482,
        "bus_lon": 127.0214409,
        "bus_type": "버스정류장",
        "bus_name": "강북반석교회",
        "distance": 384.7260383346587,
        "walking_time": "약 6분"
      },
      {
        "bus_lat": 37.62593954,
        "bus_lon": 127.0253865,
        "bus_type": "버스정류장",
        "bus_name": "미아역6번출구",
        "distance": 390.735716523269,
        "walking_time": "약 6분"
      },
      {
        "bus_lat": 37.62604678,
        "bus_lon": 127.0253321,
        "bus_type": "버스정류장",
        "bus_name": "깨순이김밥",
        "distance": 401.2783575184842,
        "walking_time": "약 6분"
      }
    ],
    "community_center": [
      {
        "community_center_lat": 37.61829748,
        "community_center_lon": 127.023851,
        "community_center_type": "주민센터",
        "community_center_name": "송천동 자치회관",
        "distance": 471.89915907963785,
        "walking_time": "약 8분"
      },
      {
        "community_center_lat": 37.62505177,
        "community_center_lon": 127.0197725,
        "community_center_type": "주민센터",
        "community_center_name": "삼양동 자치회관",
        "distance": 491.4453345928596,
        "walking_time": "약 8분"
      },
      {
        "community_center_lat": 37.62709135,
        "community_center_lon": 127.0269751,
        "community_center_type": "주민센터",
        "community_center_name": "미아동 자치회관",
        "distance": 558.1493929223265,
        "walking_time": "약 9분"
      },
      {
        "community_center_lat": 37.61514822,
        "community_center_lon": 127.0207421,
        "community_center_type": "주민센터",
        "community_center_name": "삼각산동 자치회관",
        "distance": 879.4228710673234,
        "walking_time": "약 14분"
      },
      {
        "community_center_lat": 37.6300516,
        "community_center_lon": 127.0175594,
        "community_center_type": "주민센터",
        "community_center_name": "수유1동 자치회관",
        "distance": 1028.7577439564309,
        "walking_time": "약 16분"
      },
      {
        "community_center_lat": 37.61612179,
        "community_center_lon": 127.0337803,
        "community_center_type": "주민센터",
        "community_center_name": "송중동 자치회관",
        "distance": 1093.9121020535156,
        "walking_time": "약 17분"
      },
      {
        "community_center_lat": 37.61046032,
        "community_center_lon": 127.0194714,
        "community_center_type": "주민센터",
        "community_center_name": "길음1동 자치회관",
        "distance": 1408.4310003157857,
        "walking_time": "약 22분"
      },
      {
        "community_center_lat": 37.6318813,
        "community_center_lon": 127.0390622,
        "community_center_type": "주민센터",
        "community_center_name": "번2동 자치회관",
        "distance": 1661.859241810202,
        "walking_time": "약 25분"
      },
      {
        "community_center_lat": 37.61053624,
        "community_center_lon": 127.035762,
        "community_center_type": "주민센터",
        "community_center_name": "월곡1동 자치회관",
        "distance": 1669.4469761312596,
        "walking_time": "약 25분"
      },
      {
        "community_center_lat": 37.63789129,
        "community_center_lon": 127.0288472,
        "community_center_type": "주민센터",
        "community_center_name": "번1동 자치회관",
        "distance": 1754.186731067222,
        "walking_time": "약 27분"
      }
    ],
    "convenience_store": [
      {
        "convenience_store_lat": 37.62350906,
        "convenience_store_lon": 127.0256041,
        "convenience_store_type": "편의점",
        "convenience_store_name": "GS25 미아큰마을점",
        "distance": 155.6943106949383,
        "walking_time": "약 3분"
      },
      {
        "convenience_store_lat": 37.62307806,
        "convenience_store_lon": 127.0262692,
        "convenience_store_type": "편의점",
        "convenience_store_name": "세븐일레븐 미아으뜸점",
        "distance": 180.0256708425235,
        "walking_time": "약 3분"
      },
      {
        "convenience_store_lat": 37.62462772,
        "convenience_store_lon": 127.0234764,
        "convenience_store_type": "편의점",
        "convenience_store_name": "GS25 미아으뜸점",
        "distance": 246.32903565661863,
        "walking_time": "약 4분"
      },
      {
        "convenience_store_lat": 37.62539541,
        "convenience_store_lon": 127.0232353,
        "convenience_store_type": "편의점",
        "convenience_store_name": "CU 미아청마점",
        "distance": 334.1184549685125,
        "walking_time": "약 5분"
      },
      {
        "convenience_store_lat": 37.61957072,
        "convenience_store_lon": 127.0253597,
        "convenience_store_type": "편의점",
        "convenience_store_name": "GS25 미아성암길점",
        "distance": 340.1333101015436,
        "walking_time": "약 6분"
      },
      {
        "convenience_store_lat": 37.62260024,
        "convenience_store_lon": 127.028329,
        "convenience_store_type": "편의점",
        "convenience_store_name": "CU 미아행복점",
        "distance": 350.6312334571747,
        "walking_time": "약 6분"
      },
      {
        "convenience_store_lat": 37.62175535,
        "convenience_store_lon": 127.0201421,
        "convenience_store_type": "편의점",
        "convenience_store_name": "GS25 삼양사거리역점",
        "distance": 380.2170398926506,
        "walking_time": "약 6분"
      },
      {
        "convenience_store_lat": 37.62011056,
        "convenience_store_lon": 127.0274934,
        "convenience_store_type": "편의점",
        "convenience_store_name": "세븐일레븐 도봉세무서점",
        "distance": 385.5557018712892,
        "walking_time": "약 6분"
      },
      {
        "convenience_store_lat": 37.62604104,
        "convenience_store_lon": 127.0250438,
        "convenience_store_type": "편의점",
        "convenience_store_name": "CU 신미아역점",
        "distance": 395.94511724767335,
        "walking_time": "약 6분"
      },
      {
        "convenience_store_lat": 37.62604104,
        "convenience_store_lon": 127.0250438,
        "convenience_store_type": "편의점",
        "convenience_store_name": "GS25 미아역점",
        "distance": 395.94511724767335,
        "walking_time": "약 6분"
      }
    ],
    "daycare": [
      {
        "daycare_lat": 37.62207139,
        "daycare_lon": 127.0243665812059,
        "daycare_type": "어린이집",
        "daycare_name": "또래어린이집",
        "distance": 50.24060756136543,
        "walking_time": "약 1분"
      },
      {
        "daycare_lat": 37.62234218,
        "daycare_lon": 127.0257418,
        "daycare_type": "어린이집",
        "daycare_name": "명선어린이집",
        "distance": 124.30359318238293,
        "walking_time": "약 2분"
      },
      {
        "daycare_lat": 37.6217393,
        "daycare_lon": 127.025949,
        "daycare_type": "어린이집",
        "daycare_name": "강북몬테소리어린이집",
        "distance": 165.68417722921765,
        "walking_time": "약 3분"
      },
      {
        "daycare_lat": 37.62243863,
        "daycare_lon": 127.0223287,
        "daycare_type": "어린이집",
        "daycare_name": "아기천사어린이집",
        "distance": 178.1789350882742,
        "walking_time": "약 3분"
      },
      {
        "daycare_lat": 37.62241778,
        "daycare_lon": 127.02214198814454,
        "daycare_type": "어린이집",
        "daycare_name": "세빛어린이집",
        "distance": 194.72769600295285,
        "walking_time": "약 3분"
      },
      {
        "daycare_lat": 37.6207022,
        "daycare_lon": 127.0256586,
        "daycare_type": "어린이집",
        "daycare_name": "구립큰마을어린이집",
        "distance": 233.0127981847748,
        "walking_time": "약 4분"
      },
      {
        "daycare_lat": 37.62254202,
        "daycare_lon": 127.0270283,
        "daycare_type": "어린이집",
        "daycare_name": "삼각산어린이집",
        "distance": 235.980521243586,
        "walking_time": "약 4분"
      },
      {
        "daycare_lat": 37.62448734,
        "daycare_lon": 127.0229938,
        "daycare_type": "어린이집",
        "daycare_name": "요한어린이집",
        "distance": 248.90676385973072,
        "walking_time": "약 4분"
      },
      {
        "daycare_lat": 37.62455129929064,
        "daycare_lon": 127.02212898420576,
        "daycare_type": "어린이집",
        "daycare_name": "토토어린이집",
        "distance": 298.4864924625436,
        "walking_time": "약 5분"
      },
      {
        "daycare_lat": 37.62340459,
        "daycare_lon": 127.0276095,
        "daycare_type": "어린이집",
        "daycare_name": "초롱어린이집",
        "distance": 303.428019602725,
        "walking_time": "약 5분"
      }
    ],
    "education": [
      {
        "education_lat": 37.62308136,
        "education_lon": 127.0215555,
        "education_type": "도서관",
        "education_name": "강북청소년문화정보도서관",
        "distance": 253.7410666181404,
        "walking_time": "약 4분"
      },
      {
        "education_lat": 37.61832041,
        "education_lon": 127.0299756,
        "education_type": "도서관",
        "education_name": "송중문화정보도서관",
        "distance": 681.1421914327148,
        "walking_time": "약 11분"
      },
      {
        "education_lat": 37.6300516,
        "education_lon": 127.0175594,
        "education_type": "도서관",
        "education_name": "수유문화정보도서관",
        "distance": 1028.7577439564309,
        "walking_time": "약 16분"
      },
      {
        "education_lat": 37.62511539,
        "education_lon": 127.0360797,
        "education_type": "도서관",
        "education_name": "강북문화정보도서관",
        "distance": 1072.5884198649603,
        "walking_time": "약 17분"
      },
      {
        "education_lat": 37.62047765,
        "education_lon": 127.0124025,
        "education_type": "도서관",
        "education_name": "솔샘문화정보도서관",
        "distance": 1076.4654891613854,
        "walking_time": "약 17분"
      },
      {
        "education_lat": 37.61146112,
        "education_lon": 127.0138629,
        "education_type": "도서관",
        "education_name": "서경로꿈마루도서관",
        "distance": 1538.1799390082438,
        "walking_time": "약 23분"
      }
    ],
    "electric_gas_station": [
      {
        "electric_gas_station_lat": 37.62551826,
        "electric_gas_station_lon": 127.017747,
        "electric_gas_station_type": "전기차 충전소",
        "electric_gas_station_name": "롯데마트 삼양점",
        "distance": 670.0737346913463,
        "walking_time": "약 11분"
      }
    ],
    "fitness": [
      {
        "fitness_lat": 37.6236406,
        "fitness_lon": 127.0268392,
        "fitness_type": "운동시설",
        "fitness_name": "M 휘트니스",
        "distance": 252.076326258818,
        "walking_time": "약 4분"
      },
      {
        "fitness_lat": 37.6241715,
        "fitness_lon": 127.0266656,
        "fitness_type": "운동시설",
        "fitness_name": "우주짐",
        "distance": 274.2752567469106,
        "walking_time": "약 5분"
      },
      {
        "fitness_lat": 37.62463544,
        "fitness_lon": 127.0265591,
        "fitness_type": "운동시설",
        "fitness_name": "더바른 휘트니스",
        "distance": 305.05934156492646,
        "walking_time": "약 5분"
      },
      {
        "fitness_lat": 37.62153479,
        "fitness_lon": 127.0277056,
        "fitness_type": "운동시설",
        "fitness_name": "피트니스팩토리 24",
        "distance": 315.38566062702694,
        "walking_time": "약 5분"
      },
      {
        "fitness_lat": 37.6206553,
        "fitness_lon": 127.0208979,
        "fitness_type": "운동시설",
        "fitness_name": "Jfit",
        "distance": 368.1240801916264,
        "walking_time": "약 6분"
      },
      {
        "fitness_lat": 37.62168725,
        "fitness_lon": 127.0284173,
        "fitness_type": "운동시설",
        "fitness_name": "국제헬스클럽",
        "distance": 370.1603095196796,
        "walking_time": "약 6분"
      },
      {
        "fitness_lat": 37.62107849,
        "fitness_lon": 127.0286239,
        "fitness_type": "운동시설",
        "fitness_name": "라이프빌딩짐",
        "distance": 409.3329312772437,
        "walking_time": "약 7분"
      },
      {
        "fitness_lat": 37.61997798,
        "fitness_lon": 127.0206707,
        "fitness_type": "운동시설",
        "fitness_name": "현대 휘트니스",
        "distance": 430.1576384139527,
        "walking_time": "약 7분"
      },
      {
        "fitness_lat": 37.62063064,
        "fitness_lon": 127.0288804,
        "fitness_type": "운동시설",
        "fitness_name": "허니머슬짐",
        "distance": 451.1685496147108,
        "walking_time": "약 7분"
      },
      {
        "fitness_lat": 37.62042225,
        "fitness_lon": 127.0190955,
        "fitness_type": "운동시설",
        "fitness_name": "삼양사거리점 스포애니 (주)케이디헬스케어",
        "distance": 518.3143436503242,
        "walking_time": "약 8분"
      }
    ],
    "gas_station": [
      {
        "gas_station_lat": 37.62276536,
        "gas_station_lon": 127.0190864,
        "gas_station_type": "주유소",
        "gas_station_name": "SK에너지㈜ 매일주유소",
        "distance": 464.26930197924514,
        "walking_time": "약 7분"
      },
      {
        "gas_station_lat": 37.62652601,
        "gas_station_lon": 127.0264596,
        "gas_station_type": "주유소",
        "gas_station_name": "씨앤에스에너지㈜ 미아셀프주유소",
        "distance": 482.36712942414175,
        "walking_time": "약 8분"
      },
      {
        "gas_station_lat": 37.62012056,
        "gas_station_lon": 127.0289845,
        "gas_station_type": "주유소",
        "gas_station_name": "㈜지에스이엔알 미아주유소",
        "distance": 487.8962682874227,
        "walking_time": "약 8분"
      },
      {
        "gas_station_lat": 37.63168864,
        "gas_station_lon": 127.0179188,
        "gas_station_type": "주유소",
        "gas_station_name": "㈜석산에너지",
        "distance": 1165.9295574462026,
        "walking_time": "약 18분"
      },
      {
        "gas_station_lat": 37.61032711,
        "gas_station_lon": 127.0227433,
        "gas_station_type": "주유소",
        "gas_station_name": "㈜재건에너지재정제2주유소(길음지점)",
        "distance": 1363.4758851704237,
        "walking_time": "약 21분"
      },
      {
        "gas_station_lat": 37.63501625,
        "gas_station_lon": 127.0313097,
        "gas_station_type": "주유소",
        "gas_station_name": "㈜미래아스팔트 덕릉로주유소",
        "distance": 1518.4186883595662,
        "walking_time": "약 23분"
      },
      {
        "gas_station_lat": 37.61340355,
        "gas_station_lon": 127.0380573,
        "gas_station_type": "주유소",
        "gas_station_name": "㈜오만불 신동방주유소",
        "distance": 1576.7248823776058,
        "walking_time": "약 24분"
      },
      {
        "gas_station_lat": 37.63556362,
        "gas_station_lon": 127.0328871,
        "gas_station_type": "주유소",
        "gas_station_name": "현대오일뱅크㈜ 번동셀프주유소",
        "distance": 1633.4020117041364,
        "walking_time": "약 25분"
      },
      {
        "gas_station_lat": 37.63426997,
        "gas_station_lon": 127.0377638,
        "gas_station_type": "주유소",
        "gas_station_name": "세원주유소",
        "distance": 1761.1960083564418,
        "walking_time": "약 27분"
      },
      {
        "gas_station_lat": 37.63619154,
        "gas_station_lon": 127.0127663,
        "gas_station_type": "주유소",
        "gas_station_name": "㈜서울에너지 시민주유소",
        "distance": 1830.4223459064613,
        "walking_time": "약 28분"
      }
    ],
    "hospital": [
      {
        "hospital_lat": 37.62316403,
        "hospital_lon": 127.0270068,
        "hospital_type": "병원",
        "hospital_name": "강북휴요양병원",
        "distance": 244.68868559825205,
        "walking_time": "약 4분"
      },
      {
        "hospital_lat": 37.6236406,
        "hospital_lon": 127.0268392,
        "hospital_type": "병원",
        "hospital_name": "연세치과의원",
        "distance": 252.076326258818,
        "walking_time": "약 4분"
      },
      {
        "hospital_lat": 37.6236406,
        "hospital_lon": 127.0268392,
        "hospital_type": "병원",
        "hospital_name": "미라온한의원",
        "distance": 252.076326258818,
        "walking_time": "약 4분"
      },
      {
        "hospital_lat": 37.6236406,
        "hospital_lon": 127.0268392,
        "hospital_type": "병원",
        "hospital_name": "윤형란내과의원",
        "distance": 252.076326258818,
        "walking_time": "약 4분"
      },
      {
        "hospital_lat": 37.62261644,
        "hospital_lon": 127.0272804,
        "hospital_type": "병원",
        "hospital_name": "우리치과의원",
        "distance": 258.3828269156986,
        "walking_time": "약 4분"
      },
      {
        "hospital_lat": 37.62261644,
        "hospital_lon": 127.0272804,
        "hospital_type": "병원",
        "hospital_name": "민병원",
        "distance": 258.3828269156986,
        "walking_time": "약 4분"
      },
      {
        "hospital_lat": 37.6241715,
        "hospital_lon": 127.0266656,
        "hospital_type": "병원",
        "hospital_name": "북서울한의원",
        "distance": 274.2752567469106,
        "walking_time": "약 5분"
      },
      {
        "hospital_lat": 37.6241715,
        "hospital_lon": 127.0266656,
        "hospital_type": "병원",
        "hospital_name": "삼양박가정의원",
        "distance": 274.2752567469106,
        "walking_time": "약 5분"
      },
      {
        "hospital_lat": 37.62430765,
        "hospital_lon": 127.0266114,
        "hospital_type": "병원",
        "hospital_name": "해오름치과의원",
        "distance": 281.21378425752386,
        "walking_time": "약 5분"
      },
      {
        "hospital_lat": 37.62463544,
        "hospital_lon": 127.0265591,
        "hospital_type": "병원",
        "hospital_name": "김치과의원",
        "distance": 305.05934156492646,
        "walking_time": "약 5분"
      }
    ],
    "music_room": [
      {
        "music_room_lat": 37.6233947,
        "music_room_lon": 127.0265401,
        "music_room_type": "노래방",
        "music_room_name": "SBS 노래연습장",
        "distance": 215.9486660157924,
        "walking_time": "약 4분"
      },
      {
        "music_room_lat": 37.6254803,
        "music_room_lon": 127.0235907,
        "music_room_type": "노래방",
        "music_room_name": "코인박스동전 노래연습장",
        "distance": 335.54979068515905,
        "walking_time": "약 6분"
      },
      {
        "music_room_lat": 37.62527555,
        "music_room_lon": 127.0259544,
        "music_room_type": "노래방",
        "music_room_name": "차차차 노래연습장",
        "distance": 337.1485906671724,
        "walking_time": "약 6분"
      },
      {
        "music_room_lat": 37.6255733,
        "music_room_lon": 127.0239359,
        "music_room_type": "노래방",
        "music_room_name": "123 노래연습장",
        "distance": 341.12354065708644,
        "walking_time": "약 6분"
      },
      {
        "music_room_lat": 37.62546961,
        "music_room_lon": 127.0255882,
        "music_room_type": "노래방",
        "music_room_name": "로얄노래연습장",
        "distance": 345.3462795335107,
        "walking_time": "약 6분"
      },
      {
        "music_room_lat": 37.6214984,
        "music_room_lon": 127.0206403,
        "music_room_type": "노래방",
        "music_room_name": "럭키노래연습장",
        "distance": 345.93387836922693,
        "walking_time": "약 6분"
      },
      {
        "music_room_lat": 37.62260024,
        "music_room_lon": 127.028329,
        "music_room_type": "노래방",
        "music_room_name": "명랑노래연습장",
        "distance": 350.6312334571747,
        "walking_time": "약 6분"
      },
      {
        "music_room_lat": 37.62554935,
        "music_room_lon": 127.0229741,
        "music_room_type": "노래방",
        "music_room_name": "K-1 노래연습장",
        "distance": 357.6372414575432,
        "walking_time": "약 6분"
      },
      {
        "music_room_lat": 37.625463,
        "music_room_lon": 127.0226787,
        "music_room_type": "노래방",
        "music_room_name": "모모 노래연습장",
        "distance": 358.4851956746706,
        "walking_time": "약 6분"
      },
      {
        "music_room_lat": 37.62498757,
        "music_room_lon": 127.0216181,
        "music_room_type": "노래방",
        "music_room_name": "청개구리노래연습장",
        "distance": 364.6202952281507,
        "walking_time": "약 6분"
      }
    ],
    "park": [
      {
        "park_lat": 37.6327957,
        "park_lon": 127.0317269,
        "park_type": "공원",
        "park_name": "오동근린공원",
        "distance": 1314.1342346636166,
        "walking_time": "약 20분"
      }
    ],
    "park_station": [
      {
        "park_station_lat": 37.62368528,
        "park_station_lon": 127.0252225,
        "park_station_type": "주차장",
        "park_station_name": "큰마을길",
        "distance": 150.4032651464855,
        "walking_time": "약 3분"
      },
      {
        "park_station_lat": 37.62015842,
        "park_station_lon": 127.0202655,
        "park_station_type": "주차장",
        "park_station_name": "대지시장길 공영주차장",
        "distance": 445.5087530716271,
        "walking_time": "약 7분"
      },
      {
        "park_station_lat": 37.6239863,
        "park_station_lon": 127.0195309,
        "park_station_type": "주차장",
        "park_station_name": "냉천길 공영주차장",
        "distance": 454.4615755051004,
        "walking_time": "약 7분"
      },
      {
        "park_station_lat": 37.62273168,
        "park_station_lon": 127.0184011,
        "park_station_type": "주차장",
        "park_station_name": "삼양마을공원지하공영주차장",
        "distance": 524.355865113376,
        "walking_time": "약 8분"
      },
      {
        "park_station_lat": 37.62214949,
        "park_station_lon": 127.0311255,
        "park_station_type": "주차장",
        "park_station_name": "오패산공영주차장",
        "distance": 598.2641743431417,
        "walking_time": "약 9분"
      },
      {
        "park_station_lat": 37.6285611,
        "park_station_lon": 127.0223422,
        "park_station_type": "주차장",
        "park_station_name": "미아동공영주차장",
        "distance": 694.2777415073991,
        "walking_time": "약 11분"
      },
      {
        "park_station_lat": 37.6167386,
        "park_station_lon": 127.028289,
        "park_station_type": "주차장",
        "park_station_name": "도봉로 15길 공영주차장",
        "distance": 730.8362958781856,
        "walking_time": "약 11분"
      },
      {
        "park_station_lat": 37.624715,
        "park_station_lon": 127.0154166,
        "park_station_type": "주차장",
        "park_station_name": "청암공영주차장",
        "distance": 823.5759369483023,
        "walking_time": "약 13분"
      },
      {
        "park_station_lat": 37.62586444,
        "park_station_lon": 127.015711,
        "park_station_type": "주차장",
        "park_station_name": "삼양시장길 공영주차장",
        "distance": 846.6332819108468,
        "walking_time": "약 13분"
      },
      {
        "park_station_lat": 37.62509068,
        "park_station_lon": 127.0334033,
        "park_station_type": "주차장",
        "park_station_name": "번동 햇살 주차장",
        "distance": 846.9885070073875,
        "walking_time": "약 13분"
      }
    ],
    "pc_room": [
      {
        "pc_room_lat": 37.6238427437952,
        "pc_room_lon": 127.025792259305,
        "pc_room_type": "PC방",
        "pc_room_name": "마징가PC,방",
        "distance": 194.14436386355635,
        "walking_time": "약 3분"
      },
      {
        "pc_room_lat": 37.6238839778191,
        "pc_room_lon": 127.025934549499,
        "pc_room_type": "PC방",
        "pc_room_name": "바이러스게임방",
        "distance": 205.9164002835344,
        "walking_time": "약 4분"
      },
      {
        "pc_room_lat": 37.6250118704133,
        "pc_room_lon": 127.025765702919,
        "pc_room_type": "PC방",
        "pc_room_name": "아이리쉬PC",
        "distance": 303.5751899313579,
        "walking_time": "약 5분"
      },
      {
        "pc_room_lat": 37.6250118704133,
        "pc_room_lon": 127.025765702919,
        "pc_room_type": "PC방",
        "pc_room_name": "인터넷멀티죤ⅡPC방",
        "distance": 303.5751899313579,
        "walking_time": "약 5분"
      },
      {
        "pc_room_lat": 37.6254802979209,
        "pc_room_lon": 127.023590672591,
        "pc_room_type": "PC방",
        "pc_room_name": "세븐pc방",
        "distance": 335.55004456868187,
        "walking_time": "약 6분"
      },
      {
        "pc_room_lat": 37.6254802979209,
        "pc_room_lon": 127.023590672591,
        "pc_room_type": "PC방",
        "pc_room_name": "U2인터넷PCCLUB",
        "distance": 335.55004456868187,
        "walking_time": "약 6분"
      },
      {
        "pc_room_lat": 37.6218003318061,
        "pc_room_lon": 127.02056237887,
        "pc_room_type": "PC방",
        "pc_room_name": "PC아일랜드",
        "distance": 343.04114176354886,
        "walking_time": "약 6분"
      },
      {
        "pc_room_lat": 37.6207303993394,
        "pc_room_lon": 127.027664593676,
        "pc_room_type": "PC방",
        "pc_room_name": "일루젼",
        "distance": 353.5590209028886,
        "walking_time": "약 6분"
      },
      {
        "pc_room_lat": 37.6255918263219,
        "pc_room_lon": 127.023205783688,
        "pc_room_type": "PC방",
        "pc_room_name": "삼보인터넷PC광장",
        "distance": 355.78141726278983,
        "walking_time": "약 6분"
      },
      {
        "pc_room_lat": 37.6257289560296,
        "pc_room_lon": 127.024544114211,
        "pc_room_type": "PC방",
        "pc_room_name": "행운PC",
        "distance": 356.8999587959956,
        "walking_time": "약 6분"
      }
    ],
    "police_office": [
      {
        "police_office_lat": 37.62015534,
        "police_office_lon": 127.0282649,
        "police_office_type": "경찰소",
        "police_office_name": "미아지구대",
        "distance": 433.8877559648112,
        "walking_time": "약 7분"
      },
      {
        "police_office_lat": 37.624832,
        "police_office_lon": 127.0181776,
        "police_office_type": "경찰소",
        "police_office_name": "삼양파출소",
        "distance": 601.1094030336918,
        "walking_time": "약 9분"
      },
      {
        "police_office_lat": 37.61630948,
        "police_office_lon": 127.0304008,
        "police_office_type": "경찰소",
        "police_office_name": "솔샘지구대",
        "distance": 872.6197180763874,
        "walking_time": "약 14분"
      },
      {
        "police_office_lat": 37.63067544,
        "police_office_lon": 127.0175813,
        "police_office_type": "경찰소",
        "police_office_name": "수유1파출소",
        "distance": 1084.891764807379,
        "walking_time": "약 17분"
      },
      {
        "police_office_lat": 37.6106064,
        "police_office_lon": 127.0192657,
        "police_office_type": "경찰소",
        "police_office_name": "길음지구대",
        "distance": 1398.6644597925442,
        "walking_time": "약 21분"
      },
      {
        "police_office_lat": 37.6359778,
        "police_office_lon": 127.0325802,
        "police_office_type": "경찰소",
        "police_office_name": "번동파출소",
        "distance": 1662.4593073605015,
        "walking_time": "약 25분"
      },
      {
        "police_office_lat": 37.63943981,
        "police_office_lon": 127.012404,
        "police_office_type": "경찰소",
        "police_office_name": "인수파출소",
        "distance": 2155.2010950492063,
        "walking_time": "약 33분"
      }
    ],
    "post_office": [
      {
        "post_office_lat": 37.62402918,
        "post_office_lon": 127.0284335,
        "post_office_type": "우체국",
        "post_office_name": "서울강북우체국",
        "distance": 396.80254645562206,
        "walking_time": "약 6분"
      },
      {
        "post_office_lat": 37.62387269,
        "post_office_lon": 127.0183655,
        "post_office_type": "우체국",
        "post_office_name": "서울삼양동우체국",
        "distance": 547.9276246709051,
        "walking_time": "약 9분"
      },
      {
        "post_office_lat": 37.61574067,
        "post_office_lon": 127.0193672,
        "post_office_type": "우체국",
        "post_office_name": "서울삼각산동우편취급국",
        "distance": 872.5155030626677,
        "walking_time": "약 14분"
      },
      {
        "post_office_lat": 37.61549556,
        "post_office_lon": 127.0295676,
        "post_office_type": "우체국",
        "post_office_name": "서울송천동우체국",
        "distance": 906.5724956731324,
        "walking_time": "약 14분"
      },
      {
        "post_office_lat": 37.61541478,
        "post_office_lon": 127.0135658,
        "post_office_type": "우체국",
        "post_office_name": "서경대학교우편취급국",
        "distance": 1235.6130895367965,
        "walking_time": "약 19분"
      },
      {
        "post_office_lat": 37.63560227,
        "post_office_lon": 127.0200628,
        "post_office_type": "우체국",
        "post_office_name": "서울인수동우편취급국",
        "distance": 1502.5331890141997,
        "walking_time": "약 23분"
      },
      {
        "post_office_lat": 37.63180799,
        "post_office_lon": 127.037878,
        "post_office_type": "우체국",
        "post_office_name": "서울번2동우체국",
        "distance": 1576.5450855476563,
        "walking_time": "약 24분"
      },
      {
        "post_office_lat": 37.63895292,
        "post_office_lon": 127.0377962,
        "post_office_type": "우체국",
        "post_office_name": "서울창2동우편취급국",
        "distance": 2177.143925152754,
        "walking_time": "약 33분"
      }
    ],
    "public_health_center": [
      {
        "public_health_center_lat": 37.6318813,
        "public_health_center_lon": 127.0390622,
        "public_health_center_type": "보건소",
        "public_health_center_name": "강북구보건소",
        "distance": 1661.859241810202,
        "walking_time": "약 25분"
      }
    ],
    "school": [
      {
        "school_lat": 37.6204135324231,
        "school_lon": 127.023905892641,
        "school_type": "고등학교",
        "school_name": "성암국제무역고등학교",
        "distance": 237.7864450391796,
        "walking_time": "약 4분"
      },
      {
        "school_lat": 37.6204135324231,
        "school_lon": 127.023905892641,
        "school_type": "중학교",
        "school_name": "성암여자중학교",
        "distance": 237.7864450391796,
        "walking_time": "약 4분"
      },
      {
        "school_lat": 37.6238849781413,
        "school_lon": 127.02971619019,
        "school_type": "초등학교",
        "school_name": "서울화계초등학교",
        "distance": 496.3623428730016,
        "walking_time": "약 8분"
      },
      {
        "school_lat": 37.627967222367,
        "school_lon": 127.028403050284,
        "school_type": "고등학교",
        "school_name": "신일고등학교",
        "distance": 702.8133700901687,
        "walking_time": "약 11분"
      },
      {
        "school_lat": 37.627967222367,
        "school_lon": 127.028403050284,
        "school_type": "중학교",
        "school_name": "신일중학교",
        "distance": 702.8133700901687,
        "walking_time": "약 11분"
      },
      {
        "school_lat": 37.6232955761621,
        "school_lon": 127.016149099325,
        "school_type": "초등학교",
        "school_name": "서울삼양초등학교",
        "distance": 727.2687342980433,
        "walking_time": "약 11분"
      },
      {
        "school_lat": 37.6162857334914,
        "school_lon": 127.020107911458,
        "school_type": "고등학교",
        "school_name": "삼각산고등학교",
        "distance": 787.7464036537325,
        "walking_time": "약 12분"
      },
      {
        "school_lat": 37.614905195868,
        "school_lon": 127.023735366645,
        "school_type": "초등학교",
        "school_name": "서울송천초등학교",
        "distance": 848.7836396350848,
        "walking_time": "약 13분"
      },
      {
        "school_lat": 37.6174690796359,
        "school_lon": 127.031996538921,
        "school_type": "초등학교",
        "school_name": "서울송중초등학교",
        "distance": 877.205032875418,
        "walking_time": "약 14분"
      },
      {
        "school_lat": 37.6215324222942,
        "school_lon": 127.014133356491,
        "school_type": "초등학교",
        "school_name": "서울미양초등학교",
        "distance": 906.4345204118024,
        "walking_time": "약 14분"
      }
    ],
    "self_laundromat": [
      {
        "self_laundromat_lat": 37.61204275,
        "self_laundromat_lon": 127.013505,
        "self_laundromat_type": "셀프 빨래방",
        "self_laundromat_name": "코인워시24빨래터 서경대점",
        "distance": 1506.7496928276314,
        "walking_time": "약 23분"
      },
      {
        "self_laundromat_lat": 37.61204275,
        "self_laundromat_lon": 127.013505,
        "self_laundromat_type": "셀프 빨래방",
        "self_laundromat_name": "코인워시24빨래터 서경대점",
        "distance": 1506.7496928276314,
        "walking_time": "약 23분"
      }
    ],
    "subway": [
      {
        "subway_lat": 37.6264436445109,
        "subway_lon": 127.026103434413,
        "subway_type": "지하철",
        "subway_name": "4호선-미아(서울사이버대학)역",
        "distance": 462.5272939491017,
        "walking_time": "약 7분"
      },
      {
        "subway_lat": 37.6132861094991,
        "subway_lon": 127.030098418544,
        "subway_type": "지하철",
        "subway_name": "4호선-미아사거리 역",
        "distance": 1145.1460611455343,
        "walking_time": "약 18분"
      },
      {
        "subway_lat": 37.6377452337445,
        "subway_lon": 127.025356901379,
        "subway_type": "지하철",
        "subway_name": "4호선-수유(강북구청)역",
        "distance": 1694.9607397547586,
        "walking_time": "약 26분"
      }
    ],
    "supermarket": [
      {
        "supermarket_lat": 37.62156408,
        "supermarket_lon": 127.0265024,
        "supermarket_type": "마트",
        "supermarket_name": "(주)농협유통 미아점",
        "distance": 217.57401073732183,
        "walking_time": "약 4분"
      },
      {
        "supermarket_lat": 37.62275922,
        "supermarket_lon": 127.0270023,
        "supermarket_type": "마트",
        "supermarket_name": "(주)이마트에브리데이 미아동점",
        "distance": 235.15241632326908,
        "walking_time": "약 4분"
      },
      {
        "supermarket_lat": 37.62422062,
        "supermarket_lon": 127.027362,
        "supermarket_type": "마트",
        "supermarket_name": "홈플러스(주)익스프레스미아점",
        "distance": 325.6494380895739,
        "walking_time": "약 5분"
      },
      {
        "supermarket_lat": 37.62042225,
        "supermarket_lon": 127.0190955,
        "supermarket_type": "마트",
        "supermarket_name": "동북프라자",
        "distance": 518.3143436503242,
        "walking_time": "약 8분"
      },
      {
        "supermarket_lat": 37.62042225,
        "supermarket_lon": 127.0190955,
        "supermarket_type": "마트",
        "supermarket_name": "동북시장",
        "distance": 518.3143436503242,
        "walking_time": "약 8분"
      },
      {
        "supermarket_lat": 37.62551826,
        "supermarket_lon": 127.017747,
        "supermarket_type": "마트",
        "supermarket_name": "롯데쇼핑(주) 롯데마트 삼양점",
        "distance": 670.0737346913463,
        "walking_time": "약 11분"
      },
      {
        "supermarket_lat": 37.61797663,
        "supermarket_lon": 127.0189343,
        "supermarket_type": "마트",
        "supermarket_name": "(주)지에스리테일GS수퍼 강북미아점",
        "distance": 694.9785479137628,
        "walking_time": "약 11분"
      },
      {
        "supermarket_lat": 37.63072891,
        "supermarket_lon": 127.0226681,
        "supermarket_type": "마트",
        "supermarket_name": "수유시장",
        "distance": 924.385522909131,
        "walking_time": "약 14분"
      },
      {
        "supermarket_lat": 37.63153004,
        "supermarket_lon": 127.0223303,
        "supermarket_type": "마트",
        "supermarket_name": "수유재래시장",
        "distance": 1017.1933908532484,
        "walking_time": "약 16분"
      },
      {
        "supermarket_lat": 37.63169253,
        "supermarket_lon": 127.0234675,
        "supermarket_type": "마트",
        "supermarket_name": "수유프라자",
        "distance": 1022.556260689317,
        "walking_time": "약 16분"
      }
    ],
    "tax_office": [
      {
        "tax_office_lat": 37.61975323,
        "tax_office_lon": 127.0282467,
        "tax_office_type": "세무서",
        "tax_office_name": "도봉세무서",
        "distance": 461.19244858214194,
        "walking_time": "약 7분"
      }
    ],
    "theater": [
      {
        "theater_lat": 37.6120685327599,
        "theater_lon": 127.03072164571,
        "theater_type": "영화관",
        "theater_name": "씨지브이 미아점",
        "distance": 1290.8971603922837,
        "walking_time": "약 20분"
      },
      {
        "theater_lat": 37.6356640949861,
        "theater_lon": 127.02383520999,
        "theater_type": "영화관",
        "theater_name": "(주)써니트 롯데시네마 수유",
        "distance": 1461.9234489032758,
        "walking_time": "약 22분"
      }
    ],
    "university": [
      {
        "university_lat": 37.629843917766,
        "university_lon": 127.027123065417,
        "university_type": "대학교",
        "university_name": "서울사이버대학교",
        "distance": 849.9180384458564,
        "walking_time": "약 13분"
      },
      {
        "university_lat": 37.6154147804327,
        "university_lon": 127.013565764354,
        "university_type": "대학교",
        "university_name": "서경대학교",
        "distance": 1235.6154719533508,
        "walking_time": "약 19분"
      }
    ]
  }
}