{
  "클러스터_위도": 37.57949866751408,
  "클러스터_경도": 127.08782433303116,
  "클러스터_level": 4.0,
  "facilities": {
    "bus": [
      {
        "bus_lat": 37.57964703,
        "bus_lon": 127.0876507,
        "bus_type": "버스정류장",
        "bus_name": "면목시장",
        "distance": 22.50061066041012,
        "walking_time": "약 1분"
      },
      {
        "bus_lat": 37.57985996,
        "bus_lon": 127.0880663,
        "bus_type": "버스정류장",
        "bus_name": "지하철7호선사가정역",
        "distance": 45.48188705129847,
        "walking_time": "약 1분"
      },
      {
        "bus_lat": 37.58066242,
        "bus_lon": 127.0872974,
        "bus_type": "버스정류장",
        "bus_name": "사가정역3번출구",
        "distance": 137.4823403900516,
        "walking_time": "약 3분"
      },
      {
        "bus_lat": 37.58073582,
        "bus_lon": 127.0870023,
        "bus_type": "버스정류장",
        "bus_name": "사가정역3번출구",
        "distance": 155.4721945571565,
        "walking_time": "약 3분"
      },
      {
        "bus_lat": 37.58090769,
        "bus_lon": 127.0876317,
        "bus_type": "버스정류장",
        "bus_name": "사가정역",
        "distance": 157.59306597955256,
        "walking_time": "약 3분"
      },
      {
        "bus_lat": 37.57863428,
        "bus_lon": 127.0863248,
        "bus_type": "버스정류장",
        "bus_name": "면남초등학교",
        "distance": 163.4019651269163,
        "walking_time": "약 3분"
      },
      {
        "bus_lat": 37.58044017,
        "bus_lon": 127.089301,
        "bus_type": "버스정류장",
        "bus_name": "사가정시장",
        "distance": 167.01248801798698,
        "walking_time": "약 3분"
      },
      {
        "bus_lat": 37.5806428,
        "bus_lon": 127.0894314,
        "bus_type": "버스정류장",
        "bus_name": "사가정시장",
        "distance": 190.37094371055227,
        "walking_time": "약 3분"
      },
      {
        "bus_lat": 37.58122425,
        "bus_lon": 127.0884338,
        "bus_type": "버스정류장",
        "bus_name": "사가정역2번출구",
        "distance": 199.2508109096174,
        "walking_time": "약 3분"
      },
      {
        "bus_lat": 37.5783,
        "bus_lon": 127.085932,
        "bus_type": "버스정류장",
        "bus_name": "면남초등학교",
        "distance": 213.4799774550904,
        "walking_time": "약 4분"
      }
    ],
    "community_center": [
      {
        "community_center_lat": 37.57873322,
        "community_center_lon": 127.0860523,
        "community_center_type": "주민센터",
        "community_center_name": "면목7동 자치회관",
        "distance": 177.8468790701044,
        "walking_time": "약 3분"
      },
      {
        "community_center_lat": 37.57470151,
        "community_center_lon": 127.0856085,
        "community_center_type": "주민센터",
        "community_center_name": "면목4동 자치회관",
        "distance": 568.0383213762564,
        "walking_time": "약 9분"
      },
      {
        "community_center_lat": 37.58735561,
        "community_center_lon": 127.0875552,
        "community_center_type": "주민센터",
        "community_center_name": "면목본동 자치회관",
        "distance": 873.9739661698688,
        "walking_time": "약 14분"
      },
      {
        "community_center_lat": 37.58575279,
        "community_center_lon": 127.0794745,
        "community_center_type": "주민센터",
        "community_center_name": "면목5동 자치회관",
        "distance": 1012.418325258864,
        "walking_time": "약 16분"
      },
      {
        "community_center_lat": 37.587003,
        "community_center_lon": 127.0951883,
        "community_center_type": "주민센터",
        "community_center_name": "면목3.8동 자치회관",
        "distance": 1057.0567393328397,
        "walking_time": "약 16분"
      },
      {
        "community_center_lat": 37.56880689,
        "community_center_lon": 127.0801381,
        "community_center_type": "주민센터",
        "community_center_name": "중곡3동 자치회관",
        "distance": 1368.3058443737916,
        "walking_time": "약 21분"
      },
      {
        "community_center_lat": 37.58977313,
        "community_center_lon": 127.0790295,
        "community_center_type": "주민센터",
        "community_center_name": "면목2동 자치회관",
        "distance": 1380.5127708146506,
        "walking_time": "약 21분"
      },
      {
        "community_center_lat": 37.57847147,
        "community_center_lon": 127.0705894,
        "community_center_type": "주민센터",
        "community_center_name": "장안2동 자치회관",
        "distance": 1523.090832429168,
        "walking_time": "약 23분"
      },
      {
        "community_center_lat": 37.56066762,
        "community_center_lon": 127.0800521,
        "community_center_type": "주민센터",
        "community_center_name": "중곡1동 자치회관",
        "distance": 2203.113803180652,
        "walking_time": "약 33분"
      },
      {
        "community_center_lat": 37.56015047,
        "community_center_lon": 127.0814751,
        "community_center_type": "주민센터",
        "community_center_name": "중곡2동 자치회관",
        "distance": 2223.004657638325,
        "walking_time": "약 34분"
      }
    ],
    "convenience_store": [
      {
        "convenience_store_lat": 37.5792284,
        "convenience_store_lon": 127.0876548,
        "convenience_store_type": "편의점",
        "convenience_store_name": "CU 면목7동점",
        "distance": 33.56101655743088,
        "walking_time": "약 1분"
      },
      {
        "convenience_store_lat": 37.58031272,
        "convenience_store_lon": 127.08913,
        "convenience_store_type": "편의점",
        "convenience_store_name": "GS25 사가정미소점",
        "distance": 146.3969030851909,
        "walking_time": "약 3분"
      },
      {
        "convenience_store_lat": 37.58055186,
        "convenience_store_lon": 127.0863255,
        "convenience_store_type": "편의점",
        "convenience_store_name": "세븐일레븐 사가정로점",
        "distance": 176.52177193491246,
        "walking_time": "약 3분"
      },
      {
        "convenience_store_lat": 37.57823286,
        "convenience_store_lon": 127.0861131,
        "convenience_store_type": "편의점",
        "convenience_store_name": "세븐일레븐 면목우리점",
        "distance": 206.28038687430168,
        "walking_time": "약 4분"
      },
      {
        "convenience_store_lat": 37.57794411,
        "convenience_store_lon": 127.089123,
        "convenience_store_type": "편의점",
        "convenience_store_name": "GS25 면목금호점",
        "distance": 207.3101626586564,
        "walking_time": "약 4분"
      },
      {
        "convenience_store_lat": 37.58182879,
        "convenience_store_lon": 127.0880963,
        "convenience_store_type": "편의점",
        "convenience_store_name": "GS25 사가정스타점",
        "distance": 260.20385252427343,
        "walking_time": "약 4분"
      },
      {
        "convenience_store_lat": 37.58117966,
        "convenience_store_lon": 127.0853536,
        "convenience_store_type": "편의점",
        "convenience_store_name": "CU 중랑사가정점",
        "distance": 286.95420334579603,
        "walking_time": "약 5분"
      },
      {
        "convenience_store_lat": 37.58214568,
        "convenience_store_lon": 127.0878389,
        "convenience_store_type": "편의점",
        "convenience_store_name": "세븐일레븐 사가정중앙점",
        "distance": 294.3371583554675,
        "walking_time": "약 5분"
      },
      {
        "convenience_store_lat": 37.58217635,
        "convenience_store_lon": 127.0881545,
        "convenience_store_type": "편의점",
        "convenience_store_name": "GS25 면목점",
        "distance": 299.16285607515607,
        "walking_time": "약 5분"
      },
      {
        "convenience_store_lat": 37.57691368,
        "convenience_store_lon": 127.086038,
        "convenience_store_type": "편의점",
        "convenience_store_name": "CU 면목우리점",
        "distance": 327.7212470561906,
        "walking_time": "약 5분"
      }
    ],
    "daycare": [
      {
        "daycare_lat": 37.57950957,
        "daycare_lon": 127.0891404,
        "daycare_type": "어린이집",
        "daycare_name": "새롬어린이집",
        "distance": 115.9819116105625,
        "walking_time": "약 2분"
      },
      {
        "daycare_lat": 37.57967311,
        "daycare_lon": 127.0899004,
        "daycare_type": "어린이집",
        "daycare_name": "금빛어린이집",
        "distance": 183.97415776944763,
        "walking_time": "약 3분"
      },
      {
        "daycare_lat": 37.57831598087625,
        "daycare_lon": 127.0894342811138,
        "daycare_type": "어린이집",
        "daycare_name": "금빛어린이집",
        "distance": 193.4499546291637,
        "walking_time": "약 3분"
      },
      {
        "daycare_lat": 37.57769746,
        "daycare_lon": 127.0866775,
        "daycare_type": "어린이집",
        "daycare_name": "빛과소금어린이집",
        "distance": 224.33892387010047,
        "walking_time": "약 4분"
      },
      {
        "daycare_lat": 37.58177779394001,
        "daycare_lon": 127.08675753417924,
        "daycare_type": "어린이집",
        "daycare_name": "예쁜어린이집",
        "distance": 270.3014694711114,
        "walking_time": "약 5분"
      },
      {
        "daycare_lat": 37.57948182,
        "daycare_lon": 127.0843891,
        "daycare_type": "어린이집",
        "daycare_name": "요한어린이집",
        "distance": 302.72838727856873,
        "walking_time": "약 5분"
      },
      {
        "daycare_lat": 37.57913901,
        "daycare_lon": 127.0913323,
        "daycare_type": "어린이집",
        "daycare_name": "우리사랑어린이집",
        "distance": 311.7089528526001,
        "walking_time": "약 5분"
      },
      {
        "daycare_lat": 37.57689679,
        "daycare_lon": 127.0860238,
        "daycare_type": "어린이집",
        "daycare_name": "개미어린이집",
        "distance": 329.9696290404439,
        "walking_time": "약 5분"
      },
      {
        "daycare_lat": 37.5798689,
        "daycare_lon": 127.0918057,
        "daycare_type": "어린이집",
        "daycare_name": "천사어린이집",
        "distance": 353.25560149190727,
        "walking_time": "약 6분"
      },
      {
        "daycare_lat": 37.57693449,
        "daycare_lon": 127.0853079,
        "daycare_type": "어린이집",
        "daycare_name": "예아랑어린이집",
        "distance": 361.2098041080128,
        "walking_time": "약 6분"
      }
    ],
    "education": [
      {
        "education_lat": 37.57395395,
        "education_lon": 127.0851055,
        "education_type": "문화원",
        "education_name": "중랑문화원",
        "distance": 661.4645514473907,
        "walking_time": "약 10분"
      },
      {
        "education_lat": 37.58735561,
        "education_lon": 127.0875552,
        "education_type": "도서관",
        "education_name": "중랑구립면목정보도서관",
        "distance": 873.9739661698688,
        "walking_time": "약 14분"
      },
      {
        "education_lat": 37.5677792,
        "education_lon": 127.0848024,
        "education_type": "도서관",
        "education_name": "중곡문화체육센터도서관",
        "distance": 1330.0809518138933,
        "walking_time": "약 20분"
      },
      {
        "education_lat": 37.57124499,
        "education_lon": 127.073201,
        "education_type": "도서관",
        "education_name": "장안어린이도서관",
        "distance": 1582.118537853216,
        "walking_time": "약 24분"
      },
      {
        "education_lat": 37.56505808,
        "education_lon": 127.0844568,
        "education_type": "공연장",
        "education_name": "광진어린이공연장",
        "distance": 1632.9171816429607,
        "walking_time": "약 25분"
      }
    ],
    "electric_gas_station": [
      {
        "electric_gas_station_lat": 37.58118639,
        "electric_gas_station_lon": 127.0803808,
        "electric_gas_station_type": "전기차 충전소",
        "electric_gas_station_name": "홈플러스 면목점",
        "distance": 682.2559825574345,
        "walking_time": "약 11분"
      }
    ],
    "fitness": [
      {
        "fitness_lat": 37.57963604,
        "fitness_lon": 127.0879747,
        "fitness_type": "운동시설",
        "fitness_name": "에이블짐",
        "distance": 20.221570305478245,
        "walking_time": "약 1분"
      },
      {
        "fitness_lat": 37.57976296,
        "fitness_lon": 127.0871728,
        "fitness_type": "운동시설",
        "fitness_name": "시너지 짐",
        "distance": 64.49898269079091,
        "walking_time": "약 1분"
      },
      {
        "fitness_lat": 37.57955168,
        "fitness_lon": 127.0862991,
        "fitness_type": "운동시설",
        "fitness_name": "GOTO 면목",
        "distance": 134.537047880501,
        "walking_time": "약 3분"
      },
      {
        "fitness_lat": 37.57961305,
        "fitness_lon": 127.0859146,
        "fitness_type": "운동시설",
        "fitness_name": "랩 지피티짐",
        "distance": 168.7709372036105,
        "walking_time": "약 3분"
      },
      {
        "fitness_lat": 37.58109828,
        "fitness_lon": 127.0862382,
        "fitness_type": "운동시설",
        "fitness_name": "피트니스 에이치",
        "distance": 226.21631322427527,
        "walking_time": "약 4분"
      },
      {
        "fitness_lat": 37.57908986,
        "fitness_lon": 127.085267,
        "fitness_type": "운동시설",
        "fitness_name": "세방헬스클럽",
        "distance": 229.89900067173016,
        "walking_time": "약 4분"
      },
      {
        "fitness_lat": 37.58088767,
        "fitness_lon": 127.0898077,
        "fitness_type": "운동시설",
        "fitness_name": "사가정역점 스포애니 주)케이디스포츠",
        "distance": 233.24296121940023,
        "walking_time": "약 4분"
      },
      {
        "fitness_lat": 37.57819781,
        "fitness_lon": 127.0857316,
        "fitness_type": "운동시설",
        "fitness_name": "시너지 휘트니스",
        "distance": 234.3794245707586,
        "walking_time": "약 4분"
      },
      {
        "fitness_lat": 37.5811373,
        "fitness_lon": 127.0859935,
        "fitness_type": "운동시설",
        "fitness_name": "크로스핏 레오",
        "distance": 243.3702358233125,
        "walking_time": "약 4분"
      },
      {
        "fitness_lat": 37.57747517,
        "fitness_lon": 127.0856787,
        "fitness_type": "운동시설",
        "fitness_name": "트루짐",
        "distance": 293.9016090862966,
        "walking_time": "약 5분"
      }
    ],
    "gas_station": [
      {
        "gas_station_lat": 37.57988517,
        "gas_station_lon": 127.0922253,
        "gas_station_type": "주유소",
        "gas_station_name": "용마로주유소",
        "distance": 390.19879147789095,
        "walking_time": "약 6분"
      },
      {
        "gas_station_lat": 37.57908103,
        "gas_station_lon": 127.079322,
        "gas_station_type": "주유소",
        "gas_station_name": "오천만주유소",
        "distance": 750.6897843200748,
        "walking_time": "약 12분"
      },
      {
        "gas_station_lat": 37.58386373,
        "gas_station_lon": 127.0801931,
        "gas_station_type": "주유소",
        "gas_station_name": "대원주유소",
        "distance": 829.3357358230797,
        "walking_time": "약 13분"
      },
      {
        "gas_station_lat": 37.58628354,
        "gas_station_lon": 127.0795035,
        "gas_station_type": "주유소",
        "gas_station_name": "면목self주유소",
        "distance": 1052.045442838456,
        "walking_time": "약 16분"
      },
      {
        "gas_station_lat": 37.58721536,
        "gas_station_lon": 127.0802811,
        "gas_station_type": "주유소",
        "gas_station_name": "㈜자연에너지 대창주유소",
        "distance": 1085.3956703350384,
        "walking_time": "약 17분"
      },
      {
        "gas_station_lat": 37.58910881,
        "gas_station_lon": 127.0802622,
        "gas_station_type": "주유소",
        "gas_station_name": "구도일주유소 동천",
        "distance": 1259.3376682351543,
        "walking_time": "약 19분"
      },
      {
        "gas_station_lat": 37.56930309,
        "gas_station_lon": 127.0790442,
        "gas_station_type": "주유소",
        "gas_station_name": "중곡현대주유소(현대오일뱅크㈜직영주유소)",
        "distance": 1372.5918854361687,
        "walking_time": "약 21분"
      },
      {
        "gas_station_lat": 37.56745201,
        "gas_station_lon": 127.0779359,
        "gas_station_type": "주유소",
        "gas_station_name": "정해네트웍스(주)일진주유소",
        "distance": 1598.0577832008055,
        "walking_time": "약 24분"
      },
      {
        "gas_station_lat": 37.56455803,
        "gas_station_lon": 127.0870571,
        "gas_station_type": "주유소",
        "gas_station_name": "대원주유소",
        "distance": 1662.6985747653289,
        "walking_time": "약 25분"
      },
      {
        "gas_station_lat": 37.56586242,
        "gas_station_lon": 127.0777383,
        "gas_station_type": "주유소",
        "gas_station_name": "중원주유소(현대오일뱅크㈜직영주유소)",
        "distance": 1757.6227466858843,
        "walking_time": "약 27분"
      }
    ],
    "hospital": [
      {
        "hospital_lat": 37.57963604,
        "hospital_lon": 127.0879747,
        "hospital_type": "병원",
        "hospital_name": "경희쥰한의원",
        "distance": 20.221570305478245,
        "walking_time": "약 1분"
      },
      {
        "hospital_lat": 37.57963604,
        "hospital_lon": 127.0879747,
        "hospital_type": "병원",
        "hospital_name": "서울위드치과의원",
        "distance": 20.221570305478245,
        "walking_time": "약 1분"
      },
      {
        "hospital_lat": 37.57963604,
        "hospital_lon": 127.0879747,
        "hospital_type": "병원",
        "hospital_name": "해아이비인후과의원",
        "distance": 20.221570305478245,
        "walking_time": "약 1분"
      },
      {
        "hospital_lat": 37.57937128,
        "hospital_lon": 127.0874419,
        "hospital_type": "병원",
        "hospital_name": "친절한서치과의원",
        "distance": 36.55691995920051,
        "walking_time": "약 1분"
      },
      {
        "hospital_lat": 37.57969501,
        "hospital_lon": 127.0874379,
        "hospital_type": "병원",
        "hospital_name": "굿모닝뉴욕치과의원",
        "distance": 40.451110119175176,
        "walking_time": "약 1분"
      },
      {
        "hospital_lat": 37.57969501,
        "hospital_lon": 127.0874379,
        "hospital_type": "병원",
        "hospital_name": "동승한의원",
        "distance": 40.451110119175176,
        "walking_time": "약 1분"
      },
      {
        "hospital_lat": 37.57969501,
        "hospital_lon": 127.0874379,
        "hospital_type": "병원",
        "hospital_name": "성모내과의원",
        "distance": 40.451110119175176,
        "walking_time": "약 1분"
      },
      {
        "hospital_lat": 37.57969501,
        "hospital_lon": 127.0874379,
        "hospital_type": "병원",
        "hospital_name": "성모척편한신경외과의원",
        "distance": 40.451110119175176,
        "walking_time": "약 1분"
      },
      {
        "hospital_lat": 37.57969501,
        "hospital_lon": 127.0874379,
        "hospital_type": "병원",
        "hospital_name": "연세조이의원",
        "distance": 40.451110119175176,
        "walking_time": "약 1분"
      },
      {
        "hospital_lat": 37.57969501,
        "hospital_lon": 127.0874379,
        "hospital_type": "병원",
        "hospital_name": "윤혜정산부인과의원",
        "distance": 40.451110119175176,
        "walking_time": "약 1분"
      }
    ],
    "music_room": [
      {
        "music_room_lat": 37.57969501,
        "music_room_lon": 127.0874379,
        "music_room_type": "노래방",
        "music_room_name": "SM노래연습장",
        "distance": 40.451110119175176,
        "walking_time": "약 1분"
      },
      {
        "music_room_lat": 37.57991754,
        "music_room_lon": 127.0878126,
        "music_room_type": "노래방",
        "music_room_name": "불꽃노래연습장",
        "distance": 46.587970138152734,
        "walking_time": "약 1분"
      },
      {
        "music_room_lat": 37.57925166,
        "music_room_lon": 127.087267,
        "music_room_type": "노래방",
        "music_room_name": "와와노래연습장",
        "distance": 56.27212097384069,
        "walking_time": "약 1분"
      },
      {
        "music_room_lat": 37.57946737,
        "music_room_lon": 127.0871359,
        "music_room_type": "노래방",
        "music_room_name": "sbs노래연습장",
        "distance": 60.76643590699536,
        "walking_time": "약 1분"
      },
      {
        "music_room_lat": 37.57984704,
        "music_room_lon": 127.086776,
        "music_room_type": "노래방",
        "music_room_name": "오케이노래연습장",
        "distance": 100.17478719274304,
        "walking_time": "약 2분"
      },
      {
        "music_room_lat": 37.5804346,
        "music_room_lon": 127.0882106,
        "music_room_type": "노래방",
        "music_room_name": "보가코인노래연습장",
        "distance": 109.49610468099485,
        "walking_time": "약 2분"
      },
      {
        "music_room_lat": 37.58037603,
        "music_room_lon": 127.0885708,
        "music_room_type": "노래방",
        "music_room_name": "도드리노래연습장",
        "distance": 117.66340419714813,
        "walking_time": "약 2분"
      },
      {
        "music_room_lat": 37.57910725,
        "music_room_lon": 127.0865102,
        "music_room_type": "노래방",
        "music_room_name": "1.2.3 노래연습장",
        "distance": 123.71423920462436,
        "walking_time": "약 2분"
      },
      {
        "music_room_lat": 37.58092644,
        "music_room_lon": 127.0877337,
        "music_room_type": "노래방",
        "music_room_name": "스타진노래연습장",
        "distance": 158.9618243080377,
        "walking_time": "약 3분"
      },
      {
        "music_room_lat": 37.5809507,
        "music_room_lon": 127.0874602,
        "music_room_type": "노래방",
        "music_room_name": "코리아노래연습장",
        "distance": 164.6163492365427,
        "walking_time": "약 3분"
      }
    ],
    "outdoor_sports": [
      {
        "outdoor_sports_lat": 37.5768712941771,
        "outdoor_sports_lon": 127.084337615615,
        "outdoor_sports_type": "야외 체육시설",
        "outdoor_sports_name": "오거리어린이공원(면목동)",
        "distance": 423.9854963680912,
        "walking_time": "약 7분"
      },
      {
        "outdoor_sports_lat": 37.5834425880894,
        "outdoor_sports_lon": 127.087329167474,
        "outdoor_sports_type": "야외 체육시설",
        "outdoor_sports_name": "까치어린이공원(면목동)",
        "distance": 440.70937329463226,
        "walking_time": "약 7분"
      },
      {
        "outdoor_sports_lat": 37.5798779466109,
        "outdoor_sports_lon": 127.082630738969,
        "outdoor_sports_type": "야외 체육시설",
        "outdoor_sports_name": "새마을탑녹지대",
        "distance": 459.6122167129398,
        "walking_time": "약 7분"
      },
      {
        "outdoor_sports_lat": 37.5827488115973,
        "outdoor_sports_lon": 127.084119627681,
        "outdoor_sports_type": "야외 체육시설",
        "outdoor_sports_name": "둑방공원",
        "distance": 487.018609917409,
        "walking_time": "약 8분"
      },
      {
        "outdoor_sports_lat": 37.5822888331464,
        "outdoor_sports_lon": 127.083387861249,
        "outdoor_sports_type": "야외 체육시설",
        "outdoor_sports_name": "새싹어린이공원(면목동)",
        "distance": 499.0954024196159,
        "walking_time": "약 8분"
      },
      {
        "outdoor_sports_lat": 37.5803165655371,
        "outdoor_sports_lon": 127.093594686002,
        "outdoor_sports_type": "야외 체육시설",
        "outdoor_sports_name": "면목1어린이공원(면목동)",
        "distance": 516.5661687474469,
        "walking_time": "약 8분"
      },
      {
        "outdoor_sports_lat": 37.5839971425004,
        "outdoor_sports_lon": 127.0833505938,
        "outdoor_sports_type": "야외 체육시설",
        "outdoor_sports_name": "면목천로녹지대-6",
        "distance": 636.88491486158,
        "walking_time": "약 10분"
      },
      {
        "outdoor_sports_lat": 37.5822041182499,
        "outdoor_sports_lon": 127.09475964157,
        "outdoor_sports_type": "야외 체육시설",
        "outdoor_sports_name": "쌈지공원",
        "distance": 681.1770306303872,
        "walking_time": "약 11분"
      },
      {
        "outdoor_sports_lat": 37.5856742114143,
        "outdoor_sports_lon": 127.091319123643,
        "outdoor_sports_type": "야외 체육시설",
        "outdoor_sports_name": "남촌어린이공원(면목동)",
        "distance": 752.5823697681948,
        "walking_time": "약 12분"
      },
      {
        "outdoor_sports_lat": 37.5804759981669,
        "outdoor_sports_lon": 127.079255215388,
        "outdoor_sports_type": "야외 체육시설",
        "outdoor_sports_name": "신우 A 제방 하단",
        "distance": 762.9100136861156,
        "walking_time": "약 12분"
      }
    ],
    "park": [
      {
        "park_lat": 37.5797622,
        "park_lon": 127.095997,
        "park_type": "공원",
        "park_name": "용마도시자연공원(사가정공원)",
        "distance": 720.7934104508389,
        "walking_time": "약 11분"
      },
      {
        "park_lat": 37.5731968,
        "park_lon": 127.0905888,
        "park_type": "공원",
        "park_name": "용마폭포공원",
        "distance": 741.877821690296,
        "walking_time": "약 12분"
      },
      {
        "park_lat": 37.5877155,
        "park_lon": 127.0987817,
        "park_type": "공원",
        "park_name": "서일대뒷산공원",
        "distance": 1329.3091709314615,
        "walking_time": "약 20분"
      }
    ],
    "park_station": [
      {
        "park_station_lat": 37.58344259,
        "park_station_lon": 127.0873292,
        "park_station_type": "주차장",
        "park_station_name": "까치공원공영주차장",
        "distance": 440.7093009287032,
        "walking_time": "약 7분"
      },
      {
        "park_station_lat": 37.5795551,
        "park_station_lon": 127.0809676,
        "park_station_type": "주차장",
        "park_station_name": "면목유수지 공영주차장",
        "distance": 604.2672723264305,
        "walking_time": "약 10분"
      },
      {
        "park_station_lat": 37.57435784,
        "park_station_lon": 127.0836384,
        "park_station_type": "주차장",
        "park_station_name": "중곡초교",
        "distance": 680.3267913106783,
        "walking_time": "약 11분"
      },
      {
        "park_station_lat": 37.58525771,
        "park_station_lon": 127.0838722,
        "park_station_type": "주차장",
        "park_station_name": "공유) 면목본동 22구간",
        "distance": 728.9490360787162,
        "walking_time": "약 11분"
      },
      {
        "park_station_lat": 37.58298769,
        "park_station_lon": 127.0800613,
        "park_station_type": "주차장",
        "park_station_name": "면목5동공영주차장",
        "distance": 786.4388044164009,
        "walking_time": "약 12분"
      },
      {
        "park_station_lat": 37.58607023,
        "park_station_lon": 127.0833615,
        "park_station_type": "주차장",
        "park_station_name": "공유) 면목5동 14구간",
        "distance": 829.8263584753403,
        "walking_time": "약 13분"
      },
      {
        "park_station_lat": 37.58568096,
        "park_station_lon": 127.0818698,
        "park_station_type": "주차장",
        "park_station_name": "면목천로 거주자우선주차장A",
        "distance": 864.8076989569226,
        "walking_time": "약 13분"
      },
      {
        "park_station_lat": 37.58701215,
        "park_station_lon": 127.0914833,
        "park_station_type": "주차장",
        "park_station_name": "은행나무공영주차장",
        "distance": 895.5174396382864,
        "walking_time": "약 14분"
      },
      {
        "park_station_lat": 37.56995827,
        "park_station_lon": 127.0846588,
        "park_station_type": "주차장",
        "park_station_name": "중곡3동공영주차장",
        "distance": 1096.9119802328007,
        "walking_time": "약 17분"
      },
      {
        "park_station_lat": 37.58909079,
        "park_station_lon": 127.0846488,
        "park_station_type": "주차장",
        "park_station_name": "면목천로 거주자우선주차장D",
        "distance": 1102.6895932701998,
        "walking_time": "약 17분"
      }
    ],
    "pc_room": [
      {
        "pc_room_lat": 37.5799175433987,
        "pc_room_lon": 127.087812647104,
        "pc_room_type": "PC방",
        "pc_room_name": "롤클럽",
        "distance": 46.58825602596548,
        "walking_time": "약 1분"
      },
      {
        "pc_room_lat": 37.5798794057732,
        "pc_room_lon": 127.088209517609,
        "pc_room_type": "PC방",
        "pc_room_name": "탑플레이스PC방 사가정역점",
        "distance": 54.263343811783,
        "walking_time": "약 1분"
      },
      {
        "pc_room_lat": 37.5800732977612,
        "pc_room_lon": 127.088332466633,
        "pc_room_type": "PC방",
        "pc_room_name": "초코게임장",
        "distance": 78.02413216594758,
        "walking_time": "약 2분"
      },
      {
        "pc_room_lat": 37.5802323207696,
        "pc_room_lon": 127.088455941098,
        "pc_room_type": "PC방",
        "pc_room_name": "스페이스PC방",
        "distance": 98.75707959986012,
        "walking_time": "약 2분"
      },
      {
        "pc_room_lat": 37.5804345971945,
        "pc_room_lon": 127.088210625453,
        "pc_room_type": "PC방",
        "pc_room_name": "컴앤넷",
        "distance": 109.49650547131073,
        "walking_time": "약 2분"
      },
      {
        "pc_room_lat": 37.5801924210484,
        "pc_room_lon": 127.089274747383,
        "pc_room_type": "PC방",
        "pc_room_name": "노다지 PC",
        "distance": 149.28932857306273,
        "walking_time": "약 3분"
      },
      {
        "pc_room_lat": 37.5805518586235,
        "pc_room_lon": 127.086325455785,
        "pc_room_type": "PC방",
        "pc_room_name": "매니아클럽",
        "distance": 176.52458579538103,
        "walking_time": "약 3분"
      },
      {
        "pc_room_lat": 37.5792495328325,
        "pc_room_lon": 127.085747943049,
        "pc_room_type": "PC방",
        "pc_room_name": "PC & 달인",
        "distance": 185.0629033133228,
        "walking_time": "약 3분"
      },
      {
        "pc_room_lat": 37.5807727094014,
        "pc_room_lon": 127.089210569993,
        "pc_room_type": "PC방",
        "pc_room_name": "클릭PC존",
        "distance": 187.0618704440562,
        "walking_time": "약 3분"
      },
      {
        "pc_room_lat": 37.5813318260092,
        "pc_room_lon": 127.088184513024,
        "pc_room_type": "PC방",
        "pc_room_name": "삼성PC",
        "distance": 206.2942267221862,
        "walking_time": "약 4분"
      }
    ],
    "police_office": [
      {
        "police_office_lat": 37.58320712,
        "police_office_lon": 127.0841549,
        "police_office_type": "경찰소",
        "police_office_name": "면목삼팔파출소",
        "distance": 524.0217185916999,
        "walking_time": "약 8분"
      },
      {
        "police_office_lat": 37.58094415,
        "police_office_lon": 127.0799363,
        "police_office_type": "경찰소",
        "police_office_name": "용마지구대",
        "distance": 713.4501671731985,
        "walking_time": "약 11분"
      },
      {
        "police_office_lat": 37.58820255,
        "police_office_lon": 127.0938774,
        "police_office_type": "경찰소",
        "police_office_name": "면목본동파출소",
        "distance": 1105.073293693392,
        "walking_time": "약 17분"
      },
      {
        "police_office_lat": 37.57679364,
        "police_office_lon": 127.0744038,
        "police_office_type": "경찰소",
        "police_office_name": "장안2파출소",
        "distance": 1220.3266917451167,
        "walking_time": "약 19분"
      },
      {
        "police_office_lat": 37.56880689,
        "police_office_lon": 127.0801381,
        "police_office_type": "경찰소",
        "police_office_name": "중곡3파출소",
        "distance": 1368.3058443737916,
        "walking_time": "약 21분"
      },
      {
        "police_office_lat": 37.56535103,
        "police_office_lon": 127.0872605,
        "police_office_type": "경찰소",
        "police_office_name": "중곡4파출소",
        "distance": 1573.930124982789,
        "walking_time": "약 24분"
      },
      {
        "police_office_lat": 37.56372011,
        "police_office_lon": 127.0827881,
        "police_office_type": "경찰소",
        "police_office_name": "중곡1파출소",
        "distance": 1809.768281634106,
        "walking_time": "약 28분"
      },
      {
        "police_office_lat": 37.56015047,
        "police_office_lon": 127.0814751,
        "police_office_type": "경찰소",
        "police_office_name": "중곡2파출소",
        "distance": 2223.004657638325,
        "walking_time": "약 34분"
      }
    ],
    "post_office": [
      {
        "post_office_lat": 37.5826041,
        "post_office_lon": 127.0888165,
        "post_office_type": "우체국",
        "post_office_name": "서울면목동우체국",
        "distance": 356.2049787450728,
        "walking_time": "약 6분"
      },
      {
        "post_office_lat": 37.57062404,
        "post_office_lon": 127.0858772,
        "post_office_type": "우체국",
        "post_office_name": "서울중곡3동우편취급국",
        "distance": 1001.6219729839208,
        "walking_time": "약 15분"
      },
      {
        "post_office_lat": 37.57858062,
        "post_office_lon": 127.0715711,
        "post_office_type": "우체국",
        "post_office_name": "서울장안2동우체국",
        "distance": 1435.9233891544418,
        "walking_time": "약 22분"
      },
      {
        "post_office_lat": 37.56152982,
        "post_office_lon": 127.0832682,
        "post_office_type": "우체국",
        "post_office_name": "서울중곡동우체국",
        "distance": 2037.9949143345204,
        "walking_time": "약 31분"
      }
    ],
    "school": [
      {
        "school_lat": 37.5772597202711,
        "school_lon": 127.087666433029,
        "school_type": "초등학교",
        "school_name": "서울면남초등학교",
        "distance": 249.3481333659901,
        "walking_time": "약 4분"
      },
      {
        "school_lat": 37.5745091144718,
        "school_lon": 127.086267425784,
        "school_type": "중학교",
        "school_name": "용마중학교",
        "distance": 571.5262961547182,
        "walking_time": "약 9분"
      },
      {
        "school_lat": 37.5748917275114,
        "school_lon": 127.083439043719,
        "school_type": "초등학교",
        "school_name": "서울중곡초등학교",
        "distance": 641.6909326521585,
        "walking_time": "약 10분"
      },
      {
        "school_lat": 37.5852407128388,
        "school_lon": 127.085961098757,
        "school_type": "초등학교",
        "school_name": "서울면동초등학교",
        "distance": 659.2588284763398,
        "walking_time": "약 10분"
      },
      {
        "school_lat": 37.584503792183,
        "school_lon": 127.094560803284,
        "school_type": "중학교",
        "school_name": "중화중학교",
        "distance": 813.7093875458099,
        "walking_time": "약 13분"
      },
      {
        "school_lat": 37.5824417903374,
        "school_lon": 127.096550877754,
        "school_type": "초등학교",
        "school_name": "서울면중초등학교",
        "distance": 835.7328270322062,
        "walking_time": "약 13분"
      },
      {
        "school_lat": 37.5830114568556,
        "school_lon": 127.096589314058,
        "school_type": "중학교",
        "school_name": "면목중학교",
        "distance": 865.5275498634339,
        "walking_time": "약 13분"
      },
      {
        "school_lat": 37.5846634085871,
        "school_lon": 127.097270640409,
        "school_type": "고등학교",
        "school_name": "면목고등학교",
        "distance": 1011.2929533485324,
        "walking_time": "약 16분"
      },
      {
        "school_lat": 37.5784502701654,
        "school_lon": 127.076003088926,
        "school_type": "초등학교",
        "school_name": "은석초등학교",
        "distance": 1048.2317115692024,
        "walking_time": "약 16분"
      },
      {
        "school_lat": 37.5780471818476,
        "school_lon": 127.075133018965,
        "school_type": "고등학교",
        "school_name": "동국대학교사범대학부속고등학교",
        "distance": 1129.9914856285875,
        "walking_time": "약 17분"
      }
    ],
    "self_laundromat": [
      {
        "self_laundromat_lat": 37.58305999,
        "self_laundromat_lon": 127.0845269,
        "self_laundromat_type": "셀프 빨래방",
        "self_laundromat_name": "런드리24 면목근린공원점",
        "distance": 491.1710844504063,
        "walking_time": "약 8분"
      },
      {
        "self_laundromat_lat": 37.58305999,
        "self_laundromat_lon": 127.0845269,
        "self_laundromat_type": "셀프 빨래방",
        "self_laundromat_name": "런드리24 면목근린공원점",
        "distance": 491.1710844504063,
        "walking_time": "약 8분"
      },
      {
        "self_laundromat_lat": 37.57794591,
        "self_laundromat_lon": 127.0824243,
        "self_laundromat_type": "셀프 빨래방",
        "self_laundromat_name": "가나안24시셀프빨래방",
        "distance": 506.2257919588153,
        "walking_time": "약 8분"
      },
      {
        "self_laundromat_lat": 37.57794591,
        "self_laundromat_lon": 127.0824243,
        "self_laundromat_type": "셀프 빨래방",
        "self_laundromat_name": "가나안24시셀프빨래방",
        "distance": 506.2257919588153,
        "walking_time": "약 8분"
      },
      {
        "self_laundromat_lat": 37.57662817,
        "self_laundromat_lon": 127.0829928,
        "self_laundromat_type": "셀프 빨래방",
        "self_laundromat_name": "화이트365 사가정역점",
        "distance": 532.132238986961,
        "walking_time": "약 8분"
      },
      {
        "self_laundromat_lat": 37.57662817,
        "self_laundromat_lon": 127.0829928,
        "self_laundromat_type": "셀프 빨래방",
        "self_laundromat_name": "화이트365 사가정역점",
        "distance": 532.132238986961,
        "walking_time": "약 8분"
      },
      {
        "self_laundromat_lat": 37.57606241,
        "self_laundromat_lon": 127.0808229,
        "self_laundromat_type": "셀프 빨래방",
        "self_laundromat_name": "워시엔조이 셀프빨래방 면목4동점",
        "distance": 725.731211228711,
        "walking_time": "약 11분"
      },
      {
        "self_laundromat_lat": 37.57606241,
        "self_laundromat_lon": 127.0808229,
        "self_laundromat_type": "셀프 빨래방",
        "self_laundromat_name": "워시엔조이 셀프빨래방 면목4동점",
        "distance": 725.731211228711,
        "walking_time": "약 11분"
      },
      {
        "self_laundromat_lat": 37.58411599,
        "self_laundromat_lon": 127.0814042,
        "self_laundromat_type": "셀프 빨래방",
        "self_laundromat_name": "워시엔조이 면목5동점",
        "distance": 763.9817250974305,
        "walking_time": "약 12분"
      },
      {
        "self_laundromat_lat": 37.58411599,
        "self_laundromat_lon": 127.0814042,
        "self_laundromat_type": "셀프 빨래방",
        "self_laundromat_name": "워시엔조이 면목5동점",
        "distance": 763.9817250974305,
        "walking_time": "약 12분"
      }
    ],
    "subway": [
      {
        "subway_lat": 37.5807945533834,
        "subway_lon": 127.088439058456,
        "subway_type": "지하철",
        "subway_name": "7호선-사가정역",
        "distance": 153.94194891473597,
        "walking_time": "약 3분"
      },
      {
        "subway_lat": 37.5740302107904,
        "subway_lon": 127.087038114766,
        "subway_type": "지하철",
        "subway_name": "7호선-용마산(용마폭포공원)역",
        "distance": 611.9993539819648,
        "walking_time": "약 10분"
      },
      {
        "subway_lat": 37.5883848968931,
        "subway_lon": 127.087567841531,
        "subway_type": "지하철",
        "subway_name": "7호선-면목역",
        "distance": 988.3620771941604,
        "walking_time": "약 15분"
      },
      {
        "subway_lat": 37.5655258842084,
        "subway_lon": 127.084072412789,
        "subway_type": "지하철",
        "subway_name": "7호선-중곡역",
        "distance": 1588.498814726394,
        "walking_time": "약 24분"
      }
    ],
    "supermarket": [
      {
        "supermarket_lat": 37.57955168,
        "supermarket_lon": 127.0862991,
        "supermarket_type": "마트",
        "supermarket_name": "(주)이마트에브리데이 면목동점",
        "distance": 134.537047880501,
        "walking_time": "약 3분"
      },
      {
        "supermarket_lat": 37.58399168,
        "supermarket_lon": 127.0881366,
        "supermarket_type": "마트",
        "supermarket_name": "홈플러스(주)익스프레스 면목점",
        "distance": 500.3574127038742,
        "walking_time": "약 8분"
      },
      {
        "supermarket_lat": 37.58118639,
        "supermarket_lon": 127.0803808,
        "supermarket_type": "마트",
        "supermarket_name": "홈플러스(주)면목점",
        "distance": 682.2559825574345,
        "walking_time": "약 11분"
      },
      {
        "supermarket_lat": 37.58983834,
        "supermarket_lon": 127.0898932,
        "supermarket_type": "마트",
        "supermarket_name": "동원",
        "distance": 1164.082477242741,
        "walking_time": "약 18분"
      },
      {
        "supermarket_lat": 37.57506253,
        "supermarket_lon": 127.0725724,
        "supermarket_type": "마트",
        "supermarket_name": "GS THE FRESH 동대문장안점",
        "distance": 1431.7412304966183,
        "walking_time": "약 22분"
      },
      {
        "supermarket_lat": 37.57506253,
        "supermarket_lon": 127.0725724,
        "supermarket_type": "마트",
        "supermarket_name": "GS THE FRESH 동대문장안점",
        "distance": 1431.7412304966183,
        "walking_time": "약 22분"
      },
      {
        "supermarket_lat": 37.58146288,
        "supermarket_lon": 127.0707066,
        "supermarket_type": "마트",
        "supermarket_name": "롯데쇼핑(주) 롯데슈퍼 장안점",
        "distance": 1524.1736965617522,
        "walking_time": "약 23분"
      },
      {
        "supermarket_lat": 37.57192367,
        "supermarket_lon": 127.072387,
        "supermarket_type": "마트",
        "supermarket_name": "(주)형지쇼핑 아트몰링 장안점",
        "distance": 1600.0933459803807,
        "walking_time": "약 24분"
      },
      {
        "supermarket_lat": 37.56390828,
        "supermarket_lon": 127.0813014,
        "supermarket_type": "마트",
        "supermarket_name": "(주)이마트에브리데이 중곡동점",
        "distance": 1826.405900062264,
        "walking_time": "약 28분"
      },
      {
        "supermarket_lat": 37.56390828,
        "supermarket_lon": 127.0813014,
        "supermarket_type": "마트",
        "supermarket_name": "중곡제일시장",
        "distance": 1826.405900062264,
        "walking_time": "약 28분"
      }
    ],
    "university": [
      {
        "university_lat": 37.5860827979004,
        "university_lon": 127.097203310115,
        "university_type": "전문대학교(2년제)",
        "university_name": "서일대학교",
        "distance": 1104.105099937114,
        "walking_time": "약 17분"
      }
    ]
  }
}