{
  "클러스터_위도": 37.62754499999999,
  "클러스터_경도": 127.014556,
  "클러스터_level": 4.0,
  "facilities": {
    "bus": [
      {
        "bus_lat": 37.62808377,
        "bus_lon": 127.0133448,
        "bus_type": "버스정류장",
        "bus_name": "삼흥연립",
        "distance": 122.33753396581504,
        "walking_time": "약 2분"
      },
      {
        "bus_lat": 37.62821215,
        "bus_lon": 127.0134411,
        "bus_type": "버스정류장",
        "bus_name": "삼흥연립",
        "distance": 123.0584312280188,
        "walking_time": "약 2분"
      },
      {
        "bus_lat": 37.62871129,
        "bus_lon": 127.015218,
        "bus_type": "버스정류장",
        "bus_name": "한빛맹아학교",
        "distance": 142.18697117618245,
        "walking_time": "약 3분"
      },
      {
        "bus_lat": 37.62879533,
        "bus_lon": 127.0151575,
        "bus_type": "버스정류장",
        "bus_name": "한빛맹아학교",
        "distance": 148.77967006458437,
        "walking_time": "약 3분"
      },
      {
        "bus_lat": 37.62796908,
        "bus_lon": 127.0122245,
        "bus_type": "버스정류장",
        "bus_name": "다리앞",
        "distance": 210.6705604941841,
        "walking_time": "약 4분"
      },
      {
        "bus_lat": 37.62788258,
        "bus_lon": 127.0122019,
        "bus_type": "버스정류장",
        "bus_name": "다리앞",
        "distance": 210.686502762146,
        "walking_time": "약 4분"
      },
      {
        "bus_lat": 37.62655166,
        "bus_lon": 127.0123648,
        "bus_type": "버스정류장",
        "bus_name": "빨래골입구",
        "distance": 222.34688787654864,
        "walking_time": "약 4분"
      },
      {
        "bus_lat": 37.62921339,
        "bus_lon": 127.013002,
        "bus_type": "버스정류장",
        "bus_name": "서울정인학교",
        "distance": 230.5322282250893,
        "walking_time": "약 4분"
      },
      {
        "bus_lat": 37.62929787,
        "bus_lon": 127.0131269,
        "bus_type": "버스정류장",
        "bus_name": "우광타운",
        "distance": 232.01105606495204,
        "walking_time": "약 4분"
      },
      {
        "bus_lat": 37.62599658,
        "bus_lon": 127.0124497,
        "bus_type": "버스정류장",
        "bus_name": "정은빌라",
        "distance": 253.0873836931933,
        "walking_time": "약 4분"
      }
    ],
    "community_center": [
      {
        "community_center_lat": 37.6300516,
        "community_center_lon": 127.0175594,
        "community_center_type": "주민센터",
        "community_center_name": "수유1동 자치회관",
        "distance": 384.2420810974919,
        "walking_time": "약 6분"
      },
      {
        "community_center_lat": 37.62505177,
        "community_center_lon": 127.0197725,
        "community_center_type": "주민센터",
        "community_center_name": "삼양동 자치회관",
        "distance": 536.5732293610662,
        "walking_time": "약 9분"
      },
      {
        "community_center_lat": 37.62709135,
        "community_center_lon": 127.0269751,
        "community_center_type": "주민센터",
        "community_center_name": "미아동 자치회관",
        "distance": 1094.8659824915749,
        "walking_time": "약 17분"
      },
      {
        "community_center_lat": 37.61829748,
        "community_center_lon": 127.023851,
        "community_center_type": "주민센터",
        "community_center_name": "송천동 자치회관",
        "distance": 1314.343764633281,
        "walking_time": "약 20분"
      },
      {
        "community_center_lat": 37.6387147,
        "community_center_lon": 127.0231464,
        "community_center_type": "주민센터",
        "community_center_name": "수유3동 자치회관",
        "distance": 1454.2482543269991,
        "walking_time": "약 22분"
      },
      {
        "community_center_lat": 37.61514822,
        "community_center_lon": 127.0207421,
        "community_center_type": "주민센터",
        "community_center_name": "삼각산동 자치회관",
        "distance": 1482.2244632256604,
        "walking_time": "약 23분"
      },
      {
        "community_center_lat": 37.63789129,
        "community_center_lon": 127.0288472,
        "community_center_type": "주민센터",
        "community_center_name": "번1동 자치회관",
        "distance": 1705.086567252152,
        "walking_time": "약 26분"
      },
      {
        "community_center_lat": 37.61335758,
        "community_center_lon": 127.0070184,
        "community_center_type": "주민센터",
        "community_center_name": "정릉4동 자치회관",
        "distance": 1711.5626916413894,
        "walking_time": "약 26분"
      },
      {
        "community_center_lat": 37.61046032,
        "community_center_lon": 127.0194714,
        "community_center_type": "주민센터",
        "community_center_name": "길음1동 자치회관",
        "distance": 1948.4354621207185,
        "walking_time": "약 30분"
      }
    ],
    "convenience_store": [
      {
        "convenience_store_lat": 37.62543376,
        "convenience_store_lon": 127.0163999,
        "convenience_store_type": "편의점",
        "convenience_store_name": "CU 솔매로점",
        "distance": 285.44956176198787,
        "walking_time": "약 5분"
      },
      {
        "convenience_store_lat": 37.62500306,
        "convenience_store_lon": 127.0122263,
        "convenience_store_type": "편의점",
        "convenience_store_name": "CU 미아마인점",
        "distance": 349.2657178840735,
        "walking_time": "약 6분"
      },
      {
        "convenience_store_lat": 37.6248833,
        "convenience_store_lon": 127.0179755,
        "convenience_store_type": "편의점",
        "convenience_store_name": "세븐일레븐 미아삼양본점",
        "distance": 422.2395853647267,
        "walking_time": "약 7분"
      },
      {
        "convenience_store_lat": 37.63178293,
        "convenience_store_lon": 127.0135198,
        "convenience_store_type": "편의점",
        "convenience_store_name": "GS25 수유혜화점",
        "distance": 479.9900765286458,
        "walking_time": "약 8분"
      },
      {
        "convenience_store_lat": 37.63233214,
        "convenience_store_lon": 127.0138197,
        "convenience_store_type": "편의점",
        "convenience_store_name": "CU 수유한아름점",
        "distance": 536.240317239832,
        "walking_time": "약 9분"
      },
      {
        "convenience_store_lat": 37.62473285,
        "convenience_store_lon": 127.019585,
        "convenience_store_type": "편의점",
        "convenience_store_name": "CU 미아에이스점",
        "distance": 542.1556141791261,
        "walking_time": "약 9분"
      },
      {
        "convenience_store_lat": 37.63251915,
        "convenience_store_lon": 127.0148406,
        "convenience_store_type": "편의점",
        "convenience_store_name": "GS25 수유한솔점",
        "distance": 553.6677893480186,
        "walking_time": "약 9분"
      },
      {
        "convenience_store_lat": 37.63097999,
        "convenience_store_lon": 127.0192238,
        "convenience_store_type": "편의점",
        "convenience_store_name": "GS25 수유으뜸점",
        "distance": 561.1262912769548,
        "walking_time": "약 9분"
      },
      {
        "convenience_store_lat": 37.63226542,
        "convenience_store_lon": 127.0181363,
        "convenience_store_type": "편의점",
        "convenience_store_name": "GS25 수유빨래골점",
        "distance": 612.3034369617109,
        "walking_time": "약 10분"
      },
      {
        "convenience_store_lat": 37.62276536,
        "convenience_store_lon": 127.0190864,
        "convenience_store_type": "편의점",
        "convenience_store_name": "CU SK매일주유소점",
        "distance": 664.5695631613943,
        "walking_time": "약 10분"
      }
    ],
    "daycare": [
      {
        "daycare_lat": 37.62893078,
        "daycare_lon": 127.0156772,
        "daycare_type": "어린이집",
        "daycare_name": "솔로몬영재어린이집",
        "distance": 183.01249124525103,
        "walking_time": "약 3분"
      },
      {
        "daycare_lat": 37.62568321,
        "daycare_lon": 127.0133807,
        "daycare_type": "어린이집",
        "daycare_name": "구세군강북 어린이집",
        "distance": 231.45469268102943,
        "walking_time": "약 4분"
      },
      {
        "daycare_lat": 37.62554939,
        "daycare_lon": 127.016022,
        "daycare_type": "어린이집",
        "daycare_name": "세종어린이집",
        "distance": 256.7271683781729,
        "walking_time": "약 4분"
      },
      {
        "daycare_lat": 37.62543431,
        "daycare_lon": 127.0118478,
        "daycare_type": "어린이집",
        "daycare_name": "구립행복어린이집",
        "distance": 334.6149121796381,
        "walking_time": "약 5분"
      },
      {
        "daycare_lat": 37.62970525,
        "daycare_lon": 127.0173573,
        "daycare_type": "어린이집",
        "daycare_name": "펀키즈어린이집",
        "distance": 344.32397994584727,
        "walking_time": "약 6분"
      },
      {
        "daycare_lat": 37.63075092,
        "daycare_lon": 127.01622167050924,
        "daycare_type": "어린이집",
        "daycare_name": "하아어린이집",
        "distance": 385.4817018144441,
        "walking_time": "약 6분"
      },
      {
        "daycare_lat": 37.62891621016676,
        "daycare_lon": 127.01857761104526,
        "daycare_type": "어린이집",
        "daycare_name": "구립솔샘어린이집",
        "distance": 385.589905344745,
        "walking_time": "약 6분"
      },
      {
        "daycare_lat": 37.63092657,
        "daycare_lon": 127.0155704,
        "daycare_type": "어린이집",
        "daycare_name": "영성천사어린이집",
        "distance": 386.4793895602268,
        "walking_time": "약 6분"
      },
      {
        "daycare_lat": 37.6240522,
        "daycare_lon": 127.0130397,
        "daycare_type": "어린이집",
        "daycare_name": "구립초록나라어린이집",
        "distance": 410.697670918821,
        "walking_time": "약 7분"
      },
      {
        "daycare_lat": 37.62580958675829,
        "daycare_lon": 127.01889861364198,
        "daycare_type": "어린이집",
        "daycare_name": "예나어린이집",
        "distance": 428.3668332005719,
        "walking_time": "약 7분"
      }
    ],
    "education": [
      {
        "education_lat": 37.6300516,
        "education_lon": 127.0175594,
        "education_type": "도서관",
        "education_name": "수유문화정보도서관",
        "distance": 384.2420810974919,
        "walking_time": "약 6분"
      },
      {
        "education_lat": 37.62308136,
        "education_lon": 127.0215555,
        "education_type": "도서관",
        "education_name": "강북청소년문화정보도서관",
        "distance": 791.4171854865841,
        "walking_time": "약 12분"
      },
      {
        "education_lat": 37.62047765,
        "education_lon": 127.0124025,
        "education_type": "도서관",
        "education_name": "솔샘문화정보도서관",
        "distance": 808.4158763388159,
        "walking_time": "약 13분"
      },
      {
        "education_lat": 37.61832041,
        "education_lon": 127.0299756,
        "education_type": "도서관",
        "education_name": "송중문화정보도서관",
        "distance": 1701.8672659824003,
        "walking_time": "약 26분"
      },
      {
        "education_lat": 37.61146112,
        "education_lon": 127.0138629,
        "education_type": "도서관",
        "education_name": "서경로꿈마루도서관",
        "distance": 1789.487381738402,
        "walking_time": "약 27분"
      },
      {
        "education_lat": 37.61065979,
        "education_lon": 127.004288,
        "education_type": "미술관/갤러리",
        "education_name": "성북구립 최만린미술관",
        "distance": 2084.002653386225,
        "walking_time": "약 32분"
      },
      {
        "education_lat": 37.61106261291357,
        "education_lon": 127.00012175190037,
        "education_type": "박물관/기념관",
        "education_name": "국민대학교 명원박물관",
        "distance": 2230.520652137159,
        "walking_time": "약 34분"
      }
    ],
    "electric_gas_station": [
      {
        "electric_gas_station_lat": 37.62551826,
        "electric_gas_station_lon": 127.017747,
        "electric_gas_station_type": "전기차 충전소",
        "electric_gas_station_name": "롯데마트 삼양점",
        "distance": 360.2250916131777,
        "walking_time": "약 6분"
      }
    ],
    "fitness": [
      {
        "fitness_lat": 37.62972317,
        "fitness_lon": 127.0177006,
        "fitness_type": "운동시설",
        "fitness_name": "범 휘트니스",
        "distance": 367.900466529681,
        "walking_time": "약 6분"
      },
      {
        "fitness_lat": 37.62227646,
        "fitness_lon": 127.016188,
        "fitness_type": "운동시설",
        "fitness_name": "열정PT",
        "distance": 603.2085077694825,
        "walking_time": "약 10분"
      },
      {
        "fitness_lat": 37.63072891,
        "fitness_lon": 127.0226681,
        "fitness_type": "운동시설",
        "fitness_name": "에스핏휘트니스 수유점",
        "distance": 797.2991067890947,
        "walking_time": "약 12분"
      },
      {
        "fitness_lat": 37.62028022,
        "fitness_lon": 127.017574,
        "fitness_type": "운동시설",
        "fitness_name": "아크로짐 미아점 24시 휘트니스",
        "distance": 850.4111812577017,
        "walking_time": "약 13분"
      },
      {
        "fitness_lat": 37.62042225,
        "fitness_lon": 127.0190955,
        "fitness_type": "운동시설",
        "fitness_name": "삼양사거리점 스포애니 (주)케이디헬스케어",
        "distance": 887.1986004232357,
        "walking_time": "약 14분"
      },
      {
        "fitness_lat": 37.6206553,
        "fitness_lon": 127.0208979,
        "fitness_type": "운동시설",
        "fitness_name": "Jfit",
        "distance": 948.0854722839382,
        "walking_time": "약 15분"
      },
      {
        "fitness_lat": 37.63119377,
        "fitness_lon": 127.0246782,
        "fitness_type": "운동시설",
        "fitness_name": "드로우짐",
        "distance": 979.3903362844164,
        "walking_time": "약 15분"
      },
      {
        "fitness_lat": 37.61997798,
        "fitness_lon": 127.0206707,
        "fitness_type": "운동시설",
        "fitness_name": "현대 휘트니스",
        "distance": 998.9926854474896,
        "walking_time": "약 15분"
      },
      {
        "fitness_lat": 37.63375808,
        "fitness_lon": 127.0228016,
        "fitness_type": "운동시설",
        "fitness_name": "빌리프짐 수유점",
        "distance": 1002.2729752908092,
        "walking_time": "약 15분"
      },
      {
        "fitness_lat": 37.63434592,
        "fitness_lon": 127.0221609,
        "fitness_type": "운동시설",
        "fitness_name": "알앤엘",
        "distance": 1010.1393525609834,
        "walking_time": "약 16분"
      }
    ],
    "gas_station": [
      {
        "gas_station_lat": 37.63168864,
        "gas_station_lon": 127.0179188,
        "gas_station_type": "주유소",
        "gas_station_name": "㈜석산에너지",
        "distance": 547.7143855953381,
        "walking_time": "약 9분"
      },
      {
        "gas_station_lat": 37.62276536,
        "gas_station_lon": 127.0190864,
        "gas_station_type": "주유소",
        "gas_station_name": "SK에너지㈜ 매일주유소",
        "distance": 664.5695631613943,
        "walking_time": "약 10분"
      },
      {
        "gas_station_lat": 37.63619154,
        "gas_station_lon": 127.0127663,
        "gas_station_type": "주유소",
        "gas_station_name": "㈜서울에너지 시민주유소",
        "distance": 974.2829675982094,
        "walking_time": "약 15분"
      },
      {
        "gas_station_lat": 37.62652601,
        "gas_station_lon": 127.0264596,
        "gas_station_type": "주유소",
        "gas_station_name": "씨앤에스에너지㈜ 미아셀프주유소",
        "distance": 1054.414759250245,
        "walking_time": "약 16분"
      },
      {
        "gas_station_lat": 37.62012056,
        "gas_station_lon": 127.0289845,
        "gas_station_type": "주유소",
        "gas_station_name": "㈜지에스이엔알 미아주유소",
        "distance": 1515.350401618641,
        "walking_time": "약 23분"
      },
      {
        "gas_station_lat": 37.61032711,
        "gas_station_lon": 127.0227433,
        "gas_station_type": "주유소",
        "gas_station_name": "㈜재건에너지재정제2주유소(길음지점)",
        "distance": 2045.840882923922,
        "walking_time": "약 31분"
      }
    ],
    "hospital": [
      {
        "hospital_lat": 37.62955037,
        "hospital_lon": 127.0170368,
        "hospital_type": "병원",
        "hospital_name": "강북삼성의원",
        "distance": 312.17432071376936,
        "walking_time": "약 5분"
      },
      {
        "hospital_lat": 37.62615882,
        "hospital_lon": 127.0180293,
        "hospital_type": "병원",
        "hospital_name": "현대정형외과의원",
        "distance": 342.52296283702105,
        "walking_time": "약 6분"
      },
      {
        "hospital_lat": 37.62551826,
        "hospital_lon": 127.017747,
        "hospital_type": "병원",
        "hospital_name": "미래소아청소년과의원",
        "distance": 360.2250916131777,
        "walking_time": "약 6분"
      },
      {
        "hospital_lat": 37.62641978,
        "hospital_lon": 127.0184277,
        "hospital_type": "병원",
        "hospital_name": "서울더블유W내과의원",
        "distance": 363.1990969621711,
        "walking_time": "약 6분"
      },
      {
        "hospital_lat": 37.62641978,
        "hospital_lon": 127.0184277,
        "hospital_type": "병원",
        "hospital_name": "아산탑마취통증의학과의원",
        "distance": 363.1990969621711,
        "walking_time": "약 6분"
      },
      {
        "hospital_lat": 37.62972317,
        "hospital_lon": 127.0177006,
        "hospital_type": "병원",
        "hospital_name": "길치과의원",
        "distance": 367.900466529681,
        "walking_time": "약 6분"
      },
      {
        "hospital_lat": 37.62967861,
        "hospital_lon": 127.0180891,
        "hospital_type": "병원",
        "hospital_name": "김승만내과의원",
        "distance": 391.2734514903887,
        "walking_time": "약 6분"
      },
      {
        "hospital_lat": 37.62511656,
        "hospital_lon": 127.0180362,
        "hospital_type": "병원",
        "hospital_name": "으뜸연합의원",
        "distance": 408.4773701899307,
        "walking_time": "약 7분"
      },
      {
        "hospital_lat": 37.62511656,
        "hospital_lon": 127.0180362,
        "hospital_type": "병원",
        "hospital_name": "365메디의원",
        "distance": 408.4773701899307,
        "walking_time": "약 7분"
      },
      {
        "hospital_lat": 37.62511656,
        "hospital_lon": 127.0180362,
        "hospital_type": "병원",
        "hospital_name": "연세뉴욕치과의원",
        "distance": 408.4773701899307,
        "walking_time": "약 7분"
      }
    ],
    "music_room": [
      {
        "music_room_lat": 37.62964732,
        "music_room_lon": 127.0163512,
        "music_room_type": "노래방",
        "music_room_name": "씽씽노래방",
        "distance": 282.2070198260884,
        "walking_time": "약 5분"
      },
      {
        "music_room_lat": 37.62967861,
        "music_room_lon": 127.0180891,
        "music_room_type": "노래방",
        "music_room_name": "삼성 노래연습장",
        "distance": 391.2734514903887,
        "walking_time": "약 6분"
      },
      {
        "music_room_lat": 37.62498976,
        "music_room_lon": 127.0188184,
        "music_room_type": "노래방",
        "music_room_name": "대성 노래방",
        "distance": 470.785461025846,
        "walking_time": "약 8분"
      },
      {
        "music_room_lat": 37.6311918,
        "music_room_lon": 127.0175488,
        "music_room_type": "노래방",
        "music_room_name": "MBC노래연습장",
        "distance": 483.62931381352,
        "walking_time": "약 8분"
      },
      {
        "music_room_lat": 37.62478521,
        "music_room_lon": 127.0189729,
        "music_room_type": "노래방",
        "music_room_name": "조이903코인노래연습장",
        "distance": 495.4613780896922,
        "walking_time": "약 8분"
      },
      {
        "music_room_lat": 37.62478521,
        "music_room_lon": 127.0189729,
        "music_room_type": "노래방",
        "music_room_name": "카스노래연습장",
        "distance": 495.4613780896922,
        "walking_time": "약 8분"
      },
      {
        "music_room_lat": 37.62474667,
        "music_room_lon": 127.0204405,
        "music_room_type": "노래방",
        "music_room_name": "MS노래연습장",
        "distance": 604.4724900492836,
        "walking_time": "약 10분"
      },
      {
        "music_room_lat": 37.62506993,
        "music_room_lon": 127.0210222,
        "music_room_type": "노래방",
        "music_room_name": "뉴mbc",
        "distance": 632.479201582835,
        "walking_time": "약 10분"
      },
      {
        "music_room_lat": 37.62498757,
        "music_room_lon": 127.0216181,
        "music_room_type": "노래방",
        "music_room_name": "청개구리노래연습장",
        "distance": 683.8707172864268,
        "walking_time": "약 11분"
      },
      {
        "music_room_lat": 37.62531058,
        "music_room_lon": 127.0220655,
        "music_room_type": "노래방",
        "music_room_name": "비트코인 노래연습장",
        "distance": 706.472050888617,
        "walking_time": "약 11분"
      }
    ],
    "park": [
      {
        "park_lat": 37.624549,
        "park_lon": 127.000938,
        "park_type": "공원",
        "park_name": "북한산국립공원",
        "distance": 1244.7161107643528,
        "walking_time": "약 19분"
      }
    ],
    "park_station": [
      {
        "park_station_lat": 37.6261816,
        "park_station_lon": 127.013414,
        "park_station_type": "주차장",
        "park_station_name": "구세군길 공영주차장",
        "distance": 181.929372849076,
        "walking_time": "약 3분"
      },
      {
        "park_station_lat": 37.62586444,
        "park_station_lon": 127.015711,
        "park_station_type": "주차장",
        "park_station_name": "삼양시장길 공영주차장",
        "distance": 212.75976685750445,
        "walking_time": "약 4분"
      },
      {
        "park_station_lat": 37.62796302,
        "park_station_lon": 127.0169758,
        "park_station_type": "주차장",
        "park_station_name": "은혜공영주차장",
        "distance": 218.11181096719656,
        "walking_time": "약 4분"
      },
      {
        "park_station_lat": 37.624715,
        "park_station_lon": 127.0154166,
        "park_station_type": "주차장",
        "park_station_name": "청암공영주차장",
        "distance": 323.68010940109724,
        "walking_time": "약 5분"
      },
      {
        "park_station_lat": 37.63058834,
        "park_station_lon": 127.0174271,
        "park_station_type": "주차장",
        "park_station_name": "수유일공원공영주차장",
        "distance": 422.4284795852406,
        "walking_time": "약 7분"
      },
      {
        "park_station_lat": 37.6239863,
        "park_station_lon": 127.0195309,
        "park_station_type": "주차장",
        "park_station_name": "냉천길 공영주차장",
        "distance": 590.3758773974902,
        "walking_time": "약 9분"
      },
      {
        "park_station_lat": 37.62273168,
        "park_station_lon": 127.0184011,
        "park_station_type": "주차장",
        "park_station_name": "삼양마을공원지하공영주차장",
        "distance": 633.3478986011224,
        "walking_time": "약 10분"
      },
      {
        "park_station_lat": 37.6285611,
        "park_station_lon": 127.0223422,
        "park_station_type": "주차장",
        "park_station_name": "미아동공영주차장",
        "distance": 694.9407193225859,
        "walking_time": "약 11분"
      },
      {
        "park_station_lat": 37.63315887,
        "park_station_lon": 127.0206486,
        "park_station_type": "주차장",
        "park_station_name": "색동공원공영주차장",
        "distance": 823.12380770452,
        "walking_time": "약 13분"
      },
      {
        "park_station_lat": 37.63204805,
        "park_station_lon": 127.023555,
        "park_station_type": "주차장",
        "park_station_name": "수유동쌈지마당공영주차장",
        "distance": 937.4134030336002,
        "walking_time": "약 14분"
      }
    ],
    "pc_room": [
      {
        "pc_room_lat": 37.6273754451897,
        "pc_room_lon": 127.017884900854,
        "pc_room_type": "PC방",
        "pc_room_name": "사이브보이즈",
        "distance": 293.7688135953524,
        "walking_time": "약 5분"
      },
      {
        "pc_room_lat": 37.626734560931,
        "pc_room_lon": 127.017966762994,
        "pc_room_type": "PC방",
        "pc_room_name": "짱PC방",
        "distance": 313.60073143035845,
        "walking_time": "약 5분"
      },
      {
        "pc_room_lat": 37.6296952731454,
        "pc_room_lon": 127.016878572118,
        "pc_room_type": "PC방",
        "pc_room_name": "아이지존",
        "distance": 314.6486458226903,
        "walking_time": "약 5분"
      },
      {
        "pc_room_lat": 37.6296952731454,
        "pc_room_lon": 127.016878572118,
        "pc_room_type": "PC방",
        "pc_room_name": "웹시티 PC방",
        "distance": 314.6486458226903,
        "walking_time": "약 5분"
      },
      {
        "pc_room_lat": 37.6298058058402,
        "pc_room_lon": 127.01700615717,
        "pc_room_type": "PC방",
        "pc_room_name": "I.F.O",
        "distance": 331.292363511041,
        "walking_time": "약 5분"
      },
      {
        "pc_room_lat": 37.6301248364014,
        "pc_room_lon": 127.017066158424,
        "pc_room_type": "PC방",
        "pc_room_name": "블리자드",
        "distance": 362.1560172730624,
        "walking_time": "약 6분"
      },
      {
        "pc_room_lat": 37.6264197751681,
        "pc_room_lon": 127.018427740397,
        "pc_room_type": "PC방",
        "pc_room_name": "인터넷유니버스",
        "distance": 363.2026219253507,
        "walking_time": "약 6분"
      },
      {
        "pc_room_lat": 37.6294756976145,
        "pc_room_lon": 127.018128174988,
        "pc_room_type": "PC방",
        "pc_room_name": "인터스페이스",
        "distance": 380.85634026333366,
        "walking_time": "약 6분"
      },
      {
        "pc_room_lat": 37.6309623714762,
        "pc_room_lon": 127.016586123075,
        "pc_room_type": "PC방",
        "pc_room_name": "허브PC",
        "distance": 419.9502778379788,
        "walking_time": "약 7분"
      },
      {
        "pc_room_lat": 37.6254230679383,
        "pc_room_lon": 127.018654166348,
        "pc_room_type": "PC방",
        "pc_room_name": "제로100 삼양역점",
        "distance": 431.1965837416448,
        "walking_time": "약 7분"
      }
    ],
    "police_office": [
      {
        "police_office_lat": 37.63067544,
        "police_office_lon": 127.0175813,
        "police_office_type": "경찰소",
        "police_office_name": "수유1파출소",
        "distance": 438.3443666899297,
        "walking_time": "약 7분"
      },
      {
        "police_office_lat": 37.624832,
        "police_office_lon": 127.0181776,
        "police_office_type": "경찰소",
        "police_office_name": "삼양파출소",
        "distance": 439.0126810988794,
        "walking_time": "약 7분"
      },
      {
        "police_office_lat": 37.63943981,
        "police_office_lon": 127.012404,
        "police_office_type": "경찰소",
        "police_office_name": "인수파출소",
        "distance": 1336.1491514654886,
        "walking_time": "약 20분"
      },
      {
        "police_office_lat": 37.61607297,
        "police_office_lon": 127.0086028,
        "police_office_type": "경찰소",
        "police_office_name": "정릉파출소",
        "distance": 1379.1815536836966,
        "walking_time": "약 21분"
      },
      {
        "police_office_lat": 37.62015534,
        "police_office_lon": 127.0282649,
        "police_office_type": "경찰소",
        "police_office_name": "미아지구대",
        "distance": 1460.433779630516,
        "walking_time": "약 22분"
      },
      {
        "police_office_lat": 37.6106064,
        "police_office_lon": 127.0192657,
        "police_office_type": "경찰소",
        "police_office_name": "길음지구대",
        "distance": 1928.6237457396664,
        "walking_time": "약 29분"
      }
    ],
    "post_office": [
      {
        "post_office_lat": 37.62387269,
        "post_office_lon": 127.0183655,
        "post_office_type": "우체국",
        "post_office_name": "서울삼양동우체국",
        "distance": 528.4890379522309,
        "walking_time": "약 8분"
      },
      {
        "post_office_lat": 37.63560227,
        "post_office_lon": 127.0200628,
        "post_office_type": "우체국",
        "post_office_name": "서울인수동우편취급국",
        "distance": 1018.7484791397472,
        "walking_time": "약 16분"
      },
      {
        "post_office_lat": 37.62402918,
        "post_office_lon": 127.0284335,
        "post_office_type": "우체국",
        "post_office_name": "서울강북우체국",
        "distance": 1283.1682238335816,
        "walking_time": "약 20분"
      },
      {
        "post_office_lat": 37.61541478,
        "post_office_lon": 127.0135658,
        "post_office_type": "우체국",
        "post_office_name": "서경대학교우편취급국",
        "distance": 1351.6353342107122,
        "walking_time": "약 21분"
      },
      {
        "post_office_lat": 37.61574067,
        "post_office_lon": 127.0193672,
        "post_office_type": "우체국",
        "post_office_name": "서울삼각산동우편취급국",
        "distance": 1379.2835760797198,
        "walking_time": "약 21분"
      },
      {
        "post_office_lat": 37.61549556,
        "post_office_lon": 127.0295676,
        "post_office_type": "우체국",
        "post_office_name": "서울송천동우체국",
        "distance": 1882.3279419555647,
        "walking_time": "약 29분"
      }
    ],
    "school": [
      {
        "school_lat": 37.6313084157842,
        "school_lon": 127.013212021303,
        "school_type": "고등학교",
        "school_name": "혜화여자고등학교",
        "distance": 434.88794714654745,
        "walking_time": "약 7분"
      },
      {
        "school_lat": 37.6237648476803,
        "school_lon": 127.012068855446,
        "school_type": "고등학교",
        "school_name": "솔샘고등학교",
        "distance": 473.9812943371263,
        "walking_time": "약 8분"
      },
      {
        "school_lat": 37.6237648476803,
        "school_lon": 127.012068855446,
        "school_type": "중학교",
        "school_name": "솔샘중학교",
        "distance": 473.9812943371263,
        "walking_time": "약 8분"
      },
      {
        "school_lat": 37.6232955761621,
        "school_lon": 127.016149099325,
        "school_type": "초등학교",
        "school_name": "서울삼양초등학교",
        "distance": 492.904084594606,
        "walking_time": "약 8분"
      },
      {
        "school_lat": 37.6312894231046,
        "school_lon": 127.010319655123,
        "school_type": "중학교",
        "school_name": "수유중학교",
        "distance": 559.0495348542147,
        "walking_time": "약 9분"
      },
      {
        "school_lat": 37.632286451855,
        "school_lon": 127.011327052457,
        "school_type": "초등학교",
        "school_name": "서울유현초등학교",
        "distance": 599.0177590179931,
        "walking_time": "약 9분"
      },
      {
        "school_lat": 37.631249657314,
        "school_lon": 127.020292410668,
        "school_type": "초등학교",
        "school_name": "서울수유초등학교",
        "distance": 651.8362389304498,
        "walking_time": "약 10분"
      },
      {
        "school_lat": 37.6215324222942,
        "school_lon": 127.014133356491,
        "school_type": "초등학교",
        "school_name": "서울미양초등학교",
        "distance": 669.6034886055045,
        "walking_time": "약 10분"
      },
      {
        "school_lat": 37.6325180593561,
        "school_lon": 127.009709077901,
        "school_type": "중학교",
        "school_name": "화계중학교",
        "distance": 698.5509985008293,
        "walking_time": "약 11분"
      },
      {
        "school_lat": 37.6204135324231,
        "school_lon": 127.023905892641,
        "school_type": "고등학교",
        "school_name": "성암국제무역고등학교",
        "distance": 1143.191442897088,
        "walking_time": "약 18분"
      }
    ],
    "self_laundromat": [
      {
        "self_laundromat_lat": 37.61378022,
        "self_laundromat_lon": 127.0098463,
        "self_laundromat_type": "셀프 빨래방",
        "self_laundromat_name": "크린업24 정릉점",
        "distance": 1585.7859585778242,
        "walking_time": "약 24분"
      },
      {
        "self_laundromat_lat": 37.61378022,
        "self_laundromat_lon": 127.0098463,
        "self_laundromat_type": "셀프 빨래방",
        "self_laundromat_name": "크린업24 정릉점",
        "distance": 1585.7859585778242,
        "walking_time": "약 24분"
      },
      {
        "self_laundromat_lat": 37.61702101,
        "self_laundromat_lon": 127.0023565,
        "self_laundromat_type": "셀프 빨래방",
        "self_laundromat_name": "크린토피아 코인워시 정릉청수점",
        "distance": 1588.652208170992,
        "walking_time": "약 24분"
      },
      {
        "self_laundromat_lat": 37.61702101,
        "self_laundromat_lon": 127.0023565,
        "self_laundromat_type": "셀프 빨래방",
        "self_laundromat_name": "크린토피아 코인워시 정릉청수점",
        "distance": 1588.652208170992,
        "walking_time": "약 24분"
      },
      {
        "self_laundromat_lat": 37.61204275,
        "self_laundromat_lon": 127.013505,
        "self_laundromat_type": "셀프 빨래방",
        "self_laundromat_name": "코인워시24빨래터 서경대점",
        "distance": 1726.255197593232,
        "walking_time": "약 26분"
      },
      {
        "self_laundromat_lat": 37.61204275,
        "self_laundromat_lon": 127.013505,
        "self_laundromat_type": "셀프 빨래방",
        "self_laundromat_name": "코인워시24빨래터 서경대점",
        "distance": 1726.255197593232,
        "walking_time": "약 26분"
      },
      {
        "self_laundromat_lat": 37.61146281,
        "self_laundromat_lon": 127.009529,
        "self_laundromat_type": "셀프 빨래방",
        "self_laundromat_name": "크린토피아 코인워시 서경대점",
        "distance": 1842.25374567584,
        "walking_time": "약 28분"
      },
      {
        "self_laundromat_lat": 37.61146281,
        "self_laundromat_lon": 127.009529,
        "self_laundromat_type": "셀프 빨래방",
        "self_laundromat_name": "크린토피아 코인워시 서경대점",
        "distance": 1842.25374567584,
        "walking_time": "약 28분"
      }
    ],
    "subway": [
      {
        "subway_lat": 37.6264436445109,
        "subway_lon": 127.026103434413,
        "subway_type": "지하철",
        "subway_name": "4호선-미아(서울사이버대학)역",
        "distance": 1024.290827939037,
        "walking_time": "약 16분"
      },
      {
        "subway_lat": 37.6377452337445,
        "subway_lon": 127.025356901379,
        "subway_type": "지하철",
        "subway_name": "4호선-수유(강북구청)역",
        "distance": 1480.2309132153844,
        "walking_time": "약 23분"
      }
    ],
    "supermarket": [
      {
        "supermarket_lat": 37.62551826,
        "supermarket_lon": 127.017747,
        "supermarket_type": "마트",
        "supermarket_name": "롯데쇼핑(주) 롯데마트 삼양점",
        "distance": 360.2250916131777,
        "walking_time": "약 6분"
      },
      {
        "supermarket_lat": 37.63072891,
        "supermarket_lon": 127.0226681,
        "supermarket_type": "마트",
        "supermarket_name": "수유시장",
        "distance": 797.2991067890947,
        "walking_time": "약 12분"
      },
      {
        "supermarket_lat": 37.63153004,
        "supermarket_lon": 127.0223303,
        "supermarket_type": "마트",
        "supermarket_name": "수유재래시장",
        "distance": 815.5207771218245,
        "walking_time": "약 13분"
      },
      {
        "supermarket_lat": 37.62042225,
        "supermarket_lon": 127.0190955,
        "supermarket_type": "마트",
        "supermarket_name": "동북프라자",
        "distance": 887.1986004232357,
        "walking_time": "약 14분"
      },
      {
        "supermarket_lat": 37.62042225,
        "supermarket_lon": 127.0190955,
        "supermarket_type": "마트",
        "supermarket_name": "동북시장",
        "distance": 887.1986004232357,
        "walking_time": "약 14분"
      },
      {
        "supermarket_lat": 37.63169253,
        "supermarket_lon": 127.0234675,
        "supermarket_type": "마트",
        "supermarket_name": "수유프라자",
        "distance": 910.2567445869664,
        "walking_time": "약 14분"
      },
      {
        "supermarket_lat": 37.63169253,
        "supermarket_lon": 127.0234675,
        "supermarket_type": "마트",
        "supermarket_name": "수유프라자",
        "distance": 910.2567445869664,
        "walking_time": "약 14분"
      },
      {
        "supermarket_lat": 37.63643484,
        "supermarket_lon": 127.016122,
        "supermarket_type": "마트",
        "supermarket_name": "수유북부시장",
        "distance": 998.0779511886484,
        "walking_time": "약 15분"
      },
      {
        "supermarket_lat": 37.61797663,
        "supermarket_lon": 127.0189343,
        "supermarket_type": "마트",
        "supermarket_name": "(주)지에스리테일GS수퍼 강북미아점",
        "distance": 1131.6753062068733,
        "walking_time": "약 17분"
      },
      {
        "supermarket_lat": 37.62422062,
        "supermarket_lon": 127.027362,
        "supermarket_type": "마트",
        "supermarket_name": "홈플러스(주)익스프레스미아점",
        "distance": 1186.8329236086518,
        "walking_time": "약 18분"
      }
    ],
    "tax_office": [
      {
        "tax_office_lat": 37.61975323,
        "tax_office_lon": 127.0282467,
        "tax_office_type": "세무서",
        "tax_office_name": "도봉세무서",
        "distance": 1484.751166920427,
        "walking_time": "약 23분"
      }
    ],
    "theater": [
      {
        "theater_lat": 37.6356640949861,
        "theater_lon": 127.02383520999,
        "theater_type": "영화관",
        "theater_name": "(주)써니트 롯데시네마 수유",
        "distance": 1217.6888505479585,
        "walking_time": "약 19분"
      }
    ],
    "university": [
      {
        "university_lat": 37.629843917766,
        "university_lon": 127.027123065417,
        "university_type": "대학교",
        "university_name": "서울사이버대학교",
        "distance": 1135.8523839904765,
        "walking_time": "약 17분"
      },
      {
        "university_lat": 37.6154147804327,
        "university_lon": 127.013565764354,
        "university_type": "대학교",
        "university_name": "서경대학교",
        "distance": 1351.635488763882,
        "walking_time": "약 21분"
      }
    ]
  }
}