{
  "클러스터_위도": 37.53915833343164,
  "클러스터_경도": 127.08420466584536,
  "클러스터_level": 4.0,
  "facilities": {
    "bus": [
      {
        "bus_lat": 37.53896485,
        "bus_lon": 127.0834074,
        "bus_type": "버스정류장",
        "bus_name": "광진구청",
        "distance": 73.51410515630394,
        "walking_time": "약 2분"
      },
      {
        "bus_lat": 37.53876278,
        "bus_lon": 127.0831892,
        "bus_type": "버스정류장",
        "bus_name": "광진구청",
        "distance": 99.75454678456585,
        "walking_time": "약 2분"
      },
      {
        "bus_lat": 37.53692986,
        "bus_lon": 127.0847883,
        "bus_type": "버스정류장",
        "bus_name": "구의역1번출구",
        "distance": 253.08195789995904,
        "walking_time": "약 4분"
      },
      {
        "bus_lat": 37.54153366,
        "bus_lon": 127.0836883,
        "bus_type": "버스정류장",
        "bus_name": "광진경찰서",
        "distance": 268.01937356855564,
        "walking_time": "약 5분"
      },
      {
        "bus_lat": 37.53665431,
        "bus_lon": 127.0848371,
        "bus_type": "버스정류장",
        "bus_name": "구의역4번출구",
        "distance": 283.9637266410895,
        "walking_time": "약 5분"
      },
      {
        "bus_lat": 37.53693378,
        "bus_lon": 127.0824321,
        "bus_type": "버스정류장",
        "bus_name": "자양사거리",
        "distance": 292.5973705840353,
        "walking_time": "약 5분"
      },
      {
        "bus_lat": 37.5367503,
        "bus_lon": 127.0821045,
        "bus_type": "버스정류장",
        "bus_name": "자양사거리",
        "distance": 325.555060796282,
        "walking_time": "약 5분"
      },
      {
        "bus_lat": 37.54221011,
        "bus_lon": 127.0842427,
        "bus_type": "버스정류장",
        "bus_name": "광진경찰서",
        "distance": 339.35864075379857,
        "walking_time": "약 6분"
      },
      {
        "bus_lat": 37.54234688,
        "bus_lon": 127.0843546,
        "bus_type": "버스정류장",
        "bus_name": "광진경찰서앞",
        "distance": 354.7965624610781,
        "walking_time": "약 6분"
      },
      {
        "bus_lat": 37.53770269,
        "bus_lon": 127.0879773,
        "bus_type": "버스정류장",
        "bus_name": "구의역2번출구",
        "distance": 369.9285749931885,
        "walking_time": "약 6분"
      }
    ],
    "community_center": [
      {
        "community_center_lat": 37.54241324,
        "community_center_lon": 127.0856773,
        "community_center_type": "주민센터",
        "community_center_name": "구의1동 자치회관",
        "distance": 384.5141649878784,
        "walking_time": "약 6분"
      },
      {
        "community_center_lat": 37.53449795,
        "community_center_lon": 127.0823949,
        "community_center_type": "주민센터",
        "community_center_name": "자양1동 자치회관",
        "distance": 542.2233921954063,
        "walking_time": "약 9분"
      },
      {
        "community_center_lat": 37.53799342,
        "community_center_lon": 127.0919847,
        "community_center_type": "주민센터",
        "community_center_name": "구의3동 자치회관",
        "distance": 698.0981678414465,
        "walking_time": "약 11분"
      },
      {
        "community_center_lat": 37.5471696,
        "community_center_lon": 127.089934,
        "community_center_type": "주민센터",
        "community_center_name": "구의2동 자치회관",
        "distance": 1024.062643589118,
        "walking_time": "약 16분"
      },
      {
        "community_center_lat": 37.52879933,
        "community_center_lon": 127.0843875,
        "community_center_type": "주민센터",
        "community_center_name": "자양2동 자치회관",
        "distance": 1151.9814420411303,
        "walking_time": "약 18분"
      },
      {
        "community_center_lat": 37.53383394,
        "community_center_lon": 127.0729024,
        "community_center_type": "주민센터",
        "community_center_name": "자양3동 자치회관",
        "distance": 1159.1616023710856,
        "walking_time": "약 18분"
      },
      {
        "community_center_lat": 37.54652678,
        "community_center_lon": 127.0712676,
        "community_center_type": "주민센터",
        "community_center_name": "화양동 자치회관",
        "distance": 1404.3875357825548,
        "walking_time": "약 21분"
      }
    ],
    "convenience_store": [
      {
        "convenience_store_lat": 37.53890996,
        "convenience_store_lon": 127.0848229,
        "convenience_store_type": "편의점",
        "convenience_store_name": "GS25 구의점",
        "distance": 61.107312687855774,
        "walking_time": "약 1분"
      },
      {
        "convenience_store_lat": 37.53974135,
        "convenience_store_lon": 127.0850211,
        "convenience_store_type": "편의점",
        "convenience_store_name": "미니스톱 구의명성점",
        "distance": 96.87414797909577,
        "walking_time": "약 2분"
      },
      {
        "convenience_store_lat": 37.53824698,
        "convenience_store_lon": 127.0838518,
        "convenience_store_type": "편의점",
        "convenience_store_name": "CU 광진웰츠점",
        "distance": 106.00640539913611,
        "walking_time": "약 2분"
      },
      {
        "convenience_store_lat": 37.53929477,
        "convenience_store_lon": 127.0829295,
        "convenience_store_type": "편의점",
        "convenience_store_name": "CU 광진구청점",
        "distance": 113.4509516663208,
        "walking_time": "약 2분"
      },
      {
        "convenience_store_lat": 37.54043584,
        "convenience_store_lon": 127.0836372,
        "convenience_store_type": "편의점",
        "convenience_store_name": "이마트24 위드미광진구의점",
        "distance": 150.6060396444491,
        "walking_time": "약 3분"
      },
      {
        "convenience_store_lat": 37.53769093,
        "convenience_store_lon": 127.084294,
        "convenience_store_type": "편의점",
        "convenience_store_name": "CU 광진구의점",
        "distance": 163.3578257503916,
        "walking_time": "약 3분"
      },
      {
        "convenience_store_lat": 37.54124504,
        "convenience_store_lon": 127.0840042,
        "convenience_store_type": "편의점",
        "convenience_store_name": "CU 구의솔렌시아점",
        "distance": 232.70340321681223,
        "walking_time": "약 4분"
      },
      {
        "convenience_store_lat": 37.53736761,
        "convenience_store_lon": 127.0825655,
        "convenience_store_type": "편의점",
        "convenience_store_name": "GS25 자양타워점",
        "distance": 246.0423667170544,
        "walking_time": "약 4분"
      },
      {
        "convenience_store_lat": 37.53756345,
        "convenience_store_lon": 127.0863865,
        "convenience_store_type": "편의점",
        "convenience_store_name": "GS25 구의법원점",
        "distance": 261.64653627027263,
        "walking_time": "약 4분"
      },
      {
        "convenience_store_lat": 37.53837209,
        "convenience_store_lon": 127.0871315,
        "convenience_store_type": "편의점",
        "convenience_store_name": "GS25 구의점",
        "distance": 272.46902198905474,
        "walking_time": "약 5분"
      }
    ],
    "daycare": [
      {
        "daycare_lat": 37.53964456531301,
        "daycare_lon": 127.0834502087732,
        "daycare_type": "어린이집",
        "daycare_name": "꿈나무어린이집",
        "distance": 85.72159779068907,
        "walking_time": "약 2분"
      },
      {
        "daycare_lat": 37.53959618658579,
        "daycare_lon": 127.08562260618568,
        "daycare_type": "어린이집",
        "daycare_name": "신사임당어린이집",
        "distance": 134.1659196442415,
        "walking_time": "약 3분"
      },
      {
        "daycare_lat": 37.53872654013966,
        "daycare_lon": 127.08201449858753,
        "daycare_type": "어린이집",
        "daycare_name": "광진구청직장어린이집",
        "distance": 198.98821641644267,
        "walking_time": "약 3분"
      },
      {
        "daycare_lat": 37.540082217219975,
        "daycare_lon": 127.0863292,
        "daycare_type": "어린이집",
        "daycare_name": "구립 명성어린이집",
        "distance": 213.64122980164456,
        "walking_time": "약 4분"
      },
      {
        "daycare_lat": 37.54099739,
        "daycare_lon": 127.08665158717898,
        "daycare_type": "어린이집",
        "daycare_name": "리틀지니어스어린이집",
        "distance": 297.2593037472213,
        "walking_time": "약 5분"
      },
      {
        "daycare_lat": 37.54193216,
        "daycare_lon": 127.08476980095509,
        "daycare_type": "어린이집",
        "daycare_name": "어린이나라어린이집",
        "distance": 312.4342940142135,
        "walking_time": "약 5분"
      },
      {
        "daycare_lat": 37.53611,
        "daycare_lon": 127.08285,
        "daycare_type": "어린이집",
        "daycare_name": "행복어린이집",
        "distance": 359.38871030602195,
        "walking_time": "약 6분"
      },
      {
        "daycare_lat": 37.53831329779885,
        "daycare_lon": 127.08021276179888,
        "daycare_type": "어린이집",
        "daycare_name": "햇살가득어린이집",
        "distance": 364.2971394960036,
        "walking_time": "약 6분"
      },
      {
        "daycare_lat": 37.540026414038046,
        "daycare_lon": 127.08872337483515,
        "daycare_type": "어린이집",
        "daycare_name": "또래어린이집",
        "distance": 409.9411189940398,
        "walking_time": "약 7분"
      },
      {
        "daycare_lat": 37.53567044212679,
        "daycare_lon": 127.08191164834594,
        "daycare_type": "어린이집",
        "daycare_name": "사임당어린이집",
        "distance": 437.3716352555058,
        "walking_time": "약 7분"
      }
    ],
    "education": [
      {
        "education_lat": 37.53799342,
        "education_lon": 127.0919847,
        "education_type": "도서관",
        "education_name": "구의제3동도서관",
        "distance": 698.0981678414465,
        "walking_time": "약 11분"
      },
      {
        "education_lat": 37.53918267,
        "education_lon": 127.0747119,
        "education_type": "공연장",
        "education_name": "건국대학교 새천년관대공연장",
        "distance": 836.9869355169285,
        "walking_time": "약 13분"
      },
      {
        "education_lat": 37.54240517067264,
        "education_lon": 127.07559228463867,
        "education_type": "박물관/기념관",
        "education_name": "건국대학교 박물관",
        "distance": 840.7998946860329,
        "walking_time": "약 13분"
      },
      {
        "education_lat": 37.53757063,
        "education_lon": 127.070576,
        "education_type": "문화예술회관",
        "education_name": "나루아트센터",
        "distance": 1214.559685419872,
        "walking_time": "약 19분"
      },
      {
        "education_lat": 37.52921552,
        "education_lon": 127.077668,
        "education_type": "도서관",
        "education_name": "자양한강도서관",
        "distance": 1246.813590180563,
        "walking_time": "약 19분"
      },
      {
        "education_lat": 37.54554942,
        "education_lon": 127.0982047,
        "education_type": "문화원",
        "education_name": "몽골 울란바타르 문화진흥원",
        "distance": 1424.297537462441,
        "walking_time": "약 22분"
      }
    ],
    "fitness": [
      {
        "fitness_lat": 37.53949647,
        "fitness_lon": 127.0847509,
        "fitness_type": "운동시설",
        "fitness_name": "나우휘트니스",
        "distance": 61.100221229953945,
        "walking_time": "약 1분"
      },
      {
        "fitness_lat": 37.53998922,
        "fitness_lon": 127.083494,
        "fitness_type": "운동시설",
        "fitness_name": "원더바디핏",
        "distance": 111.63418014567402,
        "walking_time": "약 2분"
      },
      {
        "fitness_lat": 37.53832361,
        "fitness_lon": 127.0851749,
        "fitness_type": "운동시설",
        "fitness_name": "짐유어짐",
        "distance": 126.22684543273392,
        "walking_time": "약 2분"
      },
      {
        "fitness_lat": 37.53788806,
        "fitness_lon": 127.0851804,
        "fitness_type": "운동시설",
        "fitness_name": "A's휘트니스여성헬스",
        "distance": 165.38577329563003,
        "walking_time": "약 3분"
      },
      {
        "fitness_lat": 37.53799505,
        "fitness_lon": 127.0853775,
        "fitness_type": "운동시설",
        "fitness_name": "몸가짐 휘트니스 구의점",
        "distance": 165.60622746080773,
        "walking_time": "약 3분"
      },
      {
        "fitness_lat": 37.53757691,
        "fitness_lon": 127.0838441,
        "fitness_type": "운동시설",
        "fitness_name": "도움pt",
        "distance": 178.69699568120302,
        "walking_time": "약 3분"
      },
      {
        "fitness_lat": 37.5374067,
        "fitness_lon": 127.0830999,
        "fitness_type": "운동시설",
        "fitness_name": "엠엔엠 피트니스골프",
        "distance": 217.77267128758243,
        "walking_time": "약 4분"
      },
      {
        "fitness_lat": 37.53701194,
        "fitness_lon": 127.0840327,
        "fitness_type": "운동시설",
        "fitness_name": "메트로헬스",
        "distance": 239.1492123835852,
        "walking_time": "약 4분"
      },
      {
        "fitness_lat": 37.53736761,
        "fitness_lon": 127.0825655,
        "fitness_type": "운동시설",
        "fitness_name": "맥 클라우드",
        "distance": 246.0423667170544,
        "walking_time": "약 4분"
      },
      {
        "fitness_lat": 37.5384268,
        "fitness_lon": 127.0873536,
        "fitness_type": "운동시설",
        "fitness_name": "Choi's Body Balance",
        "distance": 289.3151286985942,
        "walking_time": "약 5분"
      }
    ],
    "gas_station": [
      {
        "gas_station_lat": 37.53757602,
        "gas_station_lon": 127.0912437,
        "gas_station_type": "주유소",
        "gas_station_name": "동서울주유소",
        "distance": 645.0997004809418,
        "walking_time": "약 10분"
      },
      {
        "gas_station_lat": 37.54511911,
        "gas_station_lon": 127.0804396,
        "gas_station_type": "주유소",
        "gas_station_name": "㈜창원씨더블유",
        "distance": 741.2884533855976,
        "walking_time": "약 12분"
      },
      {
        "gas_station_lat": 37.53815181,
        "gas_station_lon": 127.075893,
        "gas_station_type": "주유소",
        "gas_station_name": "자양주유소",
        "distance": 741.3463091340249,
        "walking_time": "약 12분"
      },
      {
        "gas_station_lat": 37.53132018,
        "gas_station_lon": 127.0858548,
        "gas_station_type": "주유소",
        "gas_station_name": "현대오일뱅크㈜직영 장호셀프주유소",
        "distance": 883.6245831981005,
        "walking_time": "약 14분"
      }
    ],
    "hospital": [
      {
        "hospital_lat": 37.53895001,
        "hospital_lon": 127.0836235,
        "hospital_type": "병원",
        "hospital_name": "박태수치과의원",
        "distance": 56.2344807945729,
        "walking_time": "약 1분"
      },
      {
        "hospital_lat": 37.53895001,
        "hospital_lon": 127.0836235,
        "hospital_type": "병원",
        "hospital_name": "우영한의원",
        "distance": 56.2344807945729,
        "walking_time": "약 1분"
      },
      {
        "hospital_lat": 37.53895001,
        "hospital_lon": 127.0836235,
        "hospital_type": "병원",
        "hospital_name": "한마음의원",
        "distance": 56.2344807945729,
        "walking_time": "약 1분"
      },
      {
        "hospital_lat": 37.53824698,
        "hospital_lon": 127.0838518,
        "hospital_type": "병원",
        "hospital_name": "연세미플러스치과의원",
        "distance": 106.00640539913611,
        "walking_time": "약 2분"
      },
      {
        "hospital_lat": 37.53947769,
        "hospital_lon": 127.082907,
        "hospital_type": "병원",
        "hospital_name": "구길회마취통증의학과의원",
        "distance": 119.7997225285853,
        "walking_time": "약 2분"
      },
      {
        "hospital_lat": 37.53947769,
        "hospital_lon": 127.082907,
        "hospital_type": "병원",
        "hospital_name": "석성화한의원",
        "distance": 119.7997225285853,
        "walking_time": "약 2분"
      },
      {
        "hospital_lat": 37.53788806,
        "hospital_lon": 127.0851804,
        "hospital_type": "병원",
        "hospital_name": "공선식치과의원",
        "distance": 165.38577329563003,
        "walking_time": "약 3분"
      },
      {
        "hospital_lat": 37.53766948,
        "hospital_lon": 127.0836676,
        "hospital_type": "병원",
        "hospital_name": "연세푸름의원",
        "distance": 172.19224347460067,
        "walking_time": "약 3분"
      },
      {
        "hospital_lat": 37.53790044,
        "hospital_lon": 127.0829701,
        "hospital_type": "병원",
        "hospital_name": "동신한의원",
        "distance": 177.23724859027982,
        "walking_time": "약 3분"
      },
      {
        "hospital_lat": 37.53790044,
        "hospital_lon": 127.0829701,
        "hospital_type": "병원",
        "hospital_name": "이문원비뇨기과의원",
        "distance": 177.23724859027982,
        "walking_time": "약 3분"
      }
    ],
    "music_room": [
      {
        "music_room_lat": 37.53879285,
        "music_room_lon": 127.0848008,
        "music_room_type": "노래방",
        "music_room_name": "하하",
        "distance": 66.44039538000847,
        "walking_time": "약 1분"
      },
      {
        "music_room_lat": 37.5386887,
        "music_room_lon": 127.0847884,
        "music_room_type": "노래방",
        "music_room_name": "블랙홀",
        "distance": 73.32126567588949,
        "walking_time": "약 2분"
      },
      {
        "music_room_lat": 37.5392156,
        "music_room_lon": 127.0850474,
        "music_room_type": "노래방",
        "music_room_name": "하트 노래연습장",
        "distance": 74.57668658258926,
        "walking_time": "약 2분"
      },
      {
        "music_room_lat": 37.53954114,
        "music_room_lon": 127.0850265,
        "music_room_type": "노래방",
        "music_room_name": "띵가띵가 노래연습장",
        "distance": 84.03887781128462,
        "walking_time": "약 2분"
      },
      {
        "music_room_lat": 37.5385846,
        "music_room_lon": 127.0848311,
        "music_room_type": "노래방",
        "music_room_name": "연예인노래연습장",
        "distance": 84.3840980590173,
        "walking_time": "약 2분"
      },
      {
        "music_room_lat": 37.53846701,
        "music_room_lon": 127.0848429,
        "music_room_type": "노래방",
        "music_room_name": "풀잎노래연습장",
        "distance": 95.26796663949396,
        "walking_time": "약 2분"
      },
      {
        "music_room_lat": 37.53864042,
        "music_room_lon": 127.0851482,
        "music_room_type": "노래방",
        "music_room_name": "뱅뱅 노래연습장",
        "distance": 101.1804450331265,
        "walking_time": "약 2분"
      },
      {
        "music_room_lat": 37.53851168,
        "music_room_lon": 127.0851206,
        "music_room_type": "노래방",
        "music_room_name": "지인",
        "distance": 108.13071851651802,
        "walking_time": "약 2분"
      },
      {
        "music_room_lat": 37.53821049,
        "music_room_lon": 127.0848562,
        "music_room_type": "노래방",
        "music_room_name": "원.투.쓰리노래연습장",
        "distance": 120.034528224426,
        "walking_time": "약 2분"
      },
      {
        "music_room_lat": 37.53832361,
        "music_room_lon": 127.0851749,
        "music_room_type": "노래방",
        "music_room_name": "VIP",
        "distance": 126.22684543273392,
        "walking_time": "약 2분"
      }
    ],
    "park": [
      {
        "park_lat": 37.5498987,
        "park_lon": 127.0809212,
        "park_type": "공원",
        "park_name": "어린이대공원",
        "distance": 1228.8580740846082,
        "walking_time": "약 19분"
      }
    ],
    "park_station": [
      {
        "park_station_lat": 37.53827595,
        "park_station_lon": 127.087868,
        "park_station_type": "주차장",
        "park_station_name": "구의1동 공영주차장",
        "distance": 337.5736970266089,
        "walking_time": "약 6분"
      },
      {
        "park_station_lat": 37.53774586,
        "park_station_lon": 127.0773479,
        "park_station_type": "주차장",
        "park_station_name": "송림 기사식당길 공영주차장",
        "distance": 624.6387903880714,
        "walking_time": "약 10분"
      },
      {
        "park_station_lat": 37.53911547,
        "park_station_lon": 127.091361,
        "park_station_type": "주차장",
        "park_station_name": "구의3동 공영주차장",
        "distance": 630.9963358432501,
        "walking_time": "약 10분"
      },
      {
        "park_station_lat": 37.53379726,
        "park_station_lon": 127.0815891,
        "park_station_type": "주차장",
        "park_station_name": "자양전통시장 공영주차장",
        "distance": 639.1803888916767,
        "walking_time": "약 10분"
      },
      {
        "park_station_lat": 37.53789595,
        "park_station_lon": 127.0768344,
        "park_station_type": "주차장",
        "park_station_name": "송림 기사식당길 공영주차장",
        "distance": 664.8337503559012,
        "walking_time": "약 10분"
      },
      {
        "park_station_lat": 37.53714077,
        "park_station_lon": 127.0766272,
        "park_station_type": "주차장",
        "park_station_name": "송림기사식당길 공영주차장",
        "distance": 704.778113247804,
        "walking_time": "약 11분"
      },
      {
        "park_station_lat": 37.53522965,
        "park_station_lon": 127.0758119,
        "park_station_type": "주차장",
        "park_station_name": "송림 기사식당길 공영주차장",
        "distance": 859.3364680925005,
        "walking_time": "약 13분"
      },
      {
        "park_station_lat": 37.53379756,
        "park_station_lon": 127.0771189,
        "park_station_type": "주차장",
        "park_station_name": "송림 기사식당길 공영주차장",
        "distance": 863.5233078991461,
        "walking_time": "약 13분"
      },
      {
        "park_station_lat": 37.53351479,
        "park_station_lon": 127.0913148,
        "park_station_type": "주차장",
        "park_station_name": "동서울 노외주차장",
        "distance": 887.0385441236231,
        "walking_time": "약 14분"
      },
      {
        "park_station_lat": 37.53181536,
        "park_station_lon": 127.0918511,
        "park_station_type": "주차장",
        "park_station_name": "동서울 호텔길 공영주차장",
        "distance": 1058.891962833215,
        "walking_time": "약 16분"
      }
    ],
    "pc_room": [
      {
        "pc_room_lat": 37.5394964725263,
        "pc_room_lon": 127.084750927093,
        "pc_room_type": "PC방",
        "pc_room_name": "콤마 PC CAFE",
        "distance": 61.10227705589279,
        "walking_time": "약 1분"
      },
      {
        "pc_room_lat": 37.5388588365985,
        "pc_room_lon": 127.085124386664,
        "pc_room_type": "PC방",
        "pc_room_name": "마카오PC",
        "distance": 87.66441286655493,
        "walking_time": "약 2분"
      },
      {
        "pc_room_lat": 37.5397413502913,
        "pc_room_lon": 127.085021066015,
        "pc_room_type": "PC방",
        "pc_room_name": "아이넷 폴리스",
        "distance": 96.87194306335776,
        "walking_time": "약 2분"
      },
      {
        "pc_room_lat": 37.537235766975,
        "pc_room_lon": 127.084759909345,
        "pc_room_type": "PC방",
        "pc_room_name": "에코스PC방 구의점",
        "distance": 219.31369896079025,
        "walking_time": "약 4분"
      },
      {
        "pc_room_lat": 37.5383492759492,
        "pc_room_lon": 127.08679556141,
        "pc_room_type": "PC방",
        "pc_room_name": "고스트",
        "distance": 245.5180435413618,
        "walking_time": "약 4분"
      },
      {
        "pc_room_lat": 37.5372444977042,
        "pc_room_lon": 127.08209431704,
        "pc_room_type": "PC방",
        "pc_room_name": "구의 PC",
        "distance": 282.68495444474115,
        "walking_time": "약 5분"
      },
      {
        "pc_room_lat": 37.5364830461728,
        "pc_room_lon": 127.082634313783,
        "pc_room_type": "PC방",
        "pc_room_name": "라이온 PC",
        "distance": 328.1233361548659,
        "walking_time": "약 5분"
      },
      {
        "pc_room_lat": 37.535732559894,
        "pc_room_lon": 127.083208933655,
        "pc_room_type": "PC방",
        "pc_room_name": "놀이터PC",
        "distance": 390.9153587598044,
        "walking_time": "약 6분"
      },
      {
        "pc_room_lat": 37.535821774302,
        "pc_room_lon": 127.082545105767,
        "pc_room_type": "PC방",
        "pc_room_name": "비원PC방",
        "distance": 398.8220785290244,
        "walking_time": "약 6분"
      },
      {
        "pc_room_lat": 37.538350750252,
        "pc_room_lon": 127.089289559874,
        "pc_room_type": "PC방",
        "pc_room_name": "리그 PC 카페",
        "distance": 457.24510952382576,
        "walking_time": "약 7분"
      }
    ],
    "police_office": [
      {
        "police_office_lat": 37.53662079,
        "police_office_lon": 127.0769223,
        "police_office_type": "경찰소",
        "police_office_name": "자양1파출소",
        "distance": 701.3626268937072,
        "walking_time": "약 11분"
      },
      {
        "police_office_lat": 37.54589543,
        "police_office_lon": 127.0916677,
        "police_office_type": "경찰소",
        "police_office_name": "구의파출소",
        "distance": 997.0699491198365,
        "walking_time": "약 15분"
      },
      {
        "police_office_lat": 37.53385103,
        "police_office_lon": 127.0716125,
        "police_office_type": "경찰소",
        "police_office_name": "자양파출소",
        "distance": 1257.3914561468314,
        "walking_time": "약 19분"
      },
      {
        "police_office_lat": 37.54652678,
        "police_office_lon": 127.0712676,
        "police_office_type": "경찰소",
        "police_office_name": "화양지구대",
        "distance": 1404.3875357825548,
        "walking_time": "약 21분"
      }
    ],
    "post_office": [
      {
        "post_office_lat": 37.53560103,
        "post_office_lon": 127.0873067,
        "post_office_type": "우체국",
        "post_office_name": "동서울우편집중국",
        "distance": 480.9088515760344,
        "walking_time": "약 8분"
      },
      {
        "post_office_lat": 37.53775396,
        "post_office_lon": 127.0899611,
        "post_office_type": "우체국",
        "post_office_name": "서울광진우체국",
        "distance": 531.0326516663195,
        "walking_time": "약 8분"
      },
      {
        "post_office_lat": 37.53775396,
        "post_office_lon": 127.0899611,
        "post_office_type": "우체국",
        "post_office_name": "동서울물류센터",
        "distance": 531.0326516663195,
        "walking_time": "약 8분"
      },
      {
        "post_office_lat": 37.53918267,
        "post_office_lon": 127.0747119,
        "post_office_type": "우체국",
        "post_office_name": "건국대학교우편취급국",
        "distance": 836.9869355169285,
        "walking_time": "약 13분"
      },
      {
        "post_office_lat": 37.53150528,
        "post_office_lon": 127.0805542,
        "post_office_type": "우체국",
        "post_office_name": "서울자양동우체국",
        "distance": 909.821439478349,
        "walking_time": "약 14분"
      },
      {
        "post_office_lat": 37.54793719,
        "post_office_lon": 127.0889468,
        "post_office_type": "우체국",
        "post_office_name": "서울경안우편취급국",
        "distance": 1061.9311569492395,
        "walking_time": "약 16분"
      },
      {
        "post_office_lat": 37.53572518,
        "post_office_lon": 127.0956922,
        "post_office_type": "우체국",
        "post_office_name": "서울테크노마트우편취급국",
        "distance": 1082.437217062646,
        "walking_time": "약 17분"
      }
    ],
    "public_health_center": [
      {
        "public_health_center_lat": 37.53853161,
        "public_health_center_lon": 127.0819098,
        "public_health_center_type": "보건소",
        "public_health_center_name": "광진구청",
        "distance": 214.00505627982625,
        "walking_time": "약 4분"
      }
    ],
    "school": [
      {
        "school_lat": 37.5417240729902,
        "school_lon": 127.081597057268,
        "school_type": "중학교",
        "school_name": "건국대학교사범대학부속중학교",
        "distance": 366.4059260195878,
        "walking_time": "약 6분"
      },
      {
        "school_lat": 37.5419293578309,
        "school_lon": 127.086973061678,
        "school_type": "고등학교",
        "school_name": "동국대학교사범대학부속여자고등학교",
        "distance": 393.0884737233538,
        "walking_time": "약 6분"
      },
      {
        "school_lat": 37.5419293578309,
        "school_lon": 127.086973061678,
        "school_type": "중학교",
        "school_name": "동국대학교사범대학부속여자중학교",
        "distance": 393.0884737233538,
        "walking_time": "약 6분"
      },
      {
        "school_lat": 37.5368378891148,
        "school_lon": 127.080107720459,
        "school_type": "초등학교",
        "school_name": "서울자양초등학교",
        "distance": 443.9215960074375,
        "walking_time": "약 7분"
      },
      {
        "school_lat": 37.5430074366803,
        "school_lon": 127.08031177586,
        "school_type": "초등학교",
        "school_name": "서울구의초등학교",
        "distance": 548.6266015584224,
        "walking_time": "약 9분"
      },
      {
        "school_lat": 37.5428503028479,
        "school_lon": 127.078840375276,
        "school_type": "중학교",
        "school_name": "구의중학교",
        "distance": 626.2790811834977,
        "walking_time": "약 10분"
      },
      {
        "school_lat": 37.5370965949427,
        "school_lon": 127.092288798461,
        "school_type": "초등학교",
        "school_name": "서울구남초등학교",
        "distance": 748.752959511112,
        "walking_time": "약 12분"
      },
      {
        "school_lat": 37.5332813682573,
        "school_lon": 127.089281026795,
        "school_type": "초등학교",
        "school_name": "성동초등학교",
        "distance": 792.083485132439,
        "walking_time": "약 12분"
      },
      {
        "school_lat": 37.539182674872,
        "school_lon": 127.074711902268,
        "school_type": "고등학교",
        "school_name": "건국대학교사범대학부속고등학교",
        "distance": 836.9867372701315,
        "walking_time": "약 13분"
      },
      {
        "school_lat": 37.531493571169,
        "school_lon": 127.083408323591,
        "school_type": "초등학교",
        "school_name": "서울성자초등학교",
        "distance": 855.1703160596311,
        "walking_time": "약 13분"
      }
    ],
    "subway": [
      {
        "subway_lat": 37.5371535596228,
        "subway_lon": 127.086179228767,
        "subway_type": "지하철",
        "subway_name": "2호선-구의(광진구청)역",
        "distance": 282.8509912526663,
        "walking_time": "약 5분"
      },
      {
        "subway_lat": 37.5351692767888,
        "subway_lon": 127.094664569096,
        "subway_type": "지하철",
        "subway_name": "2호선-강변(동서울터미널)역",
        "distance": 1023.4008070004066,
        "walking_time": "약 16분"
      },
      {
        "subway_lat": 37.540657941434,
        "subway_lon": 127.07141185507,
        "subway_type": "지하철",
        "subway_name": "7호선-건대입구역",
        "distance": 1140.1972787973143,
        "walking_time": "약 18분"
      },
      {
        "subway_lat": 37.547871203305,
        "subway_lon": 127.074549925093,
        "subway_type": "지하철",
        "subway_name": "7호선-어린이대공원(세종대)역",
        "distance": 1289.6478327260368,
        "walking_time": "약 20분"
      }
    ],
    "supermarket": [
      {
        "supermarket_lat": 37.54263602,
        "supermarket_lon": 127.0846048,
        "supermarket_type": "마트",
        "supermarket_name": "GS THE FRESH 광진구의점",
        "distance": 388.30705331100535,
        "walking_time": "약 6분"
      },
      {
        "supermarket_lat": 37.54550282,
        "supermarket_lon": 127.0887807,
        "supermarket_type": "마트",
        "supermarket_name": "구의 자이르네 판매시설",
        "distance": 812.6930893015622,
        "walking_time": "약 13분"
      },
      {
        "supermarket_lat": 37.54051873,
        "supermarket_lon": 127.0942835,
        "supermarket_type": "마트",
        "supermarket_name": "홈플러스익스프레스 구의2점",
        "distance": 901.4314504307982,
        "walking_time": "약 14분"
      },
      {
        "supermarket_lat": 37.53092173,
        "supermarket_lon": 127.084141,
        "supermarket_type": "마트",
        "supermarket_name": "프라젠 스파",
        "distance": 915.8857188468766,
        "walking_time": "약 14분"
      },
      {
        "supermarket_lat": 37.53855827,
        "supermarket_lon": 127.0729962,
        "supermarket_type": "마트",
        "supermarket_name": "(주)이마트 자양점",
        "distance": 990.5108705116592,
        "walking_time": "약 15분"
      },
      {
        "supermarket_lat": 37.53453851,
        "supermarket_lon": 127.0941841,
        "supermarket_type": "마트",
        "supermarket_name": "동서울터미널상가",
        "distance": 1018.895218898772,
        "walking_time": "약 16분"
      },
      {
        "supermarket_lat": 37.53213533,
        "supermarket_lon": 127.076531,
        "supermarket_type": "마트",
        "supermarket_name": "자양종합시장",
        "distance": 1033.275865241553,
        "walking_time": "약 16분"
      },
      {
        "supermarket_lat": 37.53572518,
        "supermarket_lon": 127.0956922,
        "supermarket_type": "마트",
        "supermarket_name": "테크노-마트21",
        "distance": 1082.437217062646,
        "walking_time": "약 17분"
      },
      {
        "supermarket_lat": 37.53572518,
        "supermarket_lon": 127.0956922,
        "supermarket_type": "마트",
        "supermarket_name": "롯데쇼핑(주)롯데마트 강변점",
        "distance": 1082.437217062646,
        "walking_time": "약 17분"
      },
      {
        "supermarket_lat": 37.53678879,
        "supermarket_lon": 127.0961606,
        "supermarket_type": "마트",
        "supermarket_name": "프라임프라자상가",
        "distance": 1086.6068810879246,
        "walking_time": "약 17분"
      }
    ],
    "theater": [
      {
        "theater_lat": 37.5385582736952,
        "theater_lon": 127.072996184863,
        "theater_type": "영화관",
        "theater_name": "롯데시네마 건대입구관",
        "distance": 990.5121744225352,
        "walking_time": "약 15분"
      },
      {
        "theater_lat": 37.535725176732,
        "theater_lon": 127.095692162256,
        "theater_type": "영화관",
        "theater_name": "CGV강변",
        "distance": 1082.4342310920354,
        "walking_time": "약 17분"
      }
    ],
    "university": [
      {
        "university_lat": 37.5464762611364,
        "university_lon": 127.071367614735,
        "university_type": "대학교",
        "university_name": "건국대학교",
        "distance": 1393.9489771009262,
        "walking_time": "약 21분"
      }
    ]
  }
}