{
  "클러스터_위도": 37.68064450074633,
  "클러스터_경도": 127.04416599923852,
  "클러스터_level": 4.0,
  "facilities": {
    "bus": [
      {
        "bus_lat": 37.6795203,
        "bus_lon": 127.0436414,
        "bus_type": "버스정류장",
        "bus_name": "도봉1파출소",
        "distance": 133.2580786211821,
        "walking_time": "약 2분"
      },
      {
        "bus_lat": 37.67955752,
        "bus_lon": 127.0433971,
        "bus_type": "버스정류장",
        "bus_name": "도봉1파출소",
        "distance": 138.51876993201205,
        "walking_time": "약 3분"
      },
      {
        "bus_lat": 37.68098753,
        "bus_lon": 127.04578,
        "bus_type": "버스정류장",
        "bus_name": "도봉역",
        "distance": 147.0690019099542,
        "walking_time": "약 3분"
      },
      {
        "bus_lat": 37.68032203,
        "bus_lon": 127.0466815,
        "bus_type": "버스정류장",
        "bus_name": "도봉역",
        "distance": 224.25732210440307,
        "walking_time": "약 4분"
      },
      {
        "bus_lat": 37.68210479,
        "bus_lon": 127.0459587,
        "bus_type": "버스정류장",
        "bus_name": "도봉동한신아파트",
        "distance": 226.3954603794153,
        "walking_time": "약 4분"
      },
      {
        "bus_lat": 37.67862029,
        "bus_lon": 127.0437151,
        "bus_type": "버스정류장",
        "bus_name": "도봉1동주민센터.럭키아파트",
        "distance": 228.55300346860787,
        "walking_time": "약 4분"
      },
      {
        "bus_lat": 37.67863746,
        "bus_lon": 127.0435712,
        "bus_type": "버스정류장",
        "bus_name": "도봉1동주민센터.럭키아파트",
        "distance": 229.22926733143711,
        "walking_time": "약 4분"
      },
      {
        "bus_lat": 37.67901455,
        "bus_lon": 127.0423594,
        "bus_type": "버스정류장",
        "bus_name": "윤성빌라.다리앞",
        "distance": 241.09315984610785,
        "walking_time": "약 4분"
      },
      {
        "bus_lat": 37.67893795,
        "bus_lon": 127.0423843,
        "bus_type": "버스정류장",
        "bus_name": "윤성빌라.다리앞",
        "distance": 246.1584454996953,
        "walking_time": "약 4분"
      },
      {
        "bus_lat": 37.68261403,
        "bus_lon": 127.0456109,
        "bus_type": "버스정류장",
        "bus_name": "도봉동한신아파트",
        "distance": 253.2387183830572,
        "walking_time": "약 4분"
      }
    ],
    "community_center": [
      {
        "community_center_lat": 37.67869086,
        "community_center_lon": 127.0434133,
        "community_center_type": "주민센터",
        "community_center_name": "도봉1동 자치회관",
        "distance": 227.10976483153297,
        "walking_time": "약 4분"
      },
      {
        "community_center_lat": 37.67992984,
        "community_center_lon": 127.0549605,
        "community_center_type": "주민센터",
        "community_center_name": "상계1동 자치회관",
        "distance": 953.2711472651788,
        "walking_time": "약 15분"
      }
    ],
    "convenience_store": [
      {
        "convenience_store_lat": 37.68186693,
        "convenience_store_lon": 127.0447715,
        "convenience_store_type": "편의점",
        "convenience_store_name": "GS25 북서울점",
        "distance": 145.99911520109168,
        "walking_time": "약 3분"
      },
      {
        "convenience_store_lat": 37.67852956,
        "convenience_store_lon": 127.0434882,
        "convenience_store_type": "편의점",
        "convenience_store_name": "세븐일레븐 도봉럭키점",
        "distance": 242.6175571327108,
        "walking_time": "약 4분"
      },
      {
        "convenience_store_lat": 37.67826171,
        "convenience_store_lon": 127.0455812,
        "convenience_store_type": "편의점",
        "convenience_store_name": "세븐일레븐 북부지법점",
        "distance": 292.76601542210284,
        "walking_time": "약 5분"
      },
      {
        "convenience_store_lat": 37.67800837,
        "convenience_store_lon": 127.0434013,
        "convenience_store_type": "편의점",
        "convenience_store_name": "CU 도봉럭키점",
        "distance": 300.7503674343623,
        "walking_time": "약 5분"
      },
      {
        "convenience_store_lat": 37.67800837,
        "convenience_store_lon": 127.0434013,
        "convenience_store_type": "편의점",
        "convenience_store_name": "GS25 도봉럭키점",
        "distance": 300.7503674343623,
        "walking_time": "약 5분"
      },
      {
        "convenience_store_lat": 37.67793966,
        "convenience_store_lon": 127.0435591,
        "convenience_store_type": "편의점",
        "convenience_store_name": "GS25 도봉럭키점",
        "distance": 305.4700419004393,
        "walking_time": "약 5분"
      },
      {
        "convenience_store_lat": 37.68284705,
        "convenience_store_lon": 127.046987,
        "convenience_store_type": "편의점",
        "convenience_store_name": "CU 도봉투웨니점",
        "distance": 348.7284375582611,
        "walking_time": "약 6분"
      },
      {
        "convenience_store_lat": 37.6848608,
        "convenience_store_lon": 127.0425581,
        "convenience_store_type": "편의점",
        "convenience_store_name": "세븐일레븐 도봉플러스점",
        "distance": 489.7179710284668,
        "walking_time": "약 8분"
      },
      {
        "convenience_store_lat": 37.67537629,
        "convenience_store_lon": 127.0435444,
        "convenience_store_type": "편의점",
        "convenience_store_name": "세븐일레븐 도봉대복점",
        "distance": 588.3470441457433,
        "walking_time": "약 9분"
      },
      {
        "convenience_store_lat": 37.68376869,
        "convenience_store_lon": 127.0495669,
        "convenience_store_type": "편의점",
        "convenience_store_name": "CU 도봉한신점",
        "distance": 588.7095229148,
        "walking_time": "약 9분"
      }
    ],
    "daycare": [
      {
        "daycare_lat": 37.67995120049851,
        "daycare_lon": 127.0442385,
        "daycare_type": "어린이집",
        "daycare_name": "럭키어린이집",
        "distance": 77.35504635469718,
        "walking_time": "약 2분"
      },
      {
        "daycare_lat": 37.67942609,
        "daycare_lon": 127.044496,
        "daycare_type": "어린이집",
        "daycare_name": "도봉1동새꿈 어린이집",
        "distance": 138.55873745709644,
        "walking_time": "약 3분"
      },
      {
        "daycare_lat": 37.67961608,
        "daycare_lon": 127.0464843,
        "daycare_type": "어린이집",
        "daycare_name": "도봉2동도토리어린이집",
        "distance": 233.8820185160058,
        "walking_time": "약 4분"
      },
      {
        "daycare_lat": 37.67961608,
        "daycare_lon": 127.0464843,
        "daycare_type": "어린이집",
        "daycare_name": "엄마무릎베베어린이집",
        "distance": 233.8820185160058,
        "walking_time": "약 4분"
      },
      {
        "daycare_lat": 37.68186738,
        "daycare_lon": 127.0469974,
        "daycare_type": "어린이집",
        "daycare_name": "도봉2동오감발달베이비마을어린이집",
        "distance": 283.858351259113,
        "walking_time": "약 5분"
      },
      {
        "daycare_lat": 37.68186738,
        "daycare_lon": 127.0469974,
        "daycare_type": "어린이집",
        "daycare_name": "에코빌i어린이집",
        "distance": 283.858351259113,
        "walking_time": "약 5분"
      },
      {
        "daycare_lat": 37.68186738,
        "daycare_lon": 127.0469974,
        "daycare_type": "어린이집",
        "daycare_name": "에코빌어린이집",
        "distance": 283.858351259113,
        "walking_time": "약 5분"
      },
      {
        "daycare_lat": 37.68186738,
        "daycare_lon": 127.0469974,
        "daycare_type": "어린이집",
        "daycare_name": "동아또래또 어린이집",
        "distance": 283.858351259113,
        "walking_time": "약 5분"
      },
      {
        "daycare_lat": 37.68298087,
        "daycare_lon": 127.0428586,
        "daycare_type": "어린이집",
        "daycare_name": "도봉1동어린이집",
        "distance": 284.12910198840655,
        "walking_time": "약 5분"
      },
      {
        "daycare_lat": 37.677876,
        "daycare_lon": 127.0437881,
        "daycare_type": "어린이집",
        "daycare_name": "하늘빛어린이집",
        "distance": 309.6344289396879,
        "walking_time": "약 5분"
      }
    ],
    "education": [
      {
        "education_lat": 37.68080297,
        "education_lon": 127.0501327,
        "education_type": "도서관",
        "education_name": "도봉기적의도서관",
        "distance": 525.3826397529365,
        "walking_time": "약 8분"
      },
      {
        "education_lat": 37.68766744,
        "education_lon": 127.0440199,
        "education_type": "도서관",
        "education_name": "김근태기념도서관",
        "distance": 781.0210397130506,
        "walking_time": "약 12분"
      }
    ],
    "fitness": [
      {
        "fitness_lat": 37.6834304,
        "fitness_lon": 127.0457013,
        "fitness_type": "운동시설",
        "fitness_name": "에이원 휘트니스",
        "distance": 337.9595310353405,
        "walking_time": "약 6분"
      },
      {
        "fitness_lat": 37.68256247,
        "fitness_lon": 127.0480046,
        "fitness_type": "운동시설",
        "fitness_name": "크로스핏라이노",
        "distance": 399.4934391538622,
        "walking_time": "약 6분"
      },
      {
        "fitness_lat": 37.68515337,
        "fitness_lon": 127.0434871,
        "fitness_type": "운동시설",
        "fitness_name": "도봉헬스클럽",
        "distance": 504.9104017447981,
        "walking_time": "약 8분"
      },
      {
        "fitness_lat": 37.6852098,
        "fitness_lon": 127.0431433,
        "fitness_type": "운동시설",
        "fitness_name": "헬스장",
        "distance": 515.5541365869375,
        "walking_time": "약 8분"
      },
      {
        "fitness_lat": 37.68378803,
        "fitness_lon": 127.0506847,
        "fitness_type": "운동시설",
        "fitness_name": "하이엔드짐",
        "distance": 671.7583414424305,
        "walking_time": "약 11분"
      },
      {
        "fitness_lat": 37.6784299,
        "fitness_lon": 127.0533761,
        "fitness_type": "운동시설",
        "fitness_name": "수호 바디짐",
        "distance": 847.1109509331703,
        "walking_time": "약 13분"
      },
      {
        "fitness_lat": 37.67912131,
        "fitness_lon": 127.0549509,
        "fitness_type": "운동시설",
        "fitness_name": "다올핏",
        "distance": 964.1073195935336,
        "walking_time": "약 15분"
      },
      {
        "fitness_lat": 37.67789724,
        "fitness_lon": 127.0549421,
        "fitness_type": "운동시설",
        "fitness_name": "레몬핏휘트니스",
        "distance": 996.3336122307948,
        "walking_time": "약 15분"
      },
      {
        "fitness_lat": 37.67156528,
        "fitness_lon": 127.0426916,
        "fitness_type": "운동시설",
        "fitness_name": "광동헬스사우나",
        "distance": 1017.8681428359934,
        "walking_time": "약 16분"
      },
      {
        "fitness_lat": 37.67714211,
        "fitness_lon": 127.0549847,
        "fitness_type": "운동시설",
        "fitness_name": "카인드짐 24시 휘트니스 수락산역점",
        "distance": 1028.6717340516932,
        "walking_time": "약 16분"
      }
    ],
    "gas_station": [
      {
        "gas_station_lat": 37.67901478,
        "gas_station_lon": 127.0497507,
        "gas_station_type": "주유소",
        "gas_station_name": "노원교주유소",
        "distance": 523.8205934984895,
        "walking_time": "약 8분"
      },
      {
        "gas_station_lat": 37.67447358,
        "gas_station_lon": 127.0440667,
        "gas_station_type": "주유소",
        "gas_station_name": "(주)송만에너지 도봉제일주유소",
        "distance": 686.230726551145,
        "walking_time": "약 11분"
      },
      {
        "gas_station_lat": 37.68837403,
        "gas_station_lon": 127.0453272,
        "gas_station_type": "주유소",
        "gas_station_name": "현대오일뱅크㈜직영 도봉현대셀프주유소",
        "distance": 865.5374262573553,
        "walking_time": "약 13분"
      },
      {
        "gas_station_lat": 37.68669658,
        "gas_station_lon": 127.0558589,
        "gas_station_type": "주유소",
        "gas_station_name": "㈜소모에너지 수락산셀프주유소",
        "distance": 1229.4925621592251,
        "walking_time": "약 19분"
      }
    ],
    "hospital": [
      {
        "hospital_lat": 37.68039915,
        "hospital_lon": 127.0450044,
        "hospital_type": "병원",
        "hospital_name": "이상복치과의원",
        "distance": 78.66425372606639,
        "walking_time": "약 2분"
      },
      {
        "hospital_lat": 37.68122175,
        "hospital_lon": 127.0452233,
        "hospital_type": "병원",
        "hospital_name": "주용진내과의원",
        "distance": 113.0372524672498,
        "walking_time": "약 2분"
      },
      {
        "hospital_lat": 37.68243338,
        "hospital_lon": 127.0454584,
        "hospital_type": "병원",
        "hospital_name": "경희자운한의원",
        "distance": 229.1337412728966,
        "walking_time": "약 4분"
      },
      {
        "hospital_lat": 37.6834304,
        "hospital_lon": 127.0457013,
        "hospital_type": "병원",
        "hospital_name": "서울수치과의원",
        "distance": 337.9595310353405,
        "walking_time": "약 6분"
      },
      {
        "hospital_lat": 37.68223282,
        "hospital_lon": 127.0477553,
        "hospital_type": "병원",
        "hospital_name": "연세드림의원",
        "distance": 361.8886903995918,
        "walking_time": "약 6분"
      },
      {
        "hospital_lat": 37.68373693,
        "hospital_lon": 127.0456527,
        "hospital_type": "병원",
        "hospital_name": "한사랑의원",
        "distance": 367.9106400634186,
        "walking_time": "약 6분"
      },
      {
        "hospital_lat": 37.68406508,
        "hospital_lon": 127.0444531,
        "hospital_type": "병원",
        "hospital_name": "남진한의원",
        "distance": 381.1892652608711,
        "walking_time": "약 6분"
      },
      {
        "hospital_lat": 37.68410716,
        "hospital_lon": 127.0441851,
        "hospital_type": "병원",
        "hospital_name": "김학동치과의원",
        "distance": 385.0338107213458,
        "walking_time": "약 6분"
      },
      {
        "hospital_lat": 37.68410716,
        "hospital_lon": 127.0441851,
        "hospital_type": "병원",
        "hospital_name": "성채한의원",
        "distance": 385.0338107213458,
        "walking_time": "약 6분"
      },
      {
        "hospital_lat": 37.68395012,
        "hospital_lon": 127.0456049,
        "hospital_type": "병원",
        "hospital_name": "도봉美치과의원",
        "distance": 388.7674558855931,
        "walking_time": "약 6분"
      }
    ],
    "music_room": [
      {
        "music_room_lat": 37.68011963,
        "music_room_lon": 127.0471607,
        "music_room_type": "노래방",
        "music_room_name": "퀸노래연습장",
        "distance": 269.92863846111914,
        "walking_time": "약 5분"
      },
      {
        "music_room_lat": 37.68298689,
        "music_room_lon": 127.0456057,
        "music_room_type": "노래방",
        "music_room_name": "OK 노래연습장",
        "distance": 289.6415473200755,
        "walking_time": "약 5분"
      },
      {
        "music_room_lat": 37.67788474,
        "music_room_lon": 127.0446442,
        "music_room_type": "노래방",
        "music_room_name": "등대 노래연습장",
        "distance": 309.7436132951659,
        "walking_time": "약 5분"
      },
      {
        "music_room_lat": 37.67788474,
        "music_room_lon": 127.0446442,
        "music_room_type": "노래방",
        "music_room_name": "등대투 노래연습장",
        "distance": 309.7436132951659,
        "walking_time": "약 5분"
      },
      {
        "music_room_lat": 37.67776874,
        "music_room_lon": 127.0447612,
        "music_room_type": "노래방",
        "music_room_name": "코코",
        "distance": 324.03174259472667,
        "walking_time": "약 5분"
      },
      {
        "music_room_lat": 37.67771891,
        "music_room_lon": 127.0435732,
        "music_room_type": "노래방",
        "music_room_name": "비트코인 노래연습장(도봉점)",
        "distance": 329.46740024406495,
        "walking_time": "약 5분"
      },
      {
        "music_room_lat": 37.67771891,
        "music_room_lon": 127.0435732,
        "music_room_type": "노래방",
        "music_room_name": "도봉코인노래연습장",
        "distance": 329.46740024406495,
        "walking_time": "약 5분"
      },
      {
        "music_room_lat": 37.67755947,
        "music_room_lon": 127.0444681,
        "music_room_type": "노래방",
        "music_room_name": "마루노래연습장",
        "distance": 344.0684742708641,
        "walking_time": "약 6분"
      },
      {
        "music_room_lat": 37.67758575,
        "music_room_lon": 127.0435732,
        "music_room_type": "노래방",
        "music_room_name": "SBS노래연습장",
        "distance": 344.09531024127983,
        "walking_time": "약 6분"
      },
      {
        "music_room_lat": 37.68373693,
        "music_room_lon": 127.0456527,
        "music_room_type": "노래방",
        "music_room_name": "MBC 노래연습장",
        "distance": 367.9106400634186,
        "walking_time": "약 6분"
      }
    ],
    "park": [
      {
        "park_lat": 37.689585,
        "park_lon": 127.047938,
        "park_type": "공원",
        "park_name": "서울창포원",
        "distance": 1048.0870598476074,
        "walking_time": "약 16분"
      }
    ],
    "park_station": [
      {
        "park_station_lat": 37.68369243,
        "park_station_lon": 127.0463191,
        "park_station_type": "주차장",
        "park_station_name": "도봉2동  6공영주차장",
        "distance": 388.2831820051279,
        "walking_time": "약 6분"
      },
      {
        "park_station_lat": 37.67363061,
        "park_station_lon": 127.046451,
        "park_station_type": "주차장",
        "park_station_name": "도봉2동 법조타운 공영주차장",
        "distance": 805.417863011134,
        "walking_time": "약 13분"
      },
      {
        "park_station_lat": 37.68749596,
        "park_station_lon": 127.0405738,
        "park_station_type": "주차장",
        "park_station_name": "도봉산 공영주차장",
        "distance": 824.8254336905358,
        "walking_time": "약 13분"
      },
      {
        "park_station_lat": 37.68971452,
        "park_station_lon": 127.0448116,
        "park_station_type": "주차장",
        "park_station_name": "도봉산역 공영주차장",
        "distance": 1010.138957169596,
        "walking_time": "약 16분"
      },
      {
        "park_station_lat": 37.69003605,
        "park_station_lon": 127.0429579,
        "park_station_type": "주차장",
        "park_station_name": "도봉권역공영차고지",
        "distance": 1049.6898764935954,
        "walking_time": "약 16분"
      }
    ],
    "pc_room": [
      {
        "pc_room_lat": 37.6803611165411,
        "pc_room_lon": 127.043346439226,
        "pc_room_type": "PC방",
        "pc_room_name": "클릭PC게임방",
        "distance": 78.70699260257724,
        "walking_time": "약 2분"
      },
      {
        "pc_room_lat": 37.6813056551256,
        "pc_room_lon": 127.044679926029,
        "pc_room_type": "PC방",
        "pc_room_name": "클릭인터넷",
        "distance": 86.31467923603543,
        "walking_time": "약 2분"
      },
      {
        "pc_room_lat": 37.6803696777252,
        "pc_room_lon": 127.045959117951,
        "pc_room_type": "PC방",
        "pc_room_name": "늑대와 여우 PC라운지 도봉역점",
        "distance": 160.73185831955263,
        "walking_time": "약 3분"
      },
      {
        "pc_room_lat": 37.6820190441342,
        "pc_room_lon": 127.045402264555,
        "pc_room_type": "PC방",
        "pc_room_name": "PC클럽엔터",
        "distance": 187.60837175552365,
        "walking_time": "약 3분"
      },
      {
        "pc_room_lat": 37.6820190441342,
        "pc_room_lon": 127.045402264555,
        "pc_room_type": "PC방",
        "pc_room_name": "pc클럽엔터",
        "distance": 187.60837175552365,
        "walking_time": "약 3분"
      },
      {
        "pc_room_lat": 37.6826627450157,
        "pc_room_lon": 127.045526793033,
        "pc_room_type": "PC방",
        "pc_room_name": "스카이넷 PC방",
        "distance": 254.37038280415703,
        "walking_time": "약 4분"
      },
      {
        "pc_room_lat": 37.6829868864524,
        "pc_room_lon": 127.045605667725,
        "pc_room_type": "PC방",
        "pc_room_name": "이카",
        "distance": 289.6399502041091,
        "walking_time": "약 5분"
      },
      {
        "pc_room_lat": 37.6780083708478,
        "pc_room_lon": 127.043401296558,
        "pc_room_type": "PC방",
        "pc_room_name": "PC 마을",
        "distance": 300.7503433348092,
        "walking_time": "약 5분"
      },
      {
        "pc_room_lat": 37.67775638498,
        "pc_room_lon": 127.043840075352,
        "pc_room_type": "PC방",
        "pc_room_name": "사이버 인터넷 게임방",
        "distance": 322.4221750906639,
        "walking_time": "약 5분"
      },
      {
        "pc_room_lat": 37.6774520356679,
        "pc_room_lon": 127.044078175661,
        "pc_room_type": "PC방",
        "pc_room_name": "마우스 패밀리",
        "distance": 355.0700487604757,
        "walking_time": "약 6분"
      }
    ],
    "police_office": [
      {
        "police_office_lat": 37.67947363,
        "police_office_lon": 127.043412,
        "police_office_type": "경찰소",
        "police_office_name": "도봉1파출소",
        "distance": 146.12890919257774,
        "walking_time": "약 3분"
      },
      {
        "police_office_lat": 37.68399333,
        "police_office_lon": 127.0492783,
        "police_office_type": "경찰소",
        "police_office_name": "도봉2파출소",
        "distance": 584.0038155255507,
        "walking_time": "약 9분"
      },
      {
        "police_office_lat": 37.67968122,
        "police_office_lon": 127.0550471,
        "police_office_type": "경찰소",
        "police_office_name": "상계1파출소",
        "distance": 963.5478307748592,
        "walking_time": "약 15분"
      }
    ],
    "post_office": [
      {
        "post_office_lat": 37.68226455,
        "post_office_lon": 127.0454215,
        "post_office_type": "우체국",
        "post_office_name": "서울도봉1동우체국",
        "distance": 211.3247974351397,
        "walking_time": "약 4분"
      },
      {
        "post_office_lat": 37.67739606,
        "post_office_lon": 127.0471641,
        "post_office_type": "우체국",
        "post_office_name": "서울북부지방법원우체국",
        "distance": 447.3123609889557,
        "walking_time": "약 7분"
      },
      {
        "post_office_lat": 37.67967259,
        "post_office_lon": 127.0548132,
        "post_office_type": "우체국",
        "post_office_name": "서울수락산우체국",
        "distance": 943.2036718418324,
        "walking_time": "약 15분"
      },
      {
        "post_office_lat": 37.67412664,
        "post_office_lon": 127.0557222,
        "post_office_type": "우체국",
        "post_office_name": "서울상계1동우체국",
        "distance": 1248.8422857028554,
        "walking_time": "약 19분"
      }
    ],
    "public_health_center": [
      {
        "public_health_center_lat": 37.6714151,
        "public_health_center_lon": 127.0552421,
        "public_health_center_type": "보건소",
        "public_health_center_name": "마들보건지소",
        "distance": 1415.4264173313256,
        "walking_time": "약 22분"
      }
    ],
    "school": [
      {
        "school_lat": 37.6815704209468,
        "school_lon": 127.042573542277,
        "school_type": "중학교",
        "school_name": "북서울중학교",
        "distance": 173.89516727219635,
        "walking_time": "약 3분"
      },
      {
        "school_lat": 37.679961751365,
        "school_lon": 127.038288664028,
        "school_type": "초등학교",
        "school_name": "서울도봉초등학교",
        "distance": 522.7675063584214,
        "walking_time": "약 8분"
      },
      {
        "school_lat": 37.6855689580624,
        "school_lon": 127.049932683549,
        "school_type": "고등학교",
        "school_name": "누원고등학교",
        "distance": 746.5671613820726,
        "walking_time": "약 12분"
      },
      {
        "school_lat": 37.6872327127492,
        "school_lon": 127.04926716395,
        "school_type": "초등학교",
        "school_name": "서울누원초등학교",
        "distance": 859.1720208820151,
        "walking_time": "약 13분"
      },
      {
        "school_lat": 37.6829077650293,
        "school_lon": 127.053570991513,
        "school_type": "고등학교",
        "school_name": "수락고등학교",
        "distance": 865.0706940407367,
        "walking_time": "약 13분"
      },
      {
        "school_lat": 37.6831446942923,
        "school_lon": 127.054808336792,
        "school_type": "중학교",
        "school_name": "수락중학교",
        "distance": 976.9338379995032,
        "walking_time": "약 15분"
      },
      {
        "school_lat": 37.6717184874026,
        "school_lon": 127.040258979982,
        "school_type": "초등학교",
        "school_name": "서울오봉초등학교",
        "distance": 1050.401614582429,
        "walking_time": "약 16분"
      },
      {
        "school_lat": 37.684506075345,
        "school_lon": 127.055187311236,
        "school_type": "초등학교",
        "school_name": "서울수락초등학교",
        "distance": 1060.6825080779895,
        "walking_time": "약 16분"
      },
      {
        "school_lat": 37.6708838426227,
        "school_lon": 127.045871656464,
        "school_type": "중학교",
        "school_name": "도봉중학교",
        "distance": 1095.6675448778224,
        "walking_time": "약 17분"
      },
      {
        "school_lat": 37.6735135287049,
        "school_lon": 127.05513756871,
        "school_type": "초등학교",
        "school_name": "서울노일초등학교",
        "distance": 1249.4297242514235,
        "walking_time": "약 19분"
      }
    ],
    "subway": [
      {
        "subway_lat": 37.6891205614059,
        "subway_lon": 127.046528790935,
        "subway_type": "지하철",
        "subway_name": "7호선-도봉산역",
        "distance": 965.1568878250368,
        "walking_time": "약 15분"
      },
      {
        "subway_lat": 37.6776259369995,
        "subway_lon": 127.055374584266,
        "subway_type": "지하철",
        "subway_name": "7호선-수락산역",
        "distance": 1041.9517694510514,
        "walking_time": "약 16분"
      }
    ],
    "supermarket": [
      {
        "supermarket_lat": 37.68434454,
        "supermarket_lon": 127.0498958,
        "supermarket_type": "마트",
        "supermarket_name": "도봉한신쇼핑상가",
        "distance": 650.7810837844422,
        "walking_time": "약 10분"
      },
      {
        "supermarket_lat": 37.67454408,
        "supermarket_lon": 127.0476623,
        "supermarket_type": "마트",
        "supermarket_name": "도봉한양프라자",
        "distance": 744.8606205623247,
        "walking_time": "약 12분"
      },
      {
        "supermarket_lat": 37.68030784,
        "supermarket_lon": 127.0548864,
        "supermarket_type": "마트",
        "supermarket_name": "오피앙",
        "distance": 944.17207420097,
        "walking_time": "약 15분"
      }
    ]
  }
}