{
  "클러스터_위도": 37.51718799999999,
  "클러스터_경도": 126.83829799999998,
  "클러스터_level": 4.0,
  "facilities": {
    "bus": [
      {
        "bus_lat": 37.51742852,
        "bus_lon": 126.8378532,
        "bus_type": "버스정류장",
        "bus_name": "금실어린이공원",
        "distance": 47.47892462845404,
        "walking_time": "약 1분"
      },
      {
        "bus_lat": 37.51669255,
        "bus_lon": 126.8378579,
        "bus_type": "버스정류장",
        "bus_name": "강월초교입구사거리",
        "distance": 67.39224089432369,
        "walking_time": "약 2분"
      },
      {
        "bus_lat": 37.51795429,
        "bus_lon": 126.8377739,
        "bus_type": "버스정류장",
        "bus_name": "금실어린이공원",
        "distance": 96.9378536594221,
        "walking_time": "약 2분"
      },
      {
        "bus_lat": 37.51635995,
        "bus_lon": 126.8377839,
        "bus_type": "버스정류장",
        "bus_name": "강월초교입구사거리",
        "distance": 102.6338355522158,
        "walking_time": "약 2분"
      },
      {
        "bus_lat": 37.51865936,
        "bus_lon": 126.8385825,
        "bus_type": "버스정류장",
        "bus_name": "경창빌딩",
        "distance": 165.5206741028148,
        "walking_time": "약 3분"
      },
      {
        "bus_lat": 37.51586282,
        "bus_lon": 126.8398086,
        "bus_type": "버스정류장",
        "bus_name": "강신중학교",
        "distance": 198.6541360422709,
        "walking_time": "약 3분"
      },
      {
        "bus_lat": 37.51655194,
        "bus_lon": 126.8404714,
        "bus_type": "버스정류장",
        "bus_name": "목동센트럴1단지",
        "distance": 204.3189797306777,
        "walking_time": "약 4분"
      },
      {
        "bus_lat": 37.51642688,
        "bus_lon": 126.8407068,
        "bus_type": "버스정류장",
        "bus_name": "목동센트럴1단지",
        "distance": 228.68591185073348,
        "walking_time": "약 4분"
      },
      {
        "bus_lat": 37.51939309,
        "bus_lon": 126.8385851,
        "bus_type": "버스정류장",
        "bus_name": "신월동남부주유소",
        "distance": 246.4987747432074,
        "walking_time": "약 4분"
      },
      {
        "bus_lat": 37.51909545,
        "bus_lon": 126.8367193,
        "bus_type": "버스정류장",
        "bus_name": "신월시영아파트중문",
        "distance": 253.7164289555108,
        "walking_time": "약 4분"
      }
    ],
    "community_center": [
      {
        "community_center_lat": 37.5180156,
        "community_center_lon": 126.8450865,
        "community_center_type": "주민센터",
        "community_center_name": "신월6동 자치회관",
        "distance": 605.7499711176113,
        "walking_time": "약 10분"
      },
      {
        "community_center_lat": 37.52188377,
        "community_center_lon": 126.834709,
        "community_center_type": "주민센터",
        "community_center_name": "신월7동 자치회관",
        "distance": 610.5946958412818,
        "walking_time": "약 10분"
      },
      {
        "community_center_lat": 37.52469581,
        "community_center_lon": 126.8400811,
        "community_center_type": "주민센터",
        "community_center_name": "신월4동 자치회관",
        "distance": 849.5122233371169,
        "walking_time": "약 13분"
      },
      {
        "community_center_lat": 37.52497426,
        "community_center_lon": 126.8445695,
        "community_center_type": "주민센터",
        "community_center_name": "신월2동 자치회관",
        "distance": 1027.381065019733,
        "walking_time": "약 16분"
      },
      {
        "community_center_lat": 37.50219095,
        "community_center_lon": 126.847122,
        "community_center_type": "주민센터",
        "community_center_name": "개봉1동 자치회관",
        "distance": 1840.2894293020008,
        "walking_time": "약 28분"
      }
    ],
    "convenience_store": [
      {
        "convenience_store_lat": 37.51632632,
        "convenience_store_lon": 126.8385641,
        "convenience_store_type": "편의점",
        "convenience_store_name": "CU 신월강신중점",
        "distance": 98.64691042124488,
        "walking_time": "약 2분"
      },
      {
        "convenience_store_lat": 37.51747913,
        "convenience_store_lon": 126.8400087,
        "convenience_store_type": "편의점",
        "convenience_store_name": "GS25 신월유일점",
        "distance": 154.31135503999147,
        "walking_time": "약 3분"
      },
      {
        "convenience_store_lat": 37.5197289,
        "convenience_store_lon": 126.8387233,
        "convenience_store_type": "편의점",
        "convenience_store_name": "CU SK남부셀프주유소점",
        "distance": 285.01418372326043,
        "walking_time": "약 5분"
      },
      {
        "convenience_store_lat": 37.51871615,
        "convenience_store_lon": 126.8415679,
        "convenience_store_type": "편의점",
        "convenience_store_name": "CU 신월화영점",
        "distance": 334.72826927386694,
        "walking_time": "약 5분"
      },
      {
        "convenience_store_lat": 37.51848707,
        "convenience_store_lon": 126.8420044,
        "convenience_store_type": "편의점",
        "convenience_store_name": "GS25 신월으뜸점",
        "distance": 357.38233560401216,
        "walking_time": "약 6분"
      },
      {
        "convenience_store_lat": 37.51302608,
        "convenience_store_lon": 126.836566,
        "convenience_store_type": "편의점",
        "convenience_store_name": "GS25 신정푸른마을점",
        "distance": 487.3450734561785,
        "walking_time": "약 8분"
      },
      {
        "convenience_store_lat": 37.52069932,
        "convenience_store_lon": 126.8417514,
        "convenience_store_type": "편의점",
        "convenience_store_name": "미니스톱 신월우창점",
        "distance": 495.18434505041137,
        "walking_time": "약 8분"
      },
      {
        "convenience_store_lat": 37.52163259,
        "convenience_store_lon": 126.8396874,
        "convenience_store_type": "편의점",
        "convenience_store_name": "세븐일레븐 신월2호점",
        "distance": 509.1802674753262,
        "walking_time": "약 8분"
      },
      {
        "convenience_store_lat": 37.51223858,
        "convenience_store_lon": 126.8377289,
        "convenience_store_type": "편의점",
        "convenience_store_name": "CU 신정푸른점",
        "distance": 552.6346226938816,
        "walking_time": "약 9분"
      },
      {
        "convenience_store_lat": 37.52169755,
        "convenience_store_lon": 126.8414931,
        "convenience_store_type": "편의점",
        "convenience_store_name": "GS25 신월강서점",
        "distance": 575.1919671021313,
        "walking_time": "약 9분"
      }
    ],
    "daycare": [
      {
        "daycare_lat": 37.51623622,
        "daycare_lon": 126.8359648,
        "daycare_type": "어린이집",
        "daycare_name": "양문어린이집",
        "distance": 231.401554127948,
        "walking_time": "약 4분"
      },
      {
        "daycare_lat": 37.51906041,
        "daycare_lon": 126.8402139,
        "daycare_type": "어린이집",
        "daycare_name": "한빛방과후교실",
        "distance": 268.1424551843855,
        "walking_time": "약 5분"
      },
      {
        "daycare_lat": 37.51906041,
        "daycare_lon": 126.8402139,
        "daycare_type": "어린이집",
        "daycare_name": "구립 한빛어린이집",
        "distance": 268.1424551843855,
        "walking_time": "약 5분"
      },
      {
        "daycare_lat": 37.51817739346139,
        "daycare_lon": 126.83540836162996,
        "daycare_type": "어린이집",
        "daycare_name": "시영어린이집",
        "distance": 277.58640962630784,
        "walking_time": "약 5분"
      },
      {
        "daycare_lat": 37.51608317983839,
        "daycare_lon": 126.8411881560094,
        "daycare_type": "어린이집",
        "daycare_name": "구립 가온어린이집",
        "distance": 282.9630945297028,
        "walking_time": "약 5분"
      },
      {
        "daycare_lat": 37.51841572023952,
        "daycare_lon": 126.8351563235722,
        "daycare_type": "어린이집",
        "daycare_name": "사랑둥이어린이집",
        "distance": 308.88759541084414,
        "walking_time": "약 5분"
      },
      {
        "daycare_lat": 37.51586419,
        "daycare_lon": 126.8419318,
        "daycare_type": "어린이집",
        "daycare_name": "해달별어린이집",
        "distance": 352.6796212444263,
        "walking_time": "약 6분"
      },
      {
        "daycare_lat": 37.51781933,
        "daycare_lon": 126.8342287,
        "daycare_type": "어린이집",
        "daycare_name": "꿈꾸는어린이집",
        "distance": 365.6979601899009,
        "walking_time": "약 6분"
      },
      {
        "daycare_lat": 37.51781933,
        "daycare_lon": 126.8342287,
        "daycare_type": "어린이집",
        "daycare_name": "EQ어린이집",
        "distance": 365.6979601899009,
        "walking_time": "약 6분"
      },
      {
        "daycare_lat": 37.51781933,
        "daycare_lon": 126.8342287,
        "daycare_type": "어린이집",
        "daycare_name": "쑥쑥영재어린이집",
        "distance": 365.6979601899009,
        "walking_time": "약 6분"
      }
    ],
    "education": [
      {
        "education_lat": 37.51365196,
        "education_lon": 126.8336297,
        "education_type": "도서관",
        "education_name": "양천중앙도서관",
        "distance": 569.3207451602267,
        "walking_time": "약 9분"
      },
      {
        "education_lat": 37.5069156,
        "education_lon": 126.845637,
        "education_type": "도서관",
        "education_name": "구로구립글마루 한옥어린이도서관",
        "distance": 1312.909507203955,
        "walking_time": "약 20분"
      },
      {
        "education_lat": 37.50221136,
        "education_lon": 126.8292615,
        "education_type": "도서관",
        "education_name": "구로구립궁동어린이도서관",
        "distance": 1846.247436088057,
        "walking_time": "약 28분"
      }
    ],
    "electric_gas_station": [
      {
        "electric_gas_station_lat": 37.51985566,
        "electric_gas_station_lon": 126.8350649,
        "electric_gas_station_type": "전기차 충전소",
        "electric_gas_station_name": "해맞이공영주차장",
        "distance": 411.4561310728905,
        "walking_time": "약 7분"
      }
    ],
    "fitness": [
      {
        "fitness_lat": 37.51645737,
        "fitness_lon": 126.8381364,
        "fitness_type": "운동시설",
        "fitness_name": "하루핏",
        "distance": 82.48307017796465,
        "walking_time": "약 2분"
      },
      {
        "fitness_lat": 37.51810112,
        "fitness_lon": 126.8385714,
        "fitness_type": "운동시설",
        "fitness_name": "휘트니스칸 신월점 헬스&PT",
        "distance": 104.3582439470366,
        "walking_time": "약 2분"
      },
      {
        "fitness_lat": 37.51863218,
        "fitness_lon": 126.8374595,
        "fitness_type": "운동시설",
        "fitness_name": "JS 휘트니스",
        "distance": 176.79539564691038,
        "walking_time": "약 3분"
      },
      {
        "fitness_lat": 37.51755953,
        "fitness_lon": 126.8402941,
        "fitness_type": "운동시설",
        "fitness_name": "본투비짐",
        "distance": 180.83099679584305,
        "walking_time": "약 3분"
      },
      {
        "fitness_lat": 37.51734742,
        "fitness_lon": 126.8411515,
        "fitness_type": "운동시설",
        "fitness_name": "프로원휘트니스 신월",
        "distance": 252.2921359188987,
        "walking_time": "약 4분"
      },
      {
        "fitness_lat": 37.51776043,
        "fitness_lon": 126.842018,
        "fitness_type": "운동시설",
        "fitness_name": "엠에이치(MH)",
        "distance": 334.2072585303242,
        "walking_time": "약 5분"
      },
      {
        "fitness_lat": 37.51454603,
        "fitness_lon": 126.8409603,
        "fitness_type": "운동시설",
        "fitness_name": "모션",
        "distance": 376.0832727045916,
        "walking_time": "약 6분"
      },
      {
        "fitness_lat": 37.51869611,
        "fitness_lon": 126.8422783,
        "fitness_type": "운동시설",
        "fitness_name": "신월동 PT 라이프헬스장",
        "distance": 389.04250913652913,
        "walking_time": "약 6분"
      },
      {
        "fitness_lat": 37.51906242,
        "fitness_lon": 126.8427938,
        "fitness_type": "운동시설",
        "fitness_name": "팬덤짐",
        "distance": 447.9518486856537,
        "walking_time": "약 7분"
      },
      {
        "fitness_lat": 37.5122563,
        "fitness_lon": 126.8375046,
        "fitness_type": "운동시설",
        "fitness_name": "짐에스디비(GYM SDB)",
        "distance": 552.8268181858431,
        "walking_time": "약 9분"
      }
    ],
    "gas_station": [
      {
        "gas_station_lat": 37.5197289,
        "gas_station_lon": 126.8387233,
        "gas_station_type": "주유소",
        "gas_station_name": "현대오일뱅크㈜직영 남부순환셀프주유소",
        "distance": 285.01418372326043,
        "walking_time": "약 5분"
      },
      {
        "gas_station_lat": 37.52004819,
        "gas_station_lon": 126.8440713,
        "gas_station_type": "주유소",
        "gas_station_name": "㈜진우에너지 신월점",
        "distance": 600.3400442075315,
        "walking_time": "약 9분"
      },
      {
        "gas_station_lat": 37.52152949,
        "gas_station_lon": 126.8338689,
        "gas_station_type": "주유소",
        "gas_station_name": "신양주유소",
        "distance": 620.9936823578047,
        "walking_time": "약 10분"
      },
      {
        "gas_station_lat": 37.50934497,
        "gas_station_lon": 126.8418839,
        "gas_station_type": "주유소",
        "gas_station_name": "(주)서부티엔디",
        "distance": 927.6857407796888,
        "walking_time": "약 14분"
      },
      {
        "gas_station_lat": 37.51056764,
        "gas_station_lon": 126.8477188,
        "gas_station_type": "주유소",
        "gas_station_name": "(주)지애스이앤알서울주유소",
        "distance": 1110.109818790846,
        "walking_time": "약 17분"
      },
      {
        "gas_station_lat": 37.52731985,
        "gas_station_lon": 126.8428792,
        "gas_station_type": "주유소",
        "gas_station_name": "신화곡주유소",
        "distance": 1196.8633426021336,
        "walking_time": "약 18분"
      },
      {
        "gas_station_lat": 37.52826247,
        "gas_station_lon": 126.8329564,
        "gas_station_type": "주유소",
        "gas_station_name": "동일석유㈜ 개나리주유소",
        "distance": 1318.4534904434684,
        "walking_time": "약 20분"
      },
      {
        "gas_station_lat": 37.5254885,
        "gas_station_lon": 126.8497533,
        "gas_station_type": "주유소",
        "gas_station_name": "삼미상사㈜신월IC셀프주유소",
        "distance": 1368.3965032698536,
        "walking_time": "약 21분"
      },
      {
        "gas_station_lat": 37.50189389,
        "gas_station_lon": 126.8468418,
        "gas_station_type": "주유소",
        "gas_station_name": "㈜개봉오일",
        "distance": 1860.1244955249167,
        "walking_time": "약 28분"
      }
    ],
    "hospital": [
      {
        "hospital_lat": 37.51718508,
        "hospital_lon": 126.8389082,
        "hospital_type": "병원",
        "hospital_name": "한세정형외과의원",
        "distance": 53.81851897773347,
        "walking_time": "약 1분"
      },
      {
        "hospital_lat": 37.51863218,
        "hospital_lon": 126.8374595,
        "hospital_type": "병원",
        "hospital_name": "임가정의학과의원",
        "distance": 176.79539564691038,
        "walking_time": "약 3분"
      },
      {
        "hospital_lat": 37.51869225,
        "hospital_lon": 126.8369201,
        "hospital_type": "병원",
        "hospital_name": "바른생각치과의원",
        "distance": 206.7506929078853,
        "walking_time": "약 4분"
      },
      {
        "hospital_lat": 37.51768406,
        "hospital_lon": 126.8405683,
        "hospital_type": "병원",
        "hospital_name": "솔빛한방병원",
        "distance": 207.6906317815069,
        "walking_time": "약 4분"
      },
      {
        "hospital_lat": 37.51912316,
        "hospital_lon": 126.8368252,
        "hospital_type": "병원",
        "hospital_name": "우리이화의원",
        "distance": 251.3462261399789,
        "walking_time": "약 4분"
      },
      {
        "hospital_lat": 37.51757006,
        "hospital_lon": 126.8415598,
        "hospital_type": "병원",
        "hospital_name": "신곡경희한의원",
        "distance": 290.7987325374216,
        "walking_time": "약 5분"
      },
      {
        "hospital_lat": 37.51829647,
        "hospital_lon": 126.8417778,
        "hospital_type": "병원",
        "hospital_name": "박내과의원",
        "distance": 330.729836909323,
        "walking_time": "약 5분"
      },
      {
        "hospital_lat": 37.51776043,
        "hospital_lon": 126.842018,
        "hospital_type": "병원",
        "hospital_name": "황등한의원",
        "distance": 334.2072585303242,
        "walking_time": "약 5분"
      },
      {
        "hospital_lat": 37.51776043,
        "hospital_lon": 126.842018,
        "hospital_type": "병원",
        "hospital_name": "라온휴한방병원",
        "distance": 334.2072585303242,
        "walking_time": "약 5분"
      },
      {
        "hospital_lat": 37.51776043,
        "hospital_lon": 126.842018,
        "hospital_type": "병원",
        "hospital_name": "라온휴병원",
        "distance": 334.2072585303242,
        "walking_time": "약 5분"
      }
    ],
    "music_room": [
      {
        "music_room_lat": 37.51624115,
        "music_room_lon": 126.8377584,
        "music_room_type": "노래방",
        "music_room_name": "신나네노래연습장",
        "distance": 115.54147500682971,
        "walking_time": "약 2분"
      },
      {
        "music_room_lat": 37.51644078,
        "music_room_lon": 126.8367509,
        "music_room_type": "노래방",
        "music_room_name": "코리아나노래연습장",
        "distance": 159.75590199033488,
        "walking_time": "약 3분"
      },
      {
        "music_room_lat": 37.51723644,
        "music_room_lon": 126.8407062,
        "music_room_type": "노래방",
        "music_room_name": "서울노래연습장",
        "distance": 212.4631636922834,
        "walking_time": "약 4분"
      },
      {
        "music_room_lat": 37.51963629,
        "music_room_lon": 126.8361771,
        "music_room_type": "노래방",
        "music_room_name": "올포유 노래연습장",
        "distance": 330.3059855283365,
        "walking_time": "약 5분"
      },
      {
        "music_room_lat": 37.51829647,
        "music_room_lon": 126.8417778,
        "music_room_type": "노래방",
        "music_room_name": "팡팡노래연습장",
        "distance": 330.729836909323,
        "walking_time": "약 5분"
      },
      {
        "music_room_lat": 37.51829647,
        "music_room_lon": 126.8417778,
        "music_room_type": "노래방",
        "music_room_name": "팽팽노래연습장",
        "distance": 330.729836909323,
        "walking_time": "약 5분"
      },
      {
        "music_room_lat": 37.51776043,
        "music_room_lon": 126.842018,
        "music_room_type": "노래방",
        "music_room_name": "코인박스 동전노래연습장 신월점",
        "distance": 334.2072585303242,
        "walking_time": "약 5분"
      },
      {
        "music_room_lat": 37.51848707,
        "music_room_lon": 126.8420044,
        "music_room_type": "노래방",
        "music_room_name": "DJ노래연습장",
        "distance": 357.38233560401216,
        "walking_time": "약 6분"
      },
      {
        "music_room_lat": 37.51803121,
        "music_room_lon": 126.842247,
        "music_room_type": "노래방",
        "music_room_name": "큐노래연습장",
        "distance": 360.685962234406,
        "walking_time": "약 6분"
      },
      {
        "music_room_lat": 37.51878565,
        "music_room_lon": 126.8419309,
        "music_room_type": "노래방",
        "music_room_name": "봉선화 노래연습장",
        "distance": 366.3599703811579,
        "walking_time": "약 6분"
      }
    ],
    "outdoor_sports": [
      {
        "outdoor_sports_lat": 37.5020867341653,
        "outdoor_sports_lon": 126.838345252559,
        "outdoor_sports_type": "야외 체육시설",
        "outdoor_sports_name": "잣절공원",
        "distance": 1679.1893193740077,
        "walking_time": "약 26분"
      },
      {
        "outdoor_sports_lat": 37.5022687905543,
        "outdoor_sports_lon": 126.84130846022,
        "outdoor_sports_type": "야외 체육시설",
        "outdoor_sports_name": "은행나무소공원",
        "distance": 1680.0577620758306,
        "walking_time": "약 26분"
      }
    ],
    "park": [
      {
        "park_lat": 37.5138358,
        "park_lon": 126.8479643,
        "park_type": "공원",
        "park_name": "계남근린공원",
        "distance": 930.4774567262792,
        "walking_time": "약 14분"
      },
      {
        "park_lat": 37.5278392,
        "park_lon": 126.8304789,
        "park_type": "공원",
        "park_name": "서서울호수공원",
        "distance": 1370.478700590509,
        "walking_time": "약 21분"
      },
      {
        "park_lat": 37.5002598,
        "park_lon": 126.83695,
        "park_type": "공원",
        "park_name": "온수도시자연공원",
        "distance": 1886.0816149076363,
        "walking_time": "약 29분"
      }
    ],
    "park_station": [
      {
        "park_station_lat": 37.51705196,
        "park_station_lon": 126.8410059,
        "park_station_type": "주차장",
        "park_station_name": "신곡주차장",
        "distance": 239.3062507317415,
        "walking_time": "약 4분"
      },
      {
        "park_station_lat": 37.51974299,
        "park_station_lon": 126.8349025,
        "park_station_type": "주차장",
        "park_station_name": "해맞이공영주차장",
        "distance": 412.78802845646464,
        "walking_time": "약 7분"
      },
      {
        "park_station_lat": 37.51995587,
        "park_station_lon": 126.8317512,
        "park_station_type": "주차장",
        "park_station_name": "한울주차장",
        "distance": 654.3001570159039,
        "walking_time": "약 10분"
      },
      {
        "park_station_lat": 37.52403888,
        "park_station_lon": 126.8423548,
        "park_station_type": "주차장",
        "park_station_name": "경창시장 고객주차장",
        "distance": 841.6172305335324,
        "walking_time": "약 13분"
      },
      {
        "park_station_lat": 37.52423655,
        "park_station_lon": 126.8329094,
        "park_station_type": "주차장",
        "park_station_name": "구름다리주차장",
        "distance": 916.5867847489396,
        "walking_time": "약 14분"
      },
      {
        "park_station_lat": 37.52569574,
        "park_station_lon": 126.8379026,
        "park_station_type": "주차장",
        "park_station_name": "신월4동 공영주차장",
        "distance": 946.6599916431928,
        "walking_time": "약 15분"
      },
      {
        "park_station_lat": 37.52437009,
        "park_station_lon": 126.8450818,
        "park_station_type": "주차장",
        "park_station_name": "당곡주차장",
        "distance": 997.8571261942622,
        "walking_time": "약 15분"
      },
      {
        "park_station_lat": 37.51613768,
        "park_station_lon": 126.8496514,
        "park_station_type": "주차장",
        "park_station_name": "다락골주차장",
        "distance": 1008.1256886628076,
        "walking_time": "약 16분"
      },
      {
        "park_station_lat": 37.52811636,
        "park_station_lon": 126.8318994,
        "park_station_type": "주차장",
        "park_station_name": "서서울주차장",
        "distance": 1339.8077456604644,
        "walking_time": "약 20분"
      },
      {
        "park_station_lat": 37.52953577,
        "park_station_lon": 126.8360448,
        "park_station_type": "주차장",
        "park_station_name": "곰달래주차장",
        "distance": 1387.3138216004795,
        "walking_time": "약 21분"
      }
    ],
    "pc_room": [
      {
        "pc_room_lat": 37.517760427962,
        "pc_room_lon": 126.842018042503,
        "pc_room_type": "PC방",
        "pc_room_name": "헤라PC방",
        "distance": 334.2108953675538,
        "walking_time": "약 5분"
      },
      {
        "pc_room_lat": 37.5190288155623,
        "pc_room_lon": 126.841716283854,
        "pc_room_type": "PC방",
        "pc_room_name": "신월PC",
        "distance": 364.3984075722133,
        "walking_time": "약 6분"
      },
      {
        "pc_room_lat": 37.512061164533,
        "pc_room_lon": 126.840498916897,
        "pc_room_type": "PC방",
        "pc_room_name": "잼PC방",
        "distance": 602.2222106714523,
        "walking_time": "약 9분"
      },
      {
        "pc_room_lat": 37.5118971024706,
        "pc_room_lon": 126.840173516553,
        "pc_room_type": "PC방",
        "pc_room_name": "라네이즈PC",
        "distance": 611.1344530906621,
        "walking_time": "약 10분"
      },
      {
        "pc_room_lat": 37.5224300656382,
        "pc_room_lon": 126.832990682262,
        "pc_room_type": "PC방",
        "pc_room_name": "행운PC",
        "distance": 747.5641935118181,
        "walking_time": "약 12분"
      },
      {
        "pc_room_lat": 37.5223094268187,
        "pc_room_lon": 126.844066388115,
        "pc_room_type": "PC방",
        "pc_room_name": "레벨업PC카페",
        "distance": 763.6193334879108,
        "walking_time": "약 12분"
      },
      {
        "pc_room_lat": 37.5227099730559,
        "pc_room_lon": 126.833094245325,
        "pc_room_type": "PC방",
        "pc_room_name": "잇츠pc방(신월점)",
        "distance": 766.5751022396342,
        "walking_time": "약 12분"
      },
      {
        "pc_room_lat": 37.5279944967274,
        "pc_room_lon": 126.839707806331,
        "pc_room_type": "PC방",
        "pc_room_name": "동전PC",
        "distance": 1208.0426844478527,
        "walking_time": "약 19분"
      },
      {
        "pc_room_lat": 37.52811817546,
        "pc_room_lon": 126.840885923997,
        "pc_room_type": "PC방",
        "pc_room_name": "왕대박PC",
        "distance": 1236.6233397465255,
        "walking_time": "약 19분"
      },
      {
        "pc_room_lat": 37.5279688077685,
        "pc_room_lon": 126.841905897445,
        "pc_room_type": "PC방",
        "pc_room_name": "메이드PC방",
        "distance": 1240.278782409088,
        "walking_time": "약 19분"
      }
    ],
    "police_office": [
      {
        "police_office_lat": 37.520542,
        "police_office_lon": 126.8343884,
        "police_office_type": "경찰소",
        "police_office_name": "신월2지구대",
        "distance": 507.918188905343,
        "walking_time": "약 8분"
      },
      {
        "police_office_lat": 37.52935163,
        "police_office_lon": 126.8455601,
        "police_office_type": "경찰소",
        "police_office_name": "까치산지구대",
        "distance": 1496.4997393791205,
        "walking_time": "약 23분"
      }
    ],
    "post_office": [
      {
        "post_office_lat": 37.52021799,
        "post_office_lon": 126.8352803,
        "post_office_type": "우체국",
        "post_office_name": "서울삼보우편취급국",
        "distance": 429.3577808690171,
        "walking_time": "약 7분"
      },
      {
        "post_office_lat": 37.52915571,
        "post_office_lon": 126.8367533,
        "post_office_type": "우체국",
        "post_office_name": "서울신월1동우편취급국",
        "distance": 1337.7030814903233,
        "walking_time": "약 20분"
      }
    ],
    "public_health_center": [
      {
        "public_health_center_lat": 37.51757901,
        "public_health_center_lon": 126.8458736,
        "public_health_center_type": "보건소",
        "public_health_center_name": "건강힐링문화관",
        "distance": 669.5532319169624,
        "walking_time": "약 10분"
      }
    ],
    "school": [
      {
        "school_lat": 37.5151371613165,
        "school_lon": 126.838160107241,
        "school_type": "중학교",
        "school_name": "강신중학교",
        "distance": 228.36693020350648,
        "walking_time": "약 4분"
      },
      {
        "school_lat": 37.5164578282463,
        "school_lon": 126.843152158167,
        "school_type": "초등학교",
        "school_name": "서울신남초등학교",
        "distance": 435.7529097280504,
        "walking_time": "약 7분"
      },
      {
        "school_lat": 37.516341716111,
        "school_lon": 126.833431935892,
        "school_type": "초등학교",
        "school_name": "서울강월초등학교",
        "distance": 439.3681094548082,
        "walking_time": "약 7분"
      },
      {
        "school_lat": 37.5128376807713,
        "school_lon": 126.837023804089,
        "school_type": "초등학교",
        "school_name": "서울지향초등학교",
        "distance": 496.6165120875093,
        "walking_time": "약 8분"
      },
      {
        "school_lat": 37.5224127216539,
        "school_lon": 126.840987861073,
        "school_type": "초등학교",
        "school_name": "서울강서초등학교",
        "distance": 627.5306225147843,
        "walking_time": "약 10분"
      },
      {
        "school_lat": 37.5139128078247,
        "school_lon": 126.832169591843,
        "school_type": "초등학교",
        "school_name": "서울신은초등학교",
        "distance": 651.7579795543872,
        "walking_time": "약 10분"
      },
      {
        "school_lat": 37.5114137684075,
        "school_lon": 126.834906714744,
        "school_type": "고등학교",
        "school_name": "대일관광고등학교",
        "distance": 708.3186688477552,
        "walking_time": "약 11분"
      },
      {
        "school_lat": 37.5190011611899,
        "school_lon": 126.830550787,
        "school_type": "중학교",
        "school_name": "양천중학교",
        "distance": 712.3939509565578,
        "walking_time": "약 11분"
      },
      {
        "school_lat": 37.5129972017178,
        "school_lon": 126.845159735242,
        "school_type": "초등학교",
        "school_name": "서울장수초등학교",
        "distance": 763.8173390945933,
        "walking_time": "약 12분"
      },
      {
        "school_lat": 37.5122533613422,
        "school_lon": 126.84449517891,
        "school_type": "고등학교",
        "school_name": "백암고등학교",
        "distance": 774.4917526842943,
        "walking_time": "약 12분"
      }
    ],
    "self_laundromat": [
      {
        "self_laundromat_lat": 37.51921379,
        "self_laundromat_lon": 126.8370086,
        "self_laundromat_type": "셀프 빨래방",
        "self_laundromat_name": "셀프드라이크리닝 신월점",
        "distance": 252.33510610470177,
        "walking_time": "약 4분"
      },
      {
        "self_laundromat_lat": 37.51921379,
        "self_laundromat_lon": 126.8370086,
        "self_laundromat_type": "셀프 빨래방",
        "self_laundromat_name": "셀프드라이크리닝 신월점",
        "distance": 252.33510610470177,
        "walking_time": "약 4분"
      },
      {
        "self_laundromat_lat": 37.52110155,
        "self_laundromat_lon": 126.8400954,
        "self_laundromat_type": "셀프 빨래방",
        "self_laundromat_name": "아쿠아워시셀프빨래방 신월신정점",
        "distance": 463.1402932736144,
        "walking_time": "약 7분"
      },
      {
        "self_laundromat_lat": 37.52110155,
        "self_laundromat_lon": 126.8400954,
        "self_laundromat_type": "셀프 빨래방",
        "self_laundromat_name": "아쿠아워시셀프빨래방 신월신정점",
        "distance": 463.1402932736144,
        "walking_time": "약 7분"
      },
      {
        "self_laundromat_lat": 37.52076228,
        "self_laundromat_lon": 126.8343086,
        "self_laundromat_type": "셀프 빨래방",
        "self_laundromat_name": "빨리셀프크리닝 신월7동점",
        "distance": 530.8045047559734,
        "walking_time": "약 8분"
      },
      {
        "self_laundromat_lat": 37.52076228,
        "self_laundromat_lon": 126.8343086,
        "self_laundromat_type": "셀프 빨래방",
        "self_laundromat_name": "빨리셀프크리닝 신월7동점",
        "distance": 530.8045047559734,
        "walking_time": "약 8분"
      },
      {
        "self_laundromat_lat": 37.52117346,
        "self_laundromat_lon": 126.8328161,
        "self_laundromat_type": "셀프 빨래방",
        "self_laundromat_name": "워시쿱셀프프빨래방 신월동점",
        "distance": 655.8493388086774,
        "walking_time": "약 10분"
      },
      {
        "self_laundromat_lat": 37.52117346,
        "self_laundromat_lon": 126.8328161,
        "self_laundromat_type": "셀프 빨래방",
        "self_laundromat_name": "워시쿱셀프프빨래방 신월동점",
        "distance": 655.8493388086774,
        "walking_time": "약 10분"
      },
      {
        "self_laundromat_lat": 37.5252723,
        "self_laundromat_lon": 126.8433975,
        "self_laundromat_type": "셀프 빨래방",
        "self_laundromat_name": "솔이네셀프빨래방 신월신정점",
        "distance": 1005.157423680442,
        "walking_time": "약 16분"
      },
      {
        "self_laundromat_lat": 37.5252723,
        "self_laundromat_lon": 126.8433975,
        "self_laundromat_type": "셀프 빨래방",
        "self_laundromat_name": "솔이네셀프빨래방 신월신정점",
        "distance": 1005.157423680442,
        "walking_time": "약 16분"
      }
    ],
    "supermarket": [
      {
        "supermarket_lat": 37.52266248,
        "supermarket_lon": 126.8335999,
        "supermarket_type": "마트",
        "supermarket_name": "우성상가시장",
        "distance": 736.366803674848,
        "walking_time": "약 11분"
      },
      {
        "supermarket_lat": 37.50981315,
        "supermarket_lon": 126.8432513,
        "supermarket_type": "마트",
        "supermarket_name": "롯데프레시 신정점",
        "distance": 929.163226513925,
        "walking_time": "약 14분"
      }
    ]
  }
}