{
  "클러스터_위도": 37.574908,
  "클러스터_경도": 127.06911300000002,
  "클러스터_level": 4.0,
  "facilities": {
    "bus": [
      {
        "bus_lat": 37.57567723,
        "bus_lon": 127.0673309,
        "bus_type": "버스정류장",
        "bus_name": "답십리래미안엘파인아파트",
        "distance": 178.83420004569817,
        "walking_time": "약 3분"
      },
      {
        "bus_lat": 37.57419086,
        "bus_lon": 127.0668513,
        "bus_type": "버스정류장",
        "bus_name": "답십리촬영소.우성그린아파트",
        "distance": 214.68019912548257,
        "walking_time": "약 4분"
      },
      {
        "bus_lat": 37.57499211,
        "bus_lon": 127.0717763,
        "bus_type": "버스정류장",
        "bus_name": "동대문더퍼스트데시앙아파트",
        "distance": 234.8982116750352,
        "walking_time": "약 4분"
      },
      {
        "bus_lat": 37.57351066,
        "bus_lon": 127.0669165,
        "bus_type": "버스정류장",
        "bus_name": "촬영소사거리.우성그린아파트",
        "distance": 248.220800599647,
        "walking_time": "약 4분"
      },
      {
        "bus_lat": 37.57378629,
        "bus_lon": 127.0716865,
        "bus_type": "버스정류장",
        "bus_name": "장안사거리삼성래미안",
        "distance": 258.8346368776112,
        "walking_time": "약 4분"
      },
      {
        "bus_lat": 37.57277346,
        "bus_lon": 127.0678745,
        "bus_type": "버스정류장",
        "bus_name": "동대문구.성동구선거관리위원회",
        "distance": 261.2439787686151,
        "walking_time": "약 4분"
      },
      {
        "bus_lat": 37.57515296,
        "bus_lon": 127.0721655,
        "bus_type": "버스정류장",
        "bus_name": "NH농협장안평지점",
        "distance": 270.38663959736505,
        "walking_time": "약 5분"
      },
      {
        "bus_lat": 37.57258453,
        "bus_lon": 127.0703387,
        "bus_type": "버스정류장",
        "bus_name": "장안사거리",
        "distance": 280.0309466396234,
        "walking_time": "약 5분"
      },
      {
        "bus_lat": 37.57248721,
        "bus_lon": 127.0682025,
        "bus_type": "버스정류장",
        "bus_name": "동대문구.성동구선거관리위원회",
        "distance": 280.88509378870015,
        "walking_time": "약 5분"
      },
      {
        "bus_lat": 37.57732932,
        "bus_lon": 127.068142,
        "bus_type": "버스정류장",
        "bus_name": "전곡시장앞",
        "distance": 282.509817004468,
        "walking_time": "약 5분"
      }
    ],
    "community_center": [
      {
        "community_center_lat": 37.57847147,
        "community_center_lon": 127.0705894,
        "community_center_type": "주민센터",
        "community_center_name": "장안2동 자치회관",
        "distance": 417.05449132969926,
        "walking_time": "약 7분"
      },
      {
        "community_center_lat": 37.56781936,
        "community_center_lon": 127.0664131,
        "community_center_type": "주민센터",
        "community_center_name": "장안1동 자치회관",
        "distance": 823.3539434565247,
        "walking_time": "약 13분"
      },
      {
        "community_center_lat": 37.57809107,
        "community_center_lon": 127.0600078,
        "community_center_type": "주민센터",
        "community_center_name": "전농2동 자치회관",
        "distance": 877.0028055336079,
        "walking_time": "약 14분"
      },
      {
        "community_center_lat": 37.56739777,
        "community_center_lon": 127.0612821,
        "community_center_type": "주민센터",
        "community_center_name": "답십리2동 자치회관",
        "distance": 1083.379010868546,
        "walking_time": "약 17분"
      },
      {
        "community_center_lat": 37.58575279,
        "community_center_lon": 127.0794745,
        "community_center_type": "주민센터",
        "community_center_name": "면목5동 자치회관",
        "distance": 1512.5692516857905,
        "walking_time": "약 23분"
      },
      {
        "community_center_lat": 37.57182309,
        "community_center_lon": 127.0512749,
        "community_center_type": "주민센터",
        "community_center_name": "답십리1동 자치회관",
        "distance": 1609.0628501083702,
        "walking_time": "약 25분"
      },
      {
        "community_center_lat": 37.56406781,
        "community_center_lon": 127.0555683,
        "community_center_type": "주민센터",
        "community_center_name": "용답동 자치회관",
        "distance": 1696.462589553738,
        "walking_time": "약 26분"
      },
      {
        "community_center_lat": 37.58977313,
        "community_center_lon": 127.0790295,
        "community_center_type": "주민센터",
        "community_center_name": "면목2동 자치회관",
        "distance": 1869.6948544430663,
        "walking_time": "약 28분"
      }
    ],
    "convenience_store": [
      {
        "convenience_store_lat": 37.57558237,
        "convenience_store_lon": 127.068869,
        "convenience_store_type": "편의점",
        "convenience_store_name": "CU 장안에스점",
        "distance": 78.00875880079055,
        "walking_time": "약 2분"
      },
      {
        "convenience_store_lat": 37.5734865,
        "convenience_store_lon": 127.0691366,
        "convenience_store_type": "편의점",
        "convenience_store_name": "세븐일레븐 장안제일점",
        "distance": 158.07727125794884,
        "walking_time": "약 3분"
      },
      {
        "convenience_store_lat": 37.5757471,
        "convenience_store_lon": 127.0672471,
        "convenience_store_type": "편의점",
        "convenience_store_name": "GS25 답십리삼성점",
        "distance": 189.06431601289464,
        "walking_time": "약 3분"
      },
      {
        "convenience_store_lat": 37.57286017,
        "convenience_store_lon": 127.067979,
        "convenience_store_type": "편의점",
        "convenience_store_name": "세븐일레븐 장안본점",
        "distance": 248.6741807016417,
        "walking_time": "약 4분"
      },
      {
        "convenience_store_lat": 37.57726328,
        "convenience_store_lon": 127.0700717,
        "convenience_store_type": "편의점",
        "convenience_store_name": "GS25 장안공원점",
        "distance": 275.18572925369205,
        "walking_time": "약 5분"
      },
      {
        "convenience_store_lat": 37.57293915,
        "convenience_store_lon": 127.0667877,
        "convenience_store_type": "편의점",
        "convenience_store_name": "CU 촬영소사거리점",
        "distance": 299.8731419739385,
        "walking_time": "약 5분"
      },
      {
        "convenience_store_lat": 37.57226542,
        "convenience_store_lon": 127.0681358,
        "convenience_store_type": "편의점",
        "convenience_store_name": "GS25 장안에이스점",
        "distance": 306.2018296710073,
        "walking_time": "약 5분"
      },
      {
        "convenience_store_lat": 37.57146823,
        "convenience_store_lon": 127.069199,
        "convenience_store_type": "편의점",
        "convenience_store_name": "CU 장안쉐르빌점",
        "distance": 382.56005911883534,
        "walking_time": "약 6분"
      },
      {
        "convenience_store_lat": 37.57469349,
        "convenience_store_lon": 127.0738662,
        "convenience_store_type": "편의점",
        "convenience_store_name": "세븐일레븐 장안래미안점",
        "distance": 419.57055122867496,
        "walking_time": "약 7분"
      },
      {
        "convenience_store_lat": 37.57841398,
        "convenience_store_lon": 127.0668879,
        "convenience_store_type": "편의점",
        "convenience_store_name": "GS25 배봉점",
        "distance": 436.3851283923959,
        "walking_time": "약 7분"
      }
    ],
    "daycare": [
      {
        "daycare_lat": 37.57624698,
        "daycare_lon": 127.0699683,
        "daycare_type": "어린이집",
        "daycare_name": "임마누엘어린이집",
        "distance": 166.88028780379364,
        "walking_time": "약 3분"
      },
      {
        "daycare_lat": 37.5760519,
        "daycare_lon": 127.0704164,
        "daycare_type": "어린이집",
        "daycare_name": "연세어린이집",
        "distance": 171.3851857440293,
        "walking_time": "약 3분"
      },
      {
        "daycare_lat": 37.57607996141363,
        "daycare_lon": 127.07044041171292,
        "daycare_type": "어린이집",
        "daycare_name": "연세어린이집",
        "distance": 175.11995541544755,
        "walking_time": "약 3분"
      },
      {
        "daycare_lat": 37.5730729,
        "daycare_lon": 127.0695886,
        "daycare_type": "어린이집",
        "daycare_name": "데시앙어린이집",
        "distance": 208.31411035858468,
        "walking_time": "약 4분"
      },
      {
        "daycare_lat": 37.57593456874236,
        "daycare_lon": 127.0663490700356,
        "daycare_type": "어린이집",
        "daycare_name": "더불어숲어린이집",
        "distance": 268.9993585465624,
        "walking_time": "약 5분"
      },
      {
        "daycare_lat": 37.57479158,
        "daycare_lon": 127.0659471,
        "daycare_type": "어린이집",
        "daycare_name": "뿡뿡어린이집",
        "distance": 279.3057356742865,
        "walking_time": "약 5분"
      },
      {
        "daycare_lat": 37.57479158,
        "daycare_lon": 127.0659471,
        "daycare_type": "어린이집",
        "daycare_name": "우성그린어린이집",
        "distance": 279.3057356742865,
        "walking_time": "약 5분"
      },
      {
        "daycare_lat": 37.57712995,
        "daycare_lon": 127.0706491,
        "daycare_type": "어린이집",
        "daycare_name": "마리아어린이집",
        "distance": 281.7248814865626,
        "walking_time": "약 5분"
      },
      {
        "daycare_lat": 37.57712995,
        "daycare_lon": 127.0706491,
        "daycare_type": "어린이집",
        "daycare_name": "성모몬테소리어린이집",
        "distance": 281.7248814865626,
        "walking_time": "약 5분"
      },
      {
        "daycare_lat": 37.57233065,
        "daycare_lon": 127.0685453,
        "daycare_type": "어린이집",
        "daycare_name": "별밭어린이집",
        "distance": 290.92258835216165,
        "walking_time": "약 5분"
      }
    ],
    "education": [
      {
        "education_lat": 37.57124499,
        "education_lon": 127.073201,
        "education_type": "도서관",
        "education_name": "장안어린이도서관",
        "distance": 543.7827304532615,
        "walking_time": "약 9분"
      },
      {
        "education_lat": 37.57844311,
        "education_lon": 127.0627351,
        "education_type": "도서관",
        "education_name": "배봉산숲속도서관",
        "distance": 685.8778210076034,
        "walking_time": "약 11분"
      },
      {
        "education_lat": 37.58257758,
        "education_lon": 127.0599881,
        "education_type": "도서관",
        "education_name": "서울휴먼라이브러리",
        "distance": 1172.138592043315,
        "walking_time": "약 18분"
      },
      {
        "education_lat": 37.58257758,
        "education_lon": 127.0599881,
        "education_type": "박물관/기념관",
        "education_name": "서울시립대학교 박물관",
        "distance": 1172.138592043315,
        "walking_time": "약 18분"
      },
      {
        "education_lat": 37.58717428,
        "education_lon": 127.069939,
        "education_type": "도서관",
        "education_name": "휘경행복도서관",
        "distance": 1365.888912630687,
        "walking_time": "약 21분"
      },
      {
        "education_lat": 37.573193,
        "education_lon": 127.0503603,
        "education_type": "도서관",
        "education_name": "동대문구답십리도서관",
        "distance": 1663.6283861798363,
        "walking_time": "약 25분"
      },
      {
        "education_lat": 37.5604667,
        "education_lon": 127.0603649,
        "education_type": "박물관/기념관",
        "education_name": "서울하수도과학관",
        "distance": 1781.3136759258205,
        "walking_time": "약 27분"
      },
      {
        "education_lat": 37.56669993,
        "education_lon": 127.0513042,
        "education_type": "도서관",
        "education_name": "성동구립용답도서관",
        "distance": 1815.6230222886709,
        "walking_time": "약 28분"
      }
    ],
    "electric_gas_station": [
      {
        "electric_gas_station_lat": 37.5841974,
        "electric_gas_station_lon": 127.051145,
        "electric_gas_station_type": "전기차 충전소",
        "electric_gas_station_name": "청량리롯데백화점",
        "distance": 1890.523220630682,
        "walking_time": "약 29분"
      }
    ],
    "fitness": [
      {
        "fitness_lat": 37.57575296,
        "fitness_lon": 127.0677139,
        "fitness_type": "운동시설",
        "fitness_name": "휘트니스 월드",
        "distance": 155.01735961175558,
        "walking_time": "약 3분"
      },
      {
        "fitness_lat": 37.57274436,
        "fitness_lon": 127.0695736,
        "fitness_type": "운동시설",
        "fitness_name": "빅풋",
        "distance": 243.9862135312165,
        "walking_time": "약 4분"
      },
      {
        "fitness_lat": 37.57591638,
        "fitness_lon": 127.0717287,
        "fitness_type": "운동시설",
        "fitness_name": "파워헬스클럽",
        "distance": 256.33933333562504,
        "walking_time": "약 4분"
      },
      {
        "fitness_lat": 37.57226542,
        "fitness_lon": 127.0681358,
        "fitness_type": "운동시설",
        "fitness_name": "장안휘트니스센터",
        "distance": 306.2018296710073,
        "walking_time": "약 5분"
      },
      {
        "fitness_lat": 37.5721698,
        "fitness_lon": 127.070783,
        "fitness_type": "운동시설",
        "fitness_name": "조피티짐",
        "distance": 338.17959847555784,
        "walking_time": "약 6분"
      },
      {
        "fitness_lat": 37.57199537,
        "fitness_lon": 127.0709302,
        "fitness_type": "운동시설",
        "fitness_name": "직선 퍼스널트레이닝(장안점)",
        "distance": 361.3025715219847,
        "walking_time": "약 6분"
      },
      {
        "fitness_lat": 37.57143804,
        "fitness_lon": 127.0701279,
        "fitness_type": "운동시설",
        "fitness_name": "헬스보이짐 장안점",
        "distance": 396.07340991752784,
        "walking_time": "약 6분"
      },
      {
        "fitness_lat": 37.57889257,
        "fitness_lon": 127.0680162,
        "fitness_type": "운동시설",
        "fitness_name": "뉴파워짐",
        "distance": 453.48446973987336,
        "walking_time": "약 7분"
      },
      {
        "fitness_lat": 37.5750721,
        "fitness_lon": 127.0742821,
        "fitness_type": "운동시설",
        "fitness_name": "어메이징 휘트니스",
        "distance": 455.9087564552741,
        "walking_time": "약 7분"
      },
      {
        "fitness_lat": 37.57104642,
        "fitness_lon": 127.0712671,
        "fitness_type": "운동시설",
        "fitness_name": "버닝타임",
        "distance": 469.4828628088303,
        "walking_time": "약 8분"
      }
    ],
    "gas_station": [
      {
        "gas_station_lat": 37.57222701,
        "gas_station_lon": 127.0688157,
        "gas_station_type": "주유소",
        "gas_station_name": "삼영주유소",
        "distance": 299.26167081026307,
        "walking_time": "약 5분"
      },
      {
        "gas_station_lat": 37.57301206,
        "gas_station_lon": 127.0649712,
        "gas_station_type": "주유소",
        "gas_station_name": "㈜자연에너지 국민주유소",
        "distance": 421.5212094433547,
        "walking_time": "약 7분"
      },
      {
        "gas_station_lat": 37.57016688,
        "gas_station_lon": 127.0649947,
        "gas_station_type": "주유소",
        "gas_station_name": "삼미상사㈜ 장안킹셀프주유소",
        "distance": 640.0473608585648,
        "walking_time": "약 10분"
      },
      {
        "gas_station_lat": 37.56894475,
        "gas_station_lon": 127.0633763,
        "gas_station_type": "주유소",
        "gas_station_name": "오동나무주유소",
        "distance": 833.8442753222043,
        "walking_time": "약 13분"
      },
      {
        "gas_station_lat": 37.57754919,
        "gas_station_lon": 127.059335,
        "gas_station_type": "주유소",
        "gas_station_name": "동일석유㈜강남주유소",
        "distance": 910.3759368875724,
        "walking_time": "약 14분"
      },
      {
        "gas_station_lat": 37.57908103,
        "gas_station_lon": 127.079322,
        "gas_station_type": "주유소",
        "gas_station_name": "오천만주유소",
        "distance": 1012.29056695187,
        "walking_time": "약 16분"
      },
      {
        "gas_station_lat": 37.57577532,
        "gas_station_lon": 127.0574925,
        "gas_station_type": "주유소",
        "gas_station_name": "재정주유소",
        "distance": 1028.6199313769955,
        "walking_time": "약 16분"
      },
      {
        "gas_station_lat": 37.5843891,
        "gas_station_lon": 127.0676839,
        "gas_station_type": "주유소",
        "gas_station_name": "열린주유소",
        "distance": 1061.7454646182568,
        "walking_time": "약 16분"
      },
      {
        "gas_station_lat": 37.56930309,
        "gas_station_lon": 127.0790442,
        "gas_station_type": "주유소",
        "gas_station_name": "중곡현대주유소(현대오일뱅크㈜직영주유소)",
        "distance": 1074.472996186469,
        "walking_time": "약 17분"
      },
      {
        "gas_station_lat": 37.56745201,
        "gas_station_lon": 127.0779359,
        "gas_station_type": "주유소",
        "gas_station_name": "정해네트웍스(주)일진주유소",
        "distance": 1136.659235859392,
        "walking_time": "약 17분"
      }
    ],
    "hospital": [
      {
        "hospital_lat": 37.57276248,
        "hospital_lon": 127.068801,
        "hospital_type": "병원",
        "hospital_name": "반디한의원",
        "distance": 240.1502576203175,
        "walking_time": "약 4분"
      },
      {
        "hospital_lat": 37.57273278,
        "hospital_lon": 127.0693591,
        "hospital_type": "병원",
        "hospital_name": "참튼튼병원",
        "distance": 242.84388933208103,
        "walking_time": "약 4분"
      },
      {
        "hospital_lat": 37.57656717,
        "hospital_lon": 127.0671287,
        "hospital_type": "병원",
        "hospital_name": "이화의원",
        "distance": 254.1985624661975,
        "walking_time": "약 4분"
      },
      {
        "hospital_lat": 37.57270199,
        "hospital_lon": 127.0700727,
        "hospital_type": "병원",
        "hospital_name": "장안베스트정형외과의원",
        "distance": 259.46890172241626,
        "walking_time": "약 4분"
      },
      {
        "hospital_lat": 37.57513544,
        "hospital_lon": 127.0722483,
        "hospital_type": "병원",
        "hospital_name": "여해한의원",
        "distance": 277.46318913651135,
        "walking_time": "약 5분"
      },
      {
        "hospital_lat": 37.57513544,
        "hospital_lon": 127.0722483,
        "hospital_type": "병원",
        "hospital_name": "코코메디의원",
        "distance": 277.46318913651135,
        "walking_time": "약 5분"
      },
      {
        "hospital_lat": 37.57631848,
        "hospital_lon": 127.0665157,
        "hospital_type": "병원",
        "hospital_name": "맑은샘요양원",
        "distance": 277.47150623036583,
        "walking_time": "약 5분"
      },
      {
        "hospital_lat": 37.57319766,
        "hospital_lon": 127.0715189,
        "hospital_type": "병원",
        "hospital_name": "코리아병원",
        "distance": 284.82574979008245,
        "walking_time": "약 5분"
      },
      {
        "hospital_lat": 37.57544869,
        "hospital_lon": 127.0722825,
        "hospital_type": "병원",
        "hospital_name": "EB치과의원",
        "distance": 285.7187671233868,
        "walking_time": "약 5분"
      },
      {
        "hospital_lat": 37.57544869,
        "hospital_lon": 127.0722825,
        "hospital_type": "병원",
        "hospital_name": "서울아산재활의학과의원",
        "distance": 285.7187671233868,
        "walking_time": "약 5분"
      }
    ],
    "music_room": [
      {
        "music_room_lat": 37.57514327,
        "music_room_lon": 127.0716664,
        "music_room_type": "노래방",
        "music_room_name": "아지트",
        "distance": 226.54200807642653,
        "walking_time": "약 4분"
      },
      {
        "music_room_lat": 37.5728071,
        "music_room_lon": 127.0684407,
        "music_room_type": "노래방",
        "music_room_name": "소리꾼",
        "distance": 241.00594064707232,
        "walking_time": "약 4분"
      },
      {
        "music_room_lat": 37.57348835,
        "music_room_lon": 127.0670203,
        "music_room_type": "노래방",
        "music_room_name": "짱!",
        "distance": 242.7606555608874,
        "walking_time": "약 4분"
      },
      {
        "music_room_lat": 37.57302013,
        "music_room_lon": 127.0705224,
        "music_room_type": "노래방",
        "music_room_name": "한돌림",
        "distance": 243.916145558338,
        "walking_time": "약 4분"
      },
      {
        "music_room_lat": 37.57270727,
        "music_room_lon": 127.0698324,
        "music_room_type": "노래방",
        "music_room_name": "쉘브르 노래연습장",
        "distance": 252.78964376770435,
        "walking_time": "약 4분"
      },
      {
        "music_room_lat": 37.57591638,
        "music_room_lon": 127.0717287,
        "music_room_type": "노래방",
        "music_room_name": "소리샘",
        "distance": 256.33933333562504,
        "walking_time": "약 4분"
      },
      {
        "music_room_lat": 37.57293915,
        "music_room_lon": 127.0667877,
        "music_room_type": "노래방",
        "music_room_name": "와와 노래연습장",
        "distance": 299.8731419739385,
        "walking_time": "약 5분"
      },
      {
        "music_room_lat": 37.5726397,
        "music_room_lon": 127.0710272,
        "music_room_type": "노래방",
        "music_room_name": "VIP",
        "distance": 303.4396140390764,
        "walking_time": "약 5분"
      },
      {
        "music_room_lat": 37.57785299,
        "music_room_lon": 127.0683667,
        "music_room_type": "노래방",
        "music_room_name": "샤방샤방 노래연습장",
        "distance": 334.0071812985966,
        "walking_time": "약 5분"
      },
      {
        "music_room_lat": 37.5721698,
        "music_room_lon": 127.070783,
        "music_room_type": "노래방",
        "music_room_name": "코요테",
        "distance": 338.17959847555784,
        "walking_time": "약 6분"
      }
    ],
    "outdoor_sports": [
      {
        "outdoor_sports_lat": 37.5733867136797,
        "outdoor_sports_lon": 127.078974888785,
        "outdoor_sports_type": "야외 체육시설",
        "outdoor_sports_name": "두원 A 뒤 제방",
        "distance": 885.4292524533325,
        "walking_time": "약 14분"
      },
      {
        "outdoor_sports_lat": 37.5752190168167,
        "outdoor_sports_lon": 127.079585178029,
        "outdoor_sports_type": "야외 체육시설",
        "outdoor_sports_name": "면목 삼익 A 뒤 제방",
        "distance": 923.5409827651948,
        "walking_time": "약 14분"
      },
      {
        "outdoor_sports_lat": 37.5804759981669,
        "outdoor_sports_lon": 127.079255215388,
        "outdoor_sports_type": "야외 체육시설",
        "outdoor_sports_name": "신우 A 제방 하단",
        "distance": 1087.2779662615176,
        "walking_time": "약 17분"
      },
      {
        "outdoor_sports_lat": 37.5816613098756,
        "outdoor_sports_lon": 127.078904492662,
        "outdoor_sports_type": "야외 체육시설",
        "outdoor_sports_name": "면목5소공원",
        "distance": 1143.8721235413518,
        "walking_time": "약 18분"
      },
      {
        "outdoor_sports_lat": 37.5828550816815,
        "outdoor_sports_lon": 127.077749263309,
        "outdoor_sports_type": "야외 체육시설",
        "outdoor_sports_name": "장안교",
        "distance": 1166.2297669662528,
        "walking_time": "약 18분"
      },
      {
        "outdoor_sports_lat": 37.58345631017,
        "outdoor_sports_lon": 127.077206679555,
        "outdoor_sports_type": "야외 체육시설",
        "outdoor_sports_name": "장안교",
        "distance": 1188.367737892249,
        "walking_time": "약 18분"
      },
      {
        "outdoor_sports_lat": 37.5837608008467,
        "outdoor_sports_lon": 127.076999695188,
        "outdoor_sports_type": "야외 체육시설",
        "outdoor_sports_name": "장안교",
        "distance": 1205.006800689531,
        "walking_time": "약 18분"
      },
      {
        "outdoor_sports_lat": 37.5842711373088,
        "outdoor_sports_lon": 127.076562637302,
        "outdoor_sports_type": "야외 체육시설",
        "outdoor_sports_name": "겸재교",
        "distance": 1230.8241162309926,
        "walking_time": "약 19분"
      },
      {
        "outdoor_sports_lat": 37.5847814757656,
        "outdoor_sports_lon": 127.076119912569,
        "outdoor_sports_type": "야외 체육시설",
        "outdoor_sports_name": "겸재교",
        "distance": 1259.6055058833674,
        "walking_time": "약 19분"
      },
      {
        "outdoor_sports_lat": 37.5846246179085,
        "outdoor_sports_lon": 127.078043884076,
        "outdoor_sports_type": "야외 체육시설",
        "outdoor_sports_name": "송계어린이공원(면목동)",
        "distance": 1336.6883769097535,
        "walking_time": "약 20분"
      }
    ],
    "park": [
      {
        "park_lat": 37.5750896,
        "park_lon": 127.0626512,
        "park_type": "공원",
        "park_name": "답십리근린공원",
        "distance": 569.8246086277354,
        "walking_time": "약 9분"
      },
      {
        "park_lat": 37.5812324,
        "park_lon": 127.0641623,
        "park_type": "공원",
        "park_name": "배봉산근린공원",
        "distance": 827.5789097966745,
        "walking_time": "약 13분"
      }
    ],
    "park_station": [
      {
        "park_station_lat": 37.57739564,
        "park_station_lon": 127.0714104,
        "park_station_type": "주차장",
        "park_station_name": "장안공원지하주차장",
        "distance": 342.7912039613877,
        "walking_time": "약 6분"
      },
      {
        "park_station_lat": 37.57826829,
        "park_station_lon": 127.0705994,
        "park_station_type": "주차장",
        "park_station_name": "장안2동 공영주차장",
        "distance": 395.942995826146,
        "walking_time": "약 6분"
      },
      {
        "park_station_lat": 37.56961476,
        "park_station_lon": 127.0670834,
        "park_station_type": "주차장",
        "park_station_name": "장안1동 공영주차장",
        "distance": 615.161061170704,
        "walking_time": "약 10분"
      },
      {
        "park_station_lat": 37.56936895,
        "park_station_lon": 127.0635339,
        "park_station_type": "주차장",
        "park_station_name": "동답 공영주차장",
        "distance": 788.1079808635652,
        "walking_time": "약 12분"
      },
      {
        "park_station_lat": 37.57111667,
        "park_station_lon": 127.0581633,
        "park_station_type": "주차장",
        "park_station_name": "답십리2동 노외주차장",
        "distance": 1053.0705229151026,
        "walking_time": "약 16분"
      },
      {
        "park_station_lat": 37.56524779,
        "park_station_lon": 127.0680714,
        "park_station_type": "주차장",
        "park_station_name": "신일피혁주변",
        "distance": 1078.0819269471356,
        "walking_time": "약 17분"
      },
      {
        "park_station_lat": 37.56871832,
        "park_station_lon": 127.0588799,
        "park_station_type": "주차장",
        "park_station_name": "중산공영주차장",
        "distance": 1134.4867919245755,
        "walking_time": "약 17분"
      },
      {
        "park_station_lat": 37.56510166,
        "park_station_lon": 127.0633542,
        "park_station_type": "주차장",
        "park_station_name": "장안1동 노외주차장",
        "distance": 1202.7506001135484,
        "walking_time": "약 18분"
      },
      {
        "park_station_lat": 37.57826,
        "park_station_lon": 127.0546329,
        "park_station_type": "주차장",
        "park_station_name": "부군당길공영주차장",
        "distance": 1329.3978611501414,
        "walking_time": "약 20분"
      },
      {
        "park_station_lat": 37.56235114,
        "park_station_lon": 127.0687431,
        "park_station_type": "주차장",
        "park_station_name": "덕원주차장",
        "distance": 1396.6396815489545,
        "walking_time": "약 21분"
      }
    ],
    "pc_room": [
      {
        "pc_room_lat": 37.5727019911814,
        "pc_room_lon": 127.070072727815,
        "pc_room_type": "PC방",
        "pc_room_name": "N-top PC",
        "distance": 259.469576590182,
        "walking_time": "약 4분"
      },
      {
        "pc_room_lat": 37.5772990550675,
        "pc_room_lon": 127.068209922307,
        "pc_room_type": "PC방",
        "pc_room_name": "전곡PC랜드",
        "distance": 277.5290854728556,
        "walking_time": "약 5분"
      },
      {
        "pc_room_lat": 37.5785099656673,
        "pc_room_lon": 127.069336090359,
        "pc_room_type": "PC방",
        "pc_room_name": "아레스PC",
        "distance": 401.0025394556752,
        "walking_time": "약 6분"
      },
      {
        "pc_room_lat": 37.5715487889832,
        "pc_room_lon": 127.071605589345,
        "pc_room_type": "PC방",
        "pc_room_name": "비원PC방",
        "distance": 433.3343232840863,
        "walking_time": "약 7분"
      },
      {
        "pc_room_lat": 37.5706578940268,
        "pc_room_lon": 127.069479588181,
        "pc_room_type": "PC방",
        "pc_room_name": "장안PC",
        "distance": 473.6932616425756,
        "walking_time": "약 8분"
      },
      {
        "pc_room_lat": 37.5708963505639,
        "pc_room_lon": 127.071502974477,
        "pc_room_type": "PC방",
        "pc_room_name": "동해 PC",
        "distance": 493.3031300247588,
        "walking_time": "약 8분"
      },
      {
        "pc_room_lat": 37.5702147932163,
        "pc_room_lon": 127.069311646966,
        "pc_room_type": "PC방",
        "pc_room_name": "놀이터PC방",
        "distance": 522.1543563940796,
        "walking_time": "약 8분"
      },
      {
        "pc_room_lat": 37.5700853011061,
        "pc_room_lon": 127.069955043285,
        "pc_room_type": "PC방",
        "pc_room_name": "I AM PC",
        "distance": 541.3700874497912,
        "walking_time": "약 9분"
      },
      {
        "pc_room_lat": 37.5699615197474,
        "pc_room_lon": 127.06947124402,
        "pc_room_type": "PC방",
        "pc_room_name": "세븐 PC",
        "distance": 550.9289263644478,
        "walking_time": "약 9분"
      },
      {
        "pc_room_lat": 37.5694021792349,
        "pc_room_lon": 127.069168834913,
        "pc_room_type": "PC방",
        "pc_room_name": "바닐라PC",
        "distance": 612.2391117295417,
        "walking_time": "약 10분"
      }
    ],
    "police_office": [
      {
        "police_office_lat": 37.57679364,
        "police_office_lon": 127.0744038,
        "police_office_type": "경찰소",
        "police_office_name": "장안2파출소",
        "distance": 511.23815540335335,
        "walking_time": "약 8분"
      },
      {
        "police_office_lat": 37.5696343,
        "police_office_lon": 127.0650047,
        "police_office_type": "경찰소",
        "police_office_name": "장안1파출소",
        "distance": 689.1806983019153,
        "walking_time": "약 11분"
      },
      {
        "police_office_lat": 37.58467452,
        "police_office_lon": 127.0680238,
        "police_office_type": "경찰소",
        "police_office_name": "휘경파출소",
        "distance": 1090.2208674831047,
        "walking_time": "약 17분"
      },
      {
        "police_office_lat": 37.58094415,
        "police_office_lon": 127.0799363,
        "police_office_type": "경찰소",
        "police_office_name": "용마지구대",
        "distance": 1166.288986825483,
        "walking_time": "약 18분"
      },
      {
        "police_office_lat": 37.5712943,
        "police_office_lon": 127.0510676,
        "police_office_type": "경찰소",
        "police_office_name": "답십리지구대",
        "distance": 1640.3270823195985,
        "walking_time": "약 25분"
      },
      {
        "police_office_lat": 37.58637309,
        "police_office_lon": 127.0542292,
        "police_office_type": "경찰소",
        "police_office_name": "전농2파출소",
        "distance": 1829.0755282380576,
        "walking_time": "약 28분"
      },
      {
        "police_office_lat": 37.56478214,
        "police_office_lon": 127.0517587,
        "police_office_type": "경찰소",
        "police_office_name": "용답파출소",
        "distance": 1899.249224355409,
        "walking_time": "약 29분"
      }
    ],
    "post_office": [
      {
        "post_office_lat": 37.57858062,
        "post_office_lon": 127.0715711,
        "post_office_type": "우체국",
        "post_office_name": "서울장안2동우체국",
        "distance": 462.27370857172303,
        "walking_time": "약 7분"
      },
      {
        "post_office_lat": 37.56712179,
        "post_office_lon": 127.0658005,
        "post_office_type": "우체국",
        "post_office_name": "서울장안동우체국",
        "distance": 913.682829284372,
        "walking_time": "약 14분"
      },
      {
        "post_office_lat": 37.5767537,
        "post_office_lon": 127.0575286,
        "post_office_type": "우체국",
        "post_office_name": "서울전농동우체국",
        "distance": 1041.3254448324662,
        "walking_time": "약 16분"
      },
      {
        "post_office_lat": 37.58257758,
        "post_office_lon": 127.0599881,
        "post_office_type": "우체국",
        "post_office_name": "서울시립대학교우편취급국",
        "distance": 1172.138592043315,
        "walking_time": "약 18분"
      },
      {
        "post_office_lat": 37.56168108,
        "post_office_lon": 127.0608549,
        "post_office_type": "우체국",
        "post_office_name": "서울용답동우체국",
        "distance": 1641.005885465289,
        "walking_time": "약 25분"
      },
      {
        "post_office_lat": 37.56961978,
        "post_office_lon": 127.0515122,
        "post_office_type": "우체국",
        "post_office_name": "서울답십리우편취급국",
        "distance": 1658.8977143980533,
        "walking_time": "약 25분"
      }
    ],
    "school": [
      {
        "school_lat": 37.5715014215127,
        "school_lon": 127.06403409435,
        "school_type": "초등학교",
        "school_name": "서울동답초등학교",
        "distance": 586.3751192832702,
        "walking_time": "약 9분"
      },
      {
        "school_lat": 37.58008416213,
        "school_lon": 127.066871936075,
        "school_type": "초등학교",
        "school_name": "서울배봉초등학교",
        "distance": 608.5036713439314,
        "walking_time": "약 10분"
      },
      {
        "school_lat": 37.5780471818476,
        "school_lon": 127.075133018965,
        "school_type": "고등학교",
        "school_name": "동국대학교사범대학부속고등학교",
        "distance": 635.0575548036787,
        "walking_time": "약 10분"
      },
      {
        "school_lat": 37.5780471818476,
        "school_lon": 127.075133018965,
        "school_type": "중학교",
        "school_name": "동국대학교사범대학부속중학교",
        "distance": 635.0575548036787,
        "walking_time": "약 10분"
      },
      {
        "school_lat": 37.5784502701654,
        "school_lon": 127.076003088926,
        "school_type": "초등학교",
        "school_name": "은석초등학교",
        "distance": 723.7623892583889,
        "walking_time": "약 11분"
      },
      {
        "school_lat": 37.5819005156881,
        "school_lon": 127.067434080061,
        "school_type": "고등학교",
        "school_name": "휘경여자고등학교",
        "distance": 791.4838203246511,
        "walking_time": "약 12분"
      },
      {
        "school_lat": 37.5819005156881,
        "school_lon": 127.067434080061,
        "school_type": "중학교",
        "school_name": "휘경여자중학교",
        "distance": 791.4838203246511,
        "walking_time": "약 12분"
      },
      {
        "school_lat": 37.5790832853249,
        "school_lon": 127.060805297019,
        "school_type": "초등학교",
        "school_name": "서울전동초등학교",
        "distance": 866.9206688266904,
        "walking_time": "약 13분"
      },
      {
        "school_lat": 37.5668596067189,
        "school_lon": 127.070477570556,
        "school_type": "중학교",
        "school_name": "장평중학교",
        "distance": 902.9849799462957,
        "walking_time": "약 14분"
      },
      {
        "school_lat": 37.5728706947252,
        "school_lon": 127.058958260045,
        "school_type": "초등학교",
        "school_name": "서울장평초등학교",
        "distance": 923.159244258372,
        "walking_time": "약 14분"
      }
    ],
    "self_laundromat": [
      {
        "self_laundromat_lat": 37.58667177,
        "self_laundromat_lon": 127.0785794,
        "self_laundromat_type": "셀프 빨래방",
        "self_laundromat_name": "워시앤드라이 코인워시",
        "distance": 1551.4274252788302,
        "walking_time": "약 24분"
      },
      {
        "self_laundromat_lat": 37.58667177,
        "self_laundromat_lon": 127.0785794,
        "self_laundromat_type": "셀프 빨래방",
        "self_laundromat_name": "워시앤드라이 코인워시",
        "distance": 1551.4274252788302,
        "walking_time": "약 24분"
      },
      {
        "self_laundromat_lat": 37.5609927,
        "self_laundromat_lon": 127.0651008,
        "self_laundromat_type": "셀프 빨래방",
        "self_laundromat_name": "AMPM워시큐 장한평역점",
        "distance": 1587.204670696928,
        "walking_time": "약 24분"
      },
      {
        "self_laundromat_lat": 37.5609927,
        "self_laundromat_lon": 127.0651008,
        "self_laundromat_type": "셀프 빨래방",
        "self_laundromat_name": "AMPM워시큐 장한평역점",
        "distance": 1587.204670696928,
        "walking_time": "약 24분"
      },
      {
        "self_laundromat_lat": 37.58895639,
        "self_laundromat_lon": 127.0768358,
        "self_laundromat_type": "셀프 빨래방",
        "self_laundromat_name": "버블클린",
        "distance": 1703.910743215001,
        "walking_time": "약 26분"
      },
      {
        "self_laundromat_lat": 37.58895639,
        "self_laundromat_lon": 127.0768358,
        "self_laundromat_type": "셀프 빨래방",
        "self_laundromat_name": "버블클린",
        "distance": 1703.910743215001,
        "walking_time": "약 26분"
      },
      {
        "self_laundromat_lat": 37.5662759,
        "self_laundromat_lon": 127.0523809,
        "self_laundromat_type": "셀프 빨래방",
        "self_laundromat_name": "AMPM워시큐 답십리점",
        "distance": 1759.5217114012098,
        "walking_time": "약 27분"
      },
      {
        "self_laundromat_lat": 37.5662759,
        "self_laundromat_lon": 127.0523809,
        "self_laundromat_type": "셀프 빨래방",
        "self_laundromat_name": "AMPM워시큐 답십리점",
        "distance": 1759.5217114012098,
        "walking_time": "약 27분"
      },
      {
        "self_laundromat_lat": 37.56490362,
        "self_laundromat_lon": 127.052308,
        "self_laundromat_type": "셀프 빨래방",
        "self_laundromat_name": "코인워시24 셀프빨래방 용답점",
        "distance": 1852.338567389553,
        "walking_time": "약 28분"
      },
      {
        "self_laundromat_lat": 37.56490362,
        "self_laundromat_lon": 127.052308,
        "self_laundromat_type": "셀프 빨래방",
        "self_laundromat_name": "코인워시24 셀프빨래방 용답점",
        "distance": 1852.338567389553,
        "walking_time": "약 28분"
      }
    ],
    "subway": [
      {
        "subway_lat": 37.5620134073184,
        "subway_lon": 127.064178204478,
        "subway_type": "지하철",
        "subway_name": "5호선-장한평역",
        "distance": 1498.328081332875,
        "walking_time": "약 23분"
      },
      {
        "subway_lat": 37.5664458277827,
        "subway_lon": 127.05318095956,
        "subway_type": "지하철",
        "subway_name": "5호선-답십리역",
        "distance": 1690.2681521517654,
        "walking_time": "약 26분"
      },
      {
        "subway_lat": 37.5620049052662,
        "subway_lon": 127.050729309179,
        "subway_type": "지하철",
        "subway_name": "2호선-용답역",
        "distance": 2164.205773892646,
        "walking_time": "약 33분"
      }
    ],
    "supermarket": [
      {
        "supermarket_lat": 37.57506253,
        "supermarket_lon": 127.0725724,
        "supermarket_type": "마트",
        "supermarket_name": "GS THE FRESH 동대문장안점",
        "distance": 305.35454189776345,
        "walking_time": "약 5분"
      },
      {
        "supermarket_lat": 37.57506253,
        "supermarket_lon": 127.0725724,
        "supermarket_type": "마트",
        "supermarket_name": "GS THE FRESH 동대문장안점",
        "distance": 305.35454189776345,
        "walking_time": "약 5분"
      },
      {
        "supermarket_lat": 37.57789377,
        "supermarket_lon": 127.068569,
        "supermarket_type": "마트",
        "supermarket_name": "전곡시장",
        "distance": 335.445923094792,
        "walking_time": "약 6분"
      },
      {
        "supermarket_lat": 37.57192367,
        "supermarket_lon": 127.072387,
        "supermarket_type": "마트",
        "supermarket_name": "(주)형지쇼핑 아트몰링 장안점",
        "distance": 439.7424436607235,
        "walking_time": "약 7분"
      },
      {
        "supermarket_lat": 37.57665904,
        "supermarket_lon": 127.0615677,
        "supermarket_type": "마트",
        "supermarket_name": "롯데쇼핑(주) 롯데슈퍼 전농점",
        "distance": 692.8670040837108,
        "walking_time": "약 11분"
      },
      {
        "supermarket_lat": 37.58146288,
        "supermarket_lon": 127.0707066,
        "supermarket_type": "마트",
        "supermarket_name": "롯데쇼핑(주) 롯데슈퍼 장안점",
        "distance": 742.2752931759427,
        "walking_time": "약 12분"
      },
      {
        "supermarket_lat": 37.57798602,
        "supermarket_lon": 127.0572688,
        "supermarket_type": "마트",
        "supermarket_name": "전농로타리시장",
        "distance": 1098.469157500105,
        "walking_time": "약 17분"
      },
      {
        "supermarket_lat": 37.565949,
        "supermarket_lon": 127.0617272,
        "supermarket_type": "마트",
        "supermarket_name": "노브랜드 동대문 장안점",
        "distance": 1190.01019627403,
        "walking_time": "약 18분"
      },
      {
        "supermarket_lat": 37.565949,
        "supermarket_lon": 127.0617272,
        "supermarket_type": "마트",
        "supermarket_name": "장안위더스빌",
        "distance": 1190.01019627403,
        "walking_time": "약 18분"
      },
      {
        "supermarket_lat": 37.56745985,
        "supermarket_lon": 127.0534875,
        "supermarket_type": "마트",
        "supermarket_name": "이마트에브리데이 답십리점",
        "distance": 1606.9729333667788,
        "walking_time": "약 24분"
      }
    ],
    "theater": [
      {
        "theater_lat": 37.584197400389,
        "theater_lon": 127.05114503929,
        "theater_type": "영화관",
        "theater_name": "롯데시네마청량리",
        "distance": 1890.5203444064573,
        "walking_time": "약 29분"
      }
    ],
    "university": [
      {
        "university_lat": 37.5825775765293,
        "university_lon": 127.059988126984,
        "university_type": "대학교",
        "university_name": "서울시립대학교",
        "distance": 1172.1366799412667,
        "walking_time": "약 18분"
      }
    ]
  }
}