{
  "클러스터_위도": 37.58940837522347,
  "클러스터_경도": 126.91578012391878,
  "클러스터_level": 4.0,
  "facilities": {
    "bus": [
      {
        "bus_lat": 37.58980363,
        "bus_lon": 126.9166597,
        "bus_type": "버스정류장",
        "bus_name": "국민은행",
        "distance": 89.0949925202156,
        "walking_time": "약 2분"
      },
      {
        "bus_lat": 37.58868474,
        "bus_lon": 126.9170369,
        "bus_type": "버스정류장",
        "bus_name": "대림시장",
        "distance": 136.88359379492115,
        "walking_time": "약 3분"
      },
      {
        "bus_lat": 37.59073228,
        "bus_lon": 126.9161468,
        "bus_type": "버스정류장",
        "bus_name": "응암오거리",
        "distance": 150.71505613817672,
        "walking_time": "약 3분"
      },
      {
        "bus_lat": 37.58888545,
        "bus_lon": 126.9141943,
        "bus_type": "버스정류장",
        "bus_name": "와산교",
        "distance": 151.34492924526478,
        "walking_time": "약 3분"
      },
      {
        "bus_lat": 37.59085922,
        "bus_lon": 126.9159858,
        "bus_type": "버스정류장",
        "bus_name": "응암오거리",
        "distance": 162.3412398628546,
        "walking_time": "약 3분"
      },
      {
        "bus_lat": 37.59073618,
        "bus_lon": 126.9165522,
        "bus_type": "버스정류장",
        "bus_name": "응암오거리",
        "distance": 162.56348086493136,
        "walking_time": "약 3분"
      },
      {
        "bus_lat": 37.5878269,
        "bus_lon": 126.9165436,
        "bus_type": "버스정류장",
        "bus_name": "대림시장",
        "distance": 188.2800626711159,
        "walking_time": "약 3분"
      },
      {
        "bus_lat": 37.5911611,
        "bus_lon": 126.9173132,
        "bus_type": "버스정류장",
        "bus_name": "응암3동주민센터",
        "distance": 237.12902736241085,
        "walking_time": "약 4분"
      },
      {
        "bus_lat": 37.590645,
        "bus_lon": 126.913387,
        "bus_type": "버스정류장",
        "bus_name": "새절역",
        "distance": 251.73313224680192,
        "walking_time": "약 4분"
      },
      {
        "bus_lat": 37.59069601,
        "bus_lon": 126.913395,
        "bus_type": "버스정류장",
        "bus_name": "새절역",
        "distance": 254.2928112154638,
        "walking_time": "약 4분"
      }
    ],
    "community_center": [
      {
        "community_center_lat": 37.59222993,
        "community_center_lon": 126.9157173,
        "community_center_type": "주민센터",
        "community_center_name": "응암3동 자치회관",
        "distance": 313.7914031553053,
        "walking_time": "약 5분"
      },
      {
        "community_center_lat": 37.59025708,
        "community_center_lon": 126.9080583,
        "community_center_type": "주민센터",
        "community_center_name": "신사2동 자치회관",
        "distance": 686.8884943944249,
        "walking_time": "약 11분"
      },
      {
        "community_center_lat": 37.59458158,
        "community_center_lon": 126.9230685,
        "community_center_type": "주민센터",
        "community_center_name": "응암2동 자치회관",
        "distance": 862.1309845971989,
        "walking_time": "약 13분"
      },
      {
        "community_center_lat": 37.58435477,
        "community_center_lon": 126.9070273,
        "community_center_type": "주민센터",
        "community_center_name": "증산동 자치회관",
        "distance": 954.2503641044138,
        "walking_time": "약 15분"
      },
      {
        "community_center_lat": 37.58149091,
        "community_center_lon": 126.9111755,
        "community_center_type": "주민센터",
        "community_center_name": "북가좌2동 자치회관",
        "distance": 969.379959273902,
        "walking_time": "약 15분"
      },
      {
        "community_center_lat": 37.59779426,
        "community_center_lon": 126.9117597,
        "community_center_type": "주민센터",
        "community_center_name": "신사1동 자치회관",
        "distance": 997.4823373826156,
        "walking_time": "약 15분"
      },
      {
        "community_center_lat": 37.57843406,
        "community_center_lon": 126.9238669,
        "community_center_type": "주민센터",
        "community_center_name": "남가좌2동 자치회관",
        "distance": 1413.1115210821856,
        "walking_time": "약 22분"
      },
      {
        "community_center_lat": 37.57430267,
        "community_center_lon": 126.9101907,
        "community_center_type": "주민센터",
        "community_center_name": "북가좌1동 자치회관",
        "distance": 1750.4038176419203,
        "walking_time": "약 27분"
      },
      {
        "community_center_lat": 37.5732569,
        "community_center_lon": 126.9197159,
        "community_center_type": "주민센터",
        "community_center_name": "남가좌1동 자치회관",
        "distance": 1829.143589785248,
        "walking_time": "약 28분"
      }
    ],
    "convenience_store": [
      {
        "convenience_store_lat": 37.58820937,
        "convenience_store_lon": 126.9165173,
        "convenience_store_type": "편의점",
        "convenience_store_name": "GS25 응암로점",
        "distance": 148.30413370354648,
        "walking_time": "약 3분"
      },
      {
        "convenience_store_lat": 37.58855423,
        "convenience_store_lon": 126.9140735,
        "convenience_store_type": "편의점",
        "convenience_store_name": "CU 응암와산교점",
        "distance": 177.85590759775428,
        "walking_time": "약 3분"
      },
      {
        "convenience_store_lat": 37.58792089,
        "convenience_store_lon": 126.9183405,
        "convenience_store_type": "편의점",
        "convenience_store_name": "CU 응암대림점",
        "distance": 279.73690244545395,
        "walking_time": "약 5분"
      },
      {
        "convenience_store_lat": 37.59115825,
        "convenience_store_lon": 126.9132975,
        "convenience_store_type": "편의점",
        "convenience_store_name": "GS25 S6새절역점",
        "distance": 292.7615440593513,
        "walking_time": "약 5분"
      },
      {
        "convenience_store_lat": 37.59046622,
        "convenience_store_lon": 126.91272,
        "convenience_store_type": "편의점",
        "convenience_store_name": "세븐일레븐 새절증산로점",
        "distance": 294.1699052281599,
        "walking_time": "약 5분"
      },
      {
        "convenience_store_lat": 37.59208014,
        "convenience_store_lon": 126.9150243,
        "convenience_store_type": "편의점",
        "convenience_store_name": "CU 응암신응교점",
        "distance": 304.4592498718535,
        "walking_time": "약 5분"
      },
      {
        "convenience_store_lat": 37.59197614,
        "convenience_store_lon": 126.9174047,
        "convenience_store_type": "편의점",
        "convenience_store_name": "GS25 응암햇살점",
        "distance": 319.393688371768,
        "walking_time": "약 5분"
      },
      {
        "convenience_store_lat": 37.58978916,
        "convenience_store_lon": 126.9194919,
        "convenience_store_type": "편의점",
        "convenience_store_name": "세븐일레븐 응암백련산점",
        "distance": 329.77741994232395,
        "walking_time": "약 5분"
      },
      {
        "convenience_store_lat": 37.59206982,
        "convenience_store_lon": 126.9136004,
        "convenience_store_type": "편의점",
        "convenience_store_name": "CU 새절역점",
        "distance": 352.7958559922112,
        "walking_time": "약 6분"
      },
      {
        "convenience_store_lat": 37.59182071,
        "convenience_store_lon": 126.9128765,
        "convenience_store_type": "편의점",
        "convenience_store_name": "GS25 새절중앙점",
        "distance": 370.6820240614428,
        "walking_time": "약 6분"
      }
    ],
    "daycare": [
      {
        "daycare_lat": 37.58951064,
        "daycare_lon": 126.9185834,
        "daycare_type": "어린이집",
        "daycare_name": "아이나라어린이집",
        "distance": 247.26126768162703,
        "walking_time": "약 4분"
      },
      {
        "daycare_lat": 37.59157269,
        "daycare_lon": 126.9167712,
        "daycare_type": "어린이집",
        "daycare_name": "서문교회부설어린이집",
        "distance": 256.01374230717386,
        "walking_time": "약 4분"
      },
      {
        "daycare_lat": 37.58853355,
        "daycare_lon": 126.918739,
        "daycare_type": "어린이집",
        "daycare_name": "노랑어린이집",
        "distance": 278.2680398127382,
        "walking_time": "약 5분"
      },
      {
        "daycare_lat": 37.58615444,
        "daycare_lon": 126.915456,
        "daycare_type": "어린이집",
        "daycare_name": "민어린이집",
        "distance": 362.9464807517329,
        "walking_time": "약 6분"
      },
      {
        "daycare_lat": 37.5914624,
        "daycare_lon": 126.9125637,
        "daycare_type": "어린이집",
        "daycare_name": "구립 새솔어린이집",
        "distance": 363.97822610421656,
        "walking_time": "약 6분"
      },
      {
        "daycare_lat": 37.59156659,
        "daycare_lon": 126.91258230755408,
        "daycare_type": "어린이집",
        "daycare_name": "새솔어린이집",
        "distance": 370.10785054847065,
        "walking_time": "약 6분"
      },
      {
        "daycare_lat": 37.59098678,
        "daycare_lon": 126.91951814688848,
        "daycare_type": "어린이집",
        "daycare_name": "성아어린이집",
        "distance": 373.2031873555103,
        "walking_time": "약 6분"
      },
      {
        "daycare_lat": 37.58952777,
        "daycare_lon": 126.9200608,
        "daycare_type": "어린이집",
        "daycare_name": "로얄키즈 어린이집",
        "distance": 377.4084786876838,
        "walking_time": "약 6분"
      },
      {
        "daycare_lat": 37.58689933,
        "daycare_lon": 126.9189631,
        "daycare_type": "어린이집",
        "daycare_name": "유진어린이집",
        "distance": 395.5946836307694,
        "walking_time": "약 6분"
      },
      {
        "daycare_lat": 37.58788794,
        "daycare_lon": 126.9116298,
        "daycare_type": "어린이집",
        "daycare_name": "아이들나라어린이집",
        "distance": 402.8828300703335,
        "walking_time": "약 7분"
      }
    ],
    "education": [
      {
        "education_lat": 37.58596602,
        "education_lon": 126.9196809,
        "education_type": "도서관",
        "education_name": "구립응암정보도서관",
        "distance": 514.4425316310667,
        "walking_time": "약 8분"
      },
      {
        "education_lat": 37.59169631,
        "education_lon": 126.9080482,
        "education_type": "도서관",
        "education_name": "내를 건너서 숲으로 도서관",
        "distance": 727.2106662568215,
        "walking_time": "약 11분"
      },
      {
        "education_lat": 37.58280944,
        "education_lon": 126.9076713,
        "education_type": "도서관",
        "education_name": "구립증산정보도서관",
        "distance": 1024.1773248502134,
        "walking_time": "약 16분"
      },
      {
        "education_lat": 37.57009912,
        "education_lon": 126.9294945,
        "education_type": "미술관/갤러리",
        "education_name": "스페이스애프터",
        "distance": 2463.855480685693,
        "walking_time": "약 37분"
      }
    ],
    "fitness": [
      {
        "fitness_lat": 37.58926614,
        "fitness_lon": 126.9167679,
        "fitness_type": "운동시설",
        "fitness_name": "스포애니 응암오거리점 (주)케이디헬스케어",
        "distance": 88.45950326517352,
        "walking_time": "약 2분"
      },
      {
        "fitness_lat": 37.58999458,
        "fitness_lon": 126.9167459,
        "fitness_type": "운동시설",
        "fitness_name": "스윗 PT샵",
        "distance": 107.19156112546092,
        "walking_time": "약 2분"
      },
      {
        "fitness_lat": 37.59122375,
        "fitness_lon": 126.9170558,
        "fitness_type": "운동시설",
        "fitness_name": "해피짐",
        "distance": 231.0441135670136,
        "walking_time": "약 4분"
      },
      {
        "fitness_lat": 37.59314092,
        "fitness_lon": 126.9138467,
        "fitness_type": "운동시설",
        "fitness_name": "어라운드짐 새절역점",
        "distance": 448.64017238369513,
        "walking_time": "약 7분"
      },
      {
        "fitness_lat": 37.59429231,
        "fitness_lon": 126.9162424,
        "fitness_type": "운동시설",
        "fitness_name": "원트핏",
        "distance": 544.5940212267328,
        "walking_time": "약 9분"
      },
      {
        "fitness_lat": 37.58564686,
        "fitness_lon": 126.9110952,
        "fitness_type": "운동시설",
        "fitness_name": "스퀘어 짐",
        "distance": 587.6649142657338,
        "walking_time": "약 9분"
      },
      {
        "fitness_lat": 37.5932429,
        "fitness_lon": 126.9206411,
        "fitness_type": "운동시설",
        "fitness_name": "브라이언박 트레이닝센터",
        "distance": 604.347834893104,
        "walking_time": "약 10분"
      },
      {
        "fitness_lat": 37.59570741,
        "fitness_lon": 126.913495,
        "fitness_type": "운동시설",
        "fitness_name": "짐박스 피트니스 응암2호점",
        "distance": 728.7835671395923,
        "walking_time": "약 11분"
      },
      {
        "fitness_lat": 37.58294086,
        "fitness_lon": 126.9133311,
        "fitness_type": "운동시설",
        "fitness_name": "STILL WE GO(스틸위고)",
        "distance": 750.833869574839,
        "walking_time": "약 12분"
      },
      {
        "fitness_lat": 37.58308274,
        "fitness_lon": 126.9126859,
        "fitness_type": "운동시설",
        "fitness_name": "성은헬스",
        "distance": 754.3724837311397,
        "walking_time": "약 12분"
      }
    ],
    "gas_station": [
      {
        "gas_station_lat": 37.59058296,
        "gas_station_lon": 126.9176973,
        "gas_station_type": "주유소",
        "gas_station_name": "지에스칼텍스(주) 서부주유소",
        "distance": 213.52627036268203,
        "walking_time": "약 4분"
      },
      {
        "gas_station_lat": 37.58675831,
        "gas_station_lon": 126.9158727,
        "gas_station_type": "주유소",
        "gas_station_name": "제이제이에너지",
        "distance": 294.7866888741666,
        "walking_time": "약 5분"
      },
      {
        "gas_station_lat": 37.59409604,
        "gas_station_lon": 126.9139355,
        "gas_station_type": "주유소",
        "gas_station_name": "지에스칼텍스(주)신사제일주유소",
        "distance": 545.9952608730298,
        "walking_time": "약 9분"
      },
      {
        "gas_station_lat": 37.59561355,
        "gas_station_lon": 126.9143967,
        "gas_station_type": "주유소",
        "gas_station_name": "다회주유소",
        "distance": 700.6675529043454,
        "walking_time": "약 11분"
      },
      {
        "gas_station_lat": 37.58225757,
        "gas_station_lon": 126.9265194,
        "gas_station_type": "주유소",
        "gas_station_name": "㈜미래아스팔트 신우주유소",
        "distance": 1236.006268476363,
        "walking_time": "약 19분"
      },
      {
        "gas_station_lat": 37.57855212,
        "gas_station_lon": 126.9020341,
        "gas_station_type": "주유소",
        "gas_station_name": "타이거주유소",
        "distance": 1710.0882496080628,
        "walking_time": "약 26분"
      },
      {
        "gas_station_lat": 37.57567158,
        "gas_station_lon": 126.9255184,
        "gas_station_type": "주유소",
        "gas_station_name": "남정주유소",
        "distance": 1752.0064214394097,
        "walking_time": "약 27분"
      },
      {
        "gas_station_lat": 37.5732609,
        "gas_station_lon": 126.9224624,
        "gas_station_type": "주유소",
        "gas_station_name": "㈜가재울뉴타운주유소",
        "distance": 1889.609205418572,
        "walking_time": "약 29분"
      }
    ],
    "hospital": [
      {
        "hospital_lat": 37.58926614,
        "hospital_lon": 126.9167679,
        "hospital_type": "병원",
        "hospital_name": "미소를만드는치과의원",
        "distance": 88.45950326517352,
        "walking_time": "약 2분"
      },
      {
        "hospital_lat": 37.58879127,
        "hospital_lon": 126.9167049,
        "hospital_type": "병원",
        "hospital_name": "김우요내과의원",
        "distance": 106.52749841269654,
        "walking_time": "약 2분"
      },
      {
        "hospital_lat": 37.58999458,
        "hospital_lon": 126.9167459,
        "hospital_type": "병원",
        "hospital_name": "서울오거리치과의원",
        "distance": 107.19156112546092,
        "walking_time": "약 2분"
      },
      {
        "hospital_lat": 37.59002567,
        "hospital_lon": 126.9168808,
        "hospital_type": "병원",
        "hospital_name": "송내과의원",
        "distance": 118.81435096892326,
        "walking_time": "약 2분"
      },
      {
        "hospital_lat": 37.59042384,
        "hospital_lon": 126.9164124,
        "hospital_type": "병원",
        "hospital_name": "바른생각치과의원",
        "distance": 125.90994983169918,
        "walking_time": "약 2분"
      },
      {
        "hospital_lat": 37.5901202,
        "hospital_lon": 126.916908,
        "hospital_type": "병원",
        "hospital_name": "김지천안과의원",
        "distance": 127.0468723170637,
        "walking_time": "약 2분"
      },
      {
        "hospital_lat": 37.5901202,
        "hospital_lon": 126.916908,
        "hospital_type": "병원",
        "hospital_name": "이선화의원",
        "distance": 127.0468723170637,
        "walking_time": "약 2분"
      },
      {
        "hospital_lat": 37.58842864,
        "hospital_lon": 126.9165936,
        "hospital_type": "병원",
        "hospital_name": "밝은빛안과의원",
        "distance": 130.40639652055296,
        "walking_time": "약 2분"
      },
      {
        "hospital_lat": 37.58880952,
        "hospital_lon": 126.9171494,
        "hospital_type": "병원",
        "hospital_name": "경희장수한의원",
        "distance": 137.80548443394653,
        "walking_time": "약 3분"
      },
      {
        "hospital_lat": 37.58962535,
        "hospital_lon": 126.9173805,
        "hospital_type": "병원",
        "hospital_name": "한윤갑한의원",
        "distance": 143.05983333226752,
        "walking_time": "약 3분"
      }
    ],
    "music_room": [
      {
        "music_room_lat": 37.58944897,
        "music_room_lon": 126.9164131,
        "music_room_type": "노래방",
        "music_room_name": "보가코인노래연습장",
        "distance": 55.9545917142395,
        "walking_time": "약 1분"
      },
      {
        "music_room_lat": 37.58954195,
        "music_room_lon": 126.9165379,
        "music_room_type": "노래방",
        "music_room_name": "보스코인노래연습장",
        "distance": 68.40052764128681,
        "walking_time": "약 2분"
      },
      {
        "music_room_lat": 37.5887675,
        "music_room_lon": 126.9154503,
        "music_room_type": "노래방",
        "music_room_name": "?노래연습장",
        "distance": 76.95999793643199,
        "walking_time": "약 2분"
      },
      {
        "music_room_lat": 37.58857392,
        "music_room_lon": 126.9153957,
        "music_room_type": "노래방",
        "music_room_name": "짱노래연습장",
        "distance": 98.77646031976946,
        "walking_time": "약 2분"
      },
      {
        "music_room_lat": 37.58831198,
        "music_room_lon": 126.9159961,
        "music_room_type": "노래방",
        "music_room_name": "부킹노래연습장",
        "distance": 123.38988957953472,
        "walking_time": "약 2분"
      },
      {
        "music_room_lat": 37.58825677,
        "music_room_lon": 126.916272,
        "music_room_type": "노래방",
        "music_room_name": "장군노래연습장",
        "distance": 135.18819066949175,
        "walking_time": "약 3분"
      },
      {
        "music_room_lat": 37.58866033,
        "music_room_lon": 126.9143952,
        "music_room_type": "노래방",
        "music_room_name": "동경노래연습장",
        "distance": 147.6804253888413,
        "walking_time": "약 3분"
      },
      {
        "music_room_lat": 37.58820937,
        "music_room_lon": 126.9165173,
        "music_room_type": "노래방",
        "music_room_name": "드루와노래연습장",
        "distance": 148.30413370354648,
        "walking_time": "약 3분"
      },
      {
        "music_room_lat": 37.58790373,
        "music_room_lon": 126.9163618,
        "music_room_type": "노래방",
        "music_room_name": "항아리노래연습장",
        "distance": 174.9831640290707,
        "walking_time": "약 3분"
      },
      {
        "music_room_lat": 37.59009879,
        "music_room_lon": 126.9177271,
        "music_room_type": "노래방",
        "music_room_name": "큐노래연습장",
        "distance": 187.94399991914443,
        "walking_time": "약 3분"
      }
    ],
    "park": [
      {
        "park_lat": 37.5920771,
        "park_lon": 126.9102948,
        "park_type": "공원",
        "park_name": "신사근린공원",
        "distance": 567.1399813379428,
        "walking_time": "약 9분"
      },
      {
        "park_lat": 37.5879662,
        "park_lon": 126.928616,
        "park_type": "공원",
        "park_name": "백련근린공원",
        "distance": 1142.3067403574364,
        "walking_time": "약 18분"
      }
    ],
    "park_station": [
      {
        "park_station_lat": 37.59346342,
        "park_station_lon": 126.9153809,
        "park_station_type": "주차장",
        "park_station_name": "응암3동 공동주차장",
        "distance": 452.27034509355866,
        "walking_time": "약 7분"
      },
      {
        "park_station_lat": 37.58649672,
        "park_station_lon": 126.9210425,
        "park_station_type": "주차장",
        "park_station_name": "매바위 공영주차장",
        "distance": 565.5291912112727,
        "walking_time": "약 9분"
      },
      {
        "park_station_lat": 37.57419989,
        "park_station_lon": 126.9239531,
        "park_station_type": "주차장",
        "park_station_name": "모래내로 관광버스 주차허용 구간",
        "distance": 1838.078953385237,
        "walking_time": "약 28분"
      }
    ],
    "pc_room": [
      {
        "pc_room_lat": 37.5894477039485,
        "pc_room_lon": 126.915644119577,
        "pc_room_type": "PC방",
        "pc_room_name": "패스터PC 응암오거리점",
        "distance": 12.75651147594987,
        "walking_time": "약 1분"
      },
      {
        "pc_room_lat": 37.5894477039485,
        "pc_room_lon": 126.915644119577,
        "pc_room_type": "PC방",
        "pc_room_name": "아이센스리그PC 응암오거리점",
        "distance": 12.75651147594987,
        "walking_time": "약 1분"
      },
      {
        "pc_room_lat": 37.588451560032,
        "pc_room_lon": 126.916267179284,
        "pc_room_type": "PC방",
        "pc_room_name": "오거리PC방",
        "distance": 114.72223032526686,
        "walking_time": "약 2분"
      },
      {
        "pc_room_lat": 37.5864683029721,
        "pc_room_lon": 126.915771344884,
        "pc_room_type": "PC방",
        "pc_room_name": "PC나라",
        "distance": 326.9220334844632,
        "walking_time": "약 5분"
      },
      {
        "pc_room_lat": 37.5940200104603,
        "pc_room_lon": 126.916464984026,
        "pc_room_type": "PC방",
        "pc_room_name": "드림PC",
        "distance": 516.3285635258376,
        "walking_time": "약 8분"
      },
      {
        "pc_room_lat": 37.5942237088269,
        "pc_room_lon": 126.917854566217,
        "pc_room_type": "PC방",
        "pc_room_name": "탐스PC카페(응암점)",
        "distance": 565.7769928685733,
        "walking_time": "약 9분"
      },
      {
        "pc_room_lat": 37.5932429037821,
        "pc_room_lon": 126.920641115636,
        "pc_room_type": "PC방",
        "pc_room_name": "ZERO100PC 응암점",
        "distance": 604.3491079318787,
        "walking_time": "약 10분"
      },
      {
        "pc_room_lat": 37.5830827425525,
        "pc_room_lon": 126.912685857624,
        "pc_room_type": "PC방",
        "pc_room_name": "제로100PC 북가좌점",
        "distance": 754.3735686348322,
        "walking_time": "약 12분"
      },
      {
        "pc_room_lat": 37.5836644590608,
        "pc_room_lon": 126.911163441601,
        "pc_room_type": "PC방",
        "pc_room_name": "더쉐프PC 카페",
        "distance": 757.2410983013932,
        "walking_time": "약 12분"
      },
      {
        "pc_room_lat": 37.5954023196607,
        "pc_room_lon": 126.910217688373,
        "pc_room_type": "PC방",
        "pc_room_name": "따봉PC",
        "distance": 827.2896070978605,
        "walking_time": "약 13분"
      }
    ],
    "police_office": [
      {
        "police_office_lat": 37.59052753,
        "police_office_lon": 126.9175368,
        "police_office_type": "경찰소",
        "police_office_name": "응암3파출소",
        "distance": 198.604431046354,
        "walking_time": "약 3분"
      },
      {
        "police_office_lat": 37.59177969,
        "police_office_lon": 126.9053575,
        "police_office_type": "경찰소",
        "police_office_name": "신사지구대",
        "distance": 955.4394217732712,
        "walking_time": "약 15분"
      },
      {
        "police_office_lat": 37.58132332,
        "police_office_lon": 126.9105668,
        "police_office_type": "경찰소",
        "police_office_name": "북가좌파출소",
        "distance": 1009.5834953674374,
        "walking_time": "약 16분"
      },
      {
        "police_office_lat": 37.57604086,
        "police_office_lon": 126.9240383,
        "police_office_type": "경찰소",
        "police_office_name": "남가좌파출소",
        "distance": 1654.9729877281616,
        "walking_time": "약 25분"
      }
    ],
    "post_office": [
      {
        "post_office_lat": 37.5925615,
        "post_office_lon": 126.9061721,
        "post_office_type": "우체국",
        "post_office_name": "서울신사미성우편취급국",
        "distance": 916.2888755981028,
        "walking_time": "약 14분"
      },
      {
        "post_office_lat": 37.58037702,
        "post_office_lon": 126.9213485,
        "post_office_type": "우체국",
        "post_office_name": "명지대학교우편취급국",
        "distance": 1117.699667089733,
        "walking_time": "약 17분"
      },
      {
        "post_office_lat": 37.57608074,
        "post_office_lon": 126.9124174,
        "post_office_type": "우체국",
        "post_office_name": "서울모래내우체국",
        "distance": 1511.299774100483,
        "walking_time": "약 23분"
      }
    ],
    "public_health_center": [
      {
        "public_health_center_lat": 37.58803458,
        "public_health_center_lon": 126.9195084,
        "public_health_center_type": "보건소",
        "public_health_center_name": "응암보건지소",
        "distance": 362.28619888395673,
        "walking_time": "약 6분"
      },
      {
        "public_health_center_lat": 37.57430267,
        "public_health_center_lon": 126.9101907,
        "public_health_center_type": "보건소",
        "public_health_center_name": "북가좌1동주민센터",
        "distance": 1750.4038176419203,
        "walking_time": "약 27분"
      }
    ],
    "school": [
      {
        "school_lat": 37.5895224059645,
        "school_lon": 126.919265533812,
        "school_type": "고등학교",
        "school_name": "은평문화예술정보학교",
        "distance": 307.3648117996706,
        "walking_time": "약 5분"
      },
      {
        "school_lat": 37.5928348327068,
        "school_lon": 126.911983196588,
        "school_type": "초등학교",
        "school_name": "서울신사초등학교",
        "distance": 507.03467541972543,
        "walking_time": "약 8분"
      },
      {
        "school_lat": 37.5887531914177,
        "school_lon": 126.921616096958,
        "school_type": "초등학교",
        "school_name": "서울응암초등학교",
        "distance": 519.3516342970131,
        "walking_time": "약 8분"
      },
      {
        "school_lat": 37.587027156188,
        "school_lon": 126.909283597865,
        "school_type": "중학교",
        "school_name": "연서중학교",
        "distance": 630.6972422692025,
        "walking_time": "약 10분"
      },
      {
        "school_lat": 37.5846402882465,
        "school_lon": 126.921809482886,
        "school_type": "고등학교",
        "school_name": "충암고등학교",
        "distance": 750.5643451364524,
        "walking_time": "약 12분"
      },
      {
        "school_lat": 37.5846402882465,
        "school_lon": 126.921809482886,
        "school_type": "중학교",
        "school_name": "충암중학교",
        "distance": 750.5643451364524,
        "walking_time": "약 12분"
      },
      {
        "school_lat": 37.5846402882465,
        "school_lon": 126.921809482886,
        "school_type": "초등학교",
        "school_name": "충암초등학교",
        "distance": 750.5643451364524,
        "walking_time": "약 12분"
      },
      {
        "school_lat": 37.5922940508202,
        "school_lon": 126.907382316218,
        "school_type": "초등학교",
        "school_name": "서울서신초등학교",
        "distance": 806.5045554136942,
        "walking_time": "약 13분"
      },
      {
        "school_lat": 37.5897854748773,
        "school_lon": 126.906424934661,
        "school_type": "중학교",
        "school_name": "상신중학교",
        "distance": 825.3600324439304,
        "walking_time": "약 13분"
      },
      {
        "school_lat": 37.5905122161631,
        "school_lon": 126.925112608529,
        "school_type": "초등학교",
        "school_name": "서울연은초등학교",
        "distance": 831.3998794761625,
        "walking_time": "약 13분"
      }
    ],
    "self_laundromat": [
      {
        "self_laundromat_lat": 37.58994109,
        "self_laundromat_lon": 126.9195147,
        "self_laundromat_type": "셀프 빨래방",
        "self_laundromat_name": "워시엔조이 은평응암점",
        "distance": 334.3456465126976,
        "walking_time": "약 5분"
      },
      {
        "self_laundromat_lat": 37.58994109,
        "self_laundromat_lon": 126.9195147,
        "self_laundromat_type": "셀프 빨래방",
        "self_laundromat_name": "워시엔조이 은평응암점",
        "distance": 334.3456465126976,
        "walking_time": "약 5분"
      },
      {
        "self_laundromat_lat": 37.58894775,
        "self_laundromat_lon": 126.9113472,
        "self_laundromat_type": "셀프 빨래방",
        "self_laundromat_name": "신사워시24시셀프빨래방",
        "distance": 393.9350756286077,
        "walking_time": "약 6분"
      },
      {
        "self_laundromat_lat": 37.58894775,
        "self_laundromat_lon": 126.9113472,
        "self_laundromat_type": "셀프 빨래방",
        "self_laundromat_name": "신사워시24시셀프빨래방",
        "distance": 393.9350756286077,
        "walking_time": "약 6분"
      },
      {
        "self_laundromat_lat": 37.58712809,
        "self_laundromat_lon": 126.9193639,
        "self_laundromat_type": "셀프 빨래방",
        "self_laundromat_name": "24시셀프빨래터 응암3호점",
        "distance": 404.9750850700016,
        "walking_time": "약 7분"
      },
      {
        "self_laundromat_lat": 37.58712809,
        "self_laundromat_lon": 126.9193639,
        "self_laundromat_type": "셀프 빨래방",
        "self_laundromat_name": "24시셀프빨래터 응암3호점",
        "distance": 404.9750850700016,
        "walking_time": "약 7분"
      },
      {
        "self_laundromat_lat": 37.58591326,
        "self_laundromat_lon": 126.9192107,
        "self_laundromat_type": "셀프 빨래방",
        "self_laundromat_name": "워시피플",
        "distance": 492.354492573616,
        "walking_time": "약 8분"
      },
      {
        "self_laundromat_lat": 37.58591326,
        "self_laundromat_lon": 126.9192107,
        "self_laundromat_type": "셀프 빨래방",
        "self_laundromat_name": "워시피플",
        "distance": 492.354492573616,
        "walking_time": "약 8분"
      },
      {
        "self_laundromat_lat": 37.58507411,
        "self_laundromat_lon": 126.9143956,
        "self_laundromat_type": "셀프 빨래방",
        "self_laundromat_name": "크린업24 북가좌점",
        "distance": 497.1489451018636,
        "walking_time": "약 8분"
      },
      {
        "self_laundromat_lat": 37.58507411,
        "self_laundromat_lon": 126.9143956,
        "self_laundromat_type": "셀프 빨래방",
        "self_laundromat_name": "크린업24 북가좌점",
        "distance": 497.1489451018636,
        "walking_time": "약 8분"
      }
    ],
    "subway": [
      {
        "subway_lat": 37.5918270544017,
        "subway_lon": 126.913911983591,
        "subway_type": "지하철",
        "subway_name": "6호선-새절(신사)역",
        "distance": 315.3171663232305,
        "walking_time": "약 5분"
      },
      {
        "subway_lat": 37.5841954778004,
        "subway_lon": 126.910057587886,
        "subway_type": "지하철",
        "subway_name": "6호선-증산(명지대앞)역",
        "distance": 768.2748384476736,
        "walking_time": "약 12분"
      },
      {
        "subway_lat": 37.5987423282207,
        "subway_lon": 126.915512801302,
        "subway_type": "지하철",
        "subway_name": "6호선-응암역",
        "distance": 1038.155422236486,
        "walking_time": "약 16분"
      },
      {
        "subway_lat": 37.5771614352661,
        "subway_lon": 126.901928562926,
        "subway_type": "지하철",
        "subway_name": "6호선-디지털미디어시티역",
        "distance": 1828.7430312166248,
        "walking_time": "약 28분"
      }
    ],
    "supermarket": [
      {
        "supermarket_lat": 37.59422371,
        "supermarket_lon": 126.9178546,
        "supermarket_type": "마트",
        "supermarket_name": "홈플러스(주)익스프레스응암점",
        "distance": 565.7780779078543,
        "walking_time": "약 9분"
      },
      {
        "supermarket_lat": 37.5944443,
        "supermarket_lon": 126.9184145,
        "supermarket_type": "마트",
        "supermarket_name": "응암시장",
        "distance": 606.1688315954074,
        "walking_time": "약 10분"
      },
      {
        "supermarket_lat": 37.58244893,
        "supermarket_lon": 126.9135894,
        "supermarket_type": "마트",
        "supermarket_name": "홈플러스(주) 익스프레스 북가좌점",
        "distance": 797.5678843694749,
        "walking_time": "약 12분"
      },
      {
        "supermarket_lat": 37.59647072,
        "supermarket_lon": 126.9084607,
        "supermarket_type": "마트",
        "supermarket_name": "GS THE FRESH 은평가좌점",
        "distance": 1016.1579912257696,
        "walking_time": "약 16분"
      },
      {
        "supermarket_lat": 37.58037702,
        "supermarket_lon": 126.9213485,
        "supermarket_type": "마트",
        "supermarket_name": "이마트에브리데이 명지대점",
        "distance": 1117.699667089733,
        "walking_time": "약 17분"
      },
      {
        "supermarket_lat": 37.59882636,
        "supermarket_lon": 126.910344,
        "supermarket_type": "마트",
        "supermarket_name": "홈플러스(주)익스프레스 신사점",
        "distance": 1151.560169145935,
        "walking_time": "약 18분"
      },
      {
        "supermarket_lat": 37.58159851,
        "supermarket_lon": 126.9265386,
        "supermarket_type": "마트",
        "supermarket_name": "롯데프레시 홍은점",
        "distance": 1285.6267289868963,
        "walking_time": "약 20분"
      },
      {
        "supermarket_lat": 37.57789224,
        "supermarket_lon": 126.9102045,
        "supermarket_type": "마트",
        "supermarket_name": "(주)GS리테일 북가좌점",
        "distance": 1371.5538476542715,
        "walking_time": "약 21분"
      },
      {
        "supermarket_lat": 37.57572568,
        "supermarket_lon": 126.9183536,
        "supermarket_type": "마트",
        "supermarket_name": "GS THE FRESH 남가좌디엠씨점",
        "distance": 1538.2537781987658,
        "walking_time": "약 23분"
      },
      {
        "supermarket_lat": 37.57548326,
        "supermarket_lon": 126.9160975,
        "supermarket_type": "마트",
        "supermarket_name": "롯데슈퍼 남가좌점",
        "distance": 1548.654712652354,
        "walking_time": "약 24분"
      }
    ],
    "university": [
      {
        "university_lat": 37.5852831941405,
        "university_lon": 126.925647822893,
        "university_type": "전문대학교(3년제)",
        "university_name": "명지전문대학",
        "distance": 983.055078421866,
        "walking_time": "약 15분"
      },
      {
        "university_lat": 37.5802275436823,
        "university_lon": 126.923120664028,
        "university_type": "대학교",
        "university_name": "명지대학교 인문캠퍼스",
        "distance": 1208.527700267742,
        "walking_time": "약 19분"
      }
    ]
  }
}