{
  "클러스터_위도": 37.47237930031206,
  "클러스터_경도": 126.88921179940048,
  "클러스터_level": 4.0,
  "facilities": {
    "bus": [
      {
        "bus_lat": 37.47357904,
        "bus_lon": 126.8893158,
        "bus_type": "버스정류장",
        "bus_name": "에이스하이엔드타워클래식",
        "distance": 133.72030301214872,
        "walking_time": "약 2분"
      },
      {
        "bus_lat": 37.47360596,
        "bus_lon": 126.889197,
        "bus_type": "버스정류장",
        "bus_name": "성지아트빌",
        "distance": 136.40458655820797,
        "walking_time": "약 3분"
      },
      {
        "bus_lat": 37.47185601,
        "bus_lon": 126.8872684,
        "bus_type": "버스정류장",
        "bus_name": "두산로입구",
        "distance": 181.1065496121145,
        "walking_time": "약 3분"
      },
      {
        "bus_lat": 37.47397043,
        "bus_lon": 126.889936,
        "bus_type": "버스정류장",
        "bus_name": "가산테라타워",
        "distance": 188.1145754281246,
        "walking_time": "약 3분"
      },
      {
        "bus_lat": 37.47191004,
        "bus_lon": 126.887063,
        "bus_type": "버스정류장",
        "bus_name": "두산로입구",
        "distance": 196.6789734582204,
        "walking_time": "약 3분"
      },
      {
        "bus_lat": 37.47057655,
        "bus_lon": 126.8894417,
        "bus_type": "버스정류장",
        "bus_name": "시흥모터스",
        "distance": 201.4808221201049,
        "walking_time": "약 4분"
      },
      {
        "bus_lat": 37.4736651,
        "bus_lon": 126.8874164,
        "bus_type": "버스정류장",
        "bus_name": "온누리아파트",
        "distance": 213.4138159088979,
        "walking_time": "약 4분"
      },
      {
        "bus_lat": 37.47412979,
        "bus_lon": 126.8902582,
        "bus_type": "버스정류장",
        "bus_name": "가산테라타워",
        "distance": 215.4394859740079,
        "walking_time": "약 4분"
      },
      {
        "bus_lat": 37.47041637,
        "bus_lon": 126.8891735,
        "bus_type": "버스정류장",
        "bus_name": "시흥모터스",
        "distance": 218.2940602591821,
        "walking_time": "약 4분"
      },
      {
        "bus_lat": 37.47349206,
        "bus_lon": 126.886709,
        "bus_type": "버스정류장",
        "bus_name": "온누리아파트",
        "distance": 253.1661150179244,
        "walking_time": "약 4분"
      }
    ],
    "community_center": [
      {
        "community_center_lat": 37.47689182,
        "community_center_lon": 126.8917817,
        "community_center_type": "주민센터",
        "community_center_name": "가산동 자치회관",
        "distance": 550.6397363047282,
        "walking_time": "약 9분"
      },
      {
        "community_center_lat": 37.47021905,
        "community_center_lon": 126.8970437,
        "community_center_type": "주민센터",
        "community_center_name": "독산1동 자치회관",
        "distance": 731.7225852500449,
        "walking_time": "약 11분"
      },
      {
        "community_center_lat": 37.48254989,
        "community_center_lon": 126.8896421,
        "community_center_type": "주민센터",
        "community_center_name": "가리봉동 자치회관",
        "distance": 1131.555247609788,
        "walking_time": "약 17분"
      },
      {
        "community_center_lat": 37.46607783,
        "community_center_lon": 126.8997789,
        "community_center_type": "주민센터",
        "community_center_name": "독산2동 자치회관",
        "distance": 1166.4797720781091,
        "walking_time": "약 18분"
      },
      {
        "community_center_lat": 37.48565541,
        "community_center_lon": 126.8866217,
        "community_center_type": "주민센터",
        "community_center_name": "구로4동 자치회관",
        "distance": 1493.8239787471773,
        "walking_time": "약 23분"
      },
      {
        "community_center_lat": 37.48734704,
        "community_center_lon": 126.89033,
        "community_center_type": "주민센터",
        "community_center_name": "구로3동 자치회관",
        "distance": 1667.2590149543094,
        "walking_time": "약 25분"
      }
    ],
    "convenience_store": [
      {
        "convenience_store_lat": 37.47186793,
        "convenience_store_lon": 126.8894005,
        "convenience_store_type": "편의점",
        "convenience_store_name": "GS25 가산두산점",
        "distance": 59.25012975920731,
        "walking_time": "약 1분"
      },
      {
        "convenience_store_lat": 37.47190274,
        "convenience_store_lon": 126.887906,
        "convenience_store_type": "편의점",
        "convenience_store_name": "CU 독산원룸점",
        "distance": 126.83653089594888,
        "walking_time": "약 2분"
      },
      {
        "convenience_store_lat": 37.47243279,
        "convenience_store_lon": 126.8909707,
        "convenience_store_type": "편의점",
        "convenience_store_name": "CU 금천서울점",
        "distance": 155.33593372017307,
        "walking_time": "약 3분"
      },
      {
        "convenience_store_lat": 37.47432213,
        "convenience_store_lon": 126.8906027,
        "convenience_store_type": "편의점",
        "convenience_store_name": "세븐일레븐 가산로점",
        "distance": 248.4681607152988,
        "walking_time": "약 4분"
      },
      {
        "convenience_store_lat": 37.47230855,
        "convenience_store_lon": 126.88611,
        "convenience_store_type": "편의점",
        "convenience_store_name": "미니스톱 가산호서점",
        "distance": 273.8453659792457,
        "walking_time": "약 5분"
      },
      {
        "convenience_store_lat": 37.47524561,
        "convenience_store_lon": 126.8890916,
        "convenience_store_type": "편의점",
        "convenience_store_name": "GS25 금천엘지점",
        "distance": 318.89555864942525,
        "walking_time": "약 5분"
      },
      {
        "convenience_store_lat": 37.47024357,
        "convenience_store_lon": 126.891916,
        "convenience_store_type": "편의점",
        "convenience_store_name": "미니스톱 독산진도점",
        "distance": 336.6758335911554,
        "walking_time": "약 6분"
      },
      {
        "convenience_store_lat": 37.47102309,
        "convenience_store_lon": 126.885098,
        "convenience_store_type": "편의점",
        "convenience_store_name": "GS25 가산엘지점",
        "distance": 393.1191844357353,
        "walking_time": "약 6분"
      },
      {
        "convenience_store_lat": 37.46990664,
        "convenience_store_lon": 126.8855545,
        "convenience_store_type": "편의점",
        "convenience_store_name": "CU 가산이엔씨8차점",
        "distance": 423.9930603302289,
        "walking_time": "약 7분"
      },
      {
        "convenience_store_lat": 37.46880404,
        "convenience_store_lon": 126.8874958,
        "convenience_store_type": "편의점",
        "convenience_store_name": "미니스톱 금천에이스점",
        "distance": 425.41817656949326,
        "walking_time": "약 7분"
      }
    ],
    "daycare": [
      {
        "daycare_lat": 37.4704162,
        "daycare_lon": 126.8920672,
        "daycare_type": "어린이집",
        "daycare_name": "금천G밸리어린이집",
        "distance": 333.38950825598897,
        "walking_time": "약 5분"
      },
      {
        "daycare_lat": 37.47234171,
        "daycare_lon": 126.8930045,
        "daycare_type": "어린이집",
        "daycare_name": "샛별어린이집",
        "distance": 334.7300695770824,
        "walking_time": "약 5분"
      },
      {
        "daycare_lat": 37.47579826,
        "daycare_lon": 126.8902344,
        "daycare_type": "어린이집",
        "daycare_name": "근로복지공단모아래어린이집",
        "distance": 390.7346555445582,
        "walking_time": "약 6분"
      },
      {
        "daycare_lat": 37.46988125940539,
        "daycare_lon": 126.88549186524804,
        "daycare_type": "어린이집",
        "daycare_name": "LG전자가산어린이집",
        "distance": 430.03341964123183,
        "walking_time": "약 7분"
      },
      {
        "daycare_lat": 37.47603828,
        "daycare_lon": 126.8917108,
        "daycare_type": "어린이집",
        "daycare_name": "구립꼬꼬어린이집",
        "distance": 462.78351104729467,
        "walking_time": "약 7분"
      },
      {
        "daycare_lat": 37.47603828,
        "daycare_lon": 126.8917108,
        "daycare_type": "어린이집",
        "daycare_name": "두산어린이집",
        "distance": 462.78351104729467,
        "walking_time": "약 7분"
      },
      {
        "daycare_lat": 37.47598754,
        "daycare_lon": 126.8861231,
        "daycare_type": "어린이집",
        "daycare_name": "구립아이뜰어린이집",
        "distance": 485.0463971877391,
        "walking_time": "약 8분"
      },
      {
        "daycare_lat": 37.46805243665971,
        "daycare_lon": 126.89048543355024,
        "daycare_type": "어린이집",
        "daycare_name": "구립독산1동어린이집",
        "distance": 494.08044331910907,
        "walking_time": "약 8분"
      },
      {
        "daycare_lat": 37.46964691423878,
        "daycare_lon": 126.8842734545618,
        "daycare_type": "어린이집",
        "daycare_name": "구립라온어린이집",
        "distance": 531.2676315592604,
        "walking_time": "약 8분"
      },
      {
        "daycare_lat": 37.47582745,
        "daycare_lon": 126.8936348,
        "daycare_type": "어린이집",
        "daycare_name": "가산중앙어린이집",
        "distance": 547.1352343585773,
        "walking_time": "약 9분"
      }
    ],
    "education": [
      {
        "education_lat": 37.47349155,
        "education_lon": 126.8921298,
        "education_type": "도서관",
        "education_name": "금천구립가산도서관",
        "distance": 285.6700129069556,
        "walking_time": "약 5분"
      },
      {
        "education_lat": 37.4718013,
        "education_lon": 126.896009,
        "education_type": "공연장",
        "education_name": "문화정원아트홀",
        "distance": 603.2850881445377,
        "walking_time": "약 10분"
      },
      {
        "education_lat": 37.46877706,
        "education_lon": 126.8944749,
        "education_type": "공연장",
        "education_name": "금천뮤지컬센터",
        "distance": 613.3351304033413,
        "walking_time": "약 10분"
      },
      {
        "education_lat": 37.4798477,
        "education_lon": 126.8953185,
        "education_type": "박물관/기념관",
        "education_name": "G밸리산업박물관",
        "distance": 989.9709884084464,
        "walking_time": "약 15분"
      },
      {
        "education_lat": 37.48714316,
        "education_lon": 126.8901547,
        "education_type": "도서관",
        "education_name": "꿈마을도서관",
        "distance": 1643.773355067535,
        "walking_time": "약 25분"
      },
      {
        "education_lat": 37.48737738,
        "education_lon": 126.8813503,
        "education_type": "도서관",
        "education_name": "하늘도서관",
        "distance": 1806.2343917679457,
        "walking_time": "약 27분"
      },
      {
        "education_lat": 37.489562316814336,
        "education_lon": 126.88629292183346,
        "education_type": "공연장",
        "education_name": "구로 꿈나무극장",
        "distance": 1927.945793389032,
        "walking_time": "약 29분"
      },
      {
        "education_lat": 37.48989397,
        "education_lon": 126.8865649,
        "education_type": "도서관",
        "education_name": "구로구립꿈나무어린이도서관",
        "distance": 1961.497332185848,
        "walking_time": "약 30분"
      }
    ],
    "electric_gas_station": [
      {
        "electric_gas_station_lat": 37.474417,
        "electric_gas_station_lon": 126.8867632,
        "electric_gas_station_type": "전기차 충전소",
        "electric_gas_station_name": "제일모직아울렛 건너편(공중전화부스)",
        "distance": 313.10052618560184,
        "walking_time": "약 5분"
      },
      {
        "electric_gas_station_lat": 37.46494122,
        "electric_gas_station_lon": 126.8948157,
        "electric_gas_station_type": "전기차 충전소",
        "electric_gas_station_name": "독산1동 공영주차장",
        "distance": 963.6656671606332,
        "walking_time": "약 15분"
      }
    ],
    "fitness": [
      {
        "fitness_lat": 37.47098087,
        "fitness_lon": 126.8880471,
        "fitness_type": "운동시설",
        "fitness_name": "평화체육관(Pyeonghwa gym)",
        "distance": 186.3988007936433,
        "walking_time": "약 3분"
      },
      {
        "fitness_lat": 37.47125268,
        "fitness_lon": 126.8865163,
        "fitness_type": "운동시설",
        "fitness_name": "핫해짐",
        "distance": 268.8489277649776,
        "walking_time": "약 5분"
      },
      {
        "fitness_lat": 37.47011858,
        "fitness_lon": 126.8905282,
        "fitness_type": "운동시설",
        "fitness_name": "더블에스 휘트니스",
        "distance": 276.92686402925267,
        "walking_time": "약 5분"
      },
      {
        "fitness_lat": 37.47530023,
        "fitness_lon": 126.8908539,
        "fitness_type": "운동시설",
        "fitness_name": "에스(s) 휘트니스",
        "distance": 355.65377980676675,
        "walking_time": "약 6분"
      },
      {
        "fitness_lat": 37.46841605,
        "fitness_lon": 126.8876624,
        "fitness_type": "운동시설",
        "fitness_name": "빌드업피트니스PT 독산점",
        "distance": 461.41923051003664,
        "walking_time": "약 7분"
      },
      {
        "fitness_lat": 37.47643941,
        "fitness_lon": 126.8873317,
        "fitness_type": "운동시설",
        "fitness_name": "버핏그라운드 가산",
        "distance": 480.9850365638675,
        "walking_time": "약 8분"
      },
      {
        "fitness_lat": 37.47361934,
        "fitness_lon": 126.8945564,
        "fitness_type": "운동시설",
        "fitness_name": "그린헬스",
        "distance": 491.3963913884705,
        "walking_time": "약 8분"
      },
      {
        "fitness_lat": 37.47127461,
        "fitness_lon": 126.8836766,
        "fitness_type": "운동시설",
        "fitness_name": "RSM 휘트니스",
        "distance": 503.6898433170214,
        "walking_time": "약 8분"
      },
      {
        "fitness_lat": 37.47453555,
        "fitness_lon": 126.8943229,
        "fitness_type": "운동시설",
        "fitness_name": "비기닝PT스튜디오",
        "distance": 510.8119386172605,
        "walking_time": "약 8분"
      },
      {
        "fitness_lat": 37.47544481,
        "fitness_lon": 126.8936809,
        "fitness_type": "운동시설",
        "fitness_name": "스포애니 가산동점",
        "distance": 521.2805960816911,
        "walking_time": "약 8분"
      }
    ],
    "gas_station": [
      {
        "gas_station_lat": 37.47315113,
        "gas_station_lon": 126.8978961,
        "gas_station_type": "주유소",
        "gas_station_name": "SK에너지㈜ 이가주유소",
        "distance": 771.1716488897046,
        "walking_time": "약 12분"
      },
      {
        "gas_station_lat": 37.47682775,
        "gas_station_lon": 126.8991106,
        "gas_station_type": "주유소",
        "gas_station_name": "㈜화동유업",
        "distance": 1003.8637892141865,
        "walking_time": "약 15분"
      },
      {
        "gas_station_lat": 37.48370727,
        "gas_station_lon": 126.8870144,
        "gas_station_type": "주유소",
        "gas_station_name": "영진주유소",
        "distance": 1274.4502048490374,
        "walking_time": "약 20분"
      },
      {
        "gas_station_lat": 37.48094907,
        "gas_station_lon": 126.899232,
        "gas_station_type": "주유소",
        "gas_station_name": "현대오일뱅크(주)직영 구로셀프주유소",
        "distance": 1299.9630757486775,
        "walking_time": "약 20분"
      },
      {
        "gas_station_lat": 37.48153123,
        "gas_station_lon": 126.8997835,
        "gas_station_type": "주유소",
        "gas_station_name": "JHC에너지",
        "distance": 1380.540326723328,
        "walking_time": "약 21분"
      },
      {
        "gas_station_lat": 37.48200922,
        "gas_station_lon": 126.8751883,
        "gas_station_type": "주유소",
        "gas_station_name": "동광석유㈜  구광주유소",
        "distance": 1636.4542990718408,
        "walking_time": "약 25분"
      }
    ],
    "hospital": [
      {
        "hospital_lat": 37.47453259,
        "hospital_lon": 126.8896142,
        "hospital_type": "병원",
        "hospital_name": "가산테라치과의원",
        "distance": 242.05393357775628,
        "walking_time": "약 4분"
      },
      {
        "hospital_lat": 37.47453259,
        "hospital_lon": 126.8896142,
        "hospital_type": "병원",
        "hospital_name": "베스트연내과의원",
        "distance": 242.05393357775628,
        "walking_time": "약 4분"
      },
      {
        "hospital_lat": 37.47453259,
        "hospital_lon": 126.8896142,
        "hospital_type": "병원",
        "hospital_name": "테라경희한의원",
        "distance": 242.05393357775628,
        "walking_time": "약 4분"
      },
      {
        "hospital_lat": 37.46880404,
        "hospital_lon": 126.8874958,
        "hospital_type": "병원",
        "hospital_name": "더튼튼한의원",
        "distance": 425.41817656949326,
        "walking_time": "약 7분"
      },
      {
        "hospital_lat": 37.47615677,
        "hospital_lon": 126.8912894,
        "hospital_type": "병원",
        "hospital_name": "경희바라봄한의원",
        "distance": 458.30588555774887,
        "walking_time": "약 7분"
      },
      {
        "hospital_lat": 37.47615677,
        "hospital_lon": 126.8912894,
        "hospital_type": "병원",
        "hospital_name": "닥터파크한의원",
        "distance": 458.30588555774887,
        "walking_time": "약 7분"
      },
      {
        "hospital_lat": 37.47561964,
        "hospital_lon": 126.8929267,
        "hospital_type": "병원",
        "hospital_name": "미래치과의원",
        "distance": 487.13033282315695,
        "walking_time": "약 8분"
      },
      {
        "hospital_lat": 37.47561964,
        "hospital_lon": 126.8929267,
        "hospital_type": "병원",
        "hospital_name": "한빛내과의원",
        "distance": 487.13033282315695,
        "walking_time": "약 8분"
      },
      {
        "hospital_lat": 37.47421763,
        "hospital_lon": 126.8945836,
        "hospital_type": "병원",
        "hospital_name": "영생한의원",
        "distance": 516.2467703172777,
        "walking_time": "약 8분"
      },
      {
        "hospital_lat": 37.47577276,
        "hospital_lon": 126.8933637,
        "hospital_type": "병원",
        "hospital_name": "마디엔신경외과의원",
        "distance": 525.9536282493146,
        "walking_time": "약 8분"
      }
    ],
    "music_room": [
      {
        "music_room_lat": 37.47196023,
        "music_room_lon": 126.8896414,
        "music_room_type": "노래방",
        "music_room_name": "중앙",
        "distance": 60.07287094022938,
        "walking_time": "약 1분"
      },
      {
        "music_room_lat": 37.47218133,
        "music_room_lon": 126.8906909,
        "music_room_type": "노래방",
        "music_room_name": "뮤직",
        "distance": 132.3732506039707,
        "walking_time": "약 2분"
      },
      {
        "music_room_lat": 37.47216132,
        "music_room_lon": 126.8926554,
        "music_room_type": "노래방",
        "music_room_name": "둘리",
        "distance": 304.8615060844336,
        "walking_time": "약 5분"
      },
      {
        "music_room_lat": 37.4720935,
        "music_room_lon": 126.8936781,
        "music_room_type": "노래방",
        "music_room_name": "웰빙",
        "distance": 395.4285833533449,
        "walking_time": "약 6분"
      },
      {
        "music_room_lat": 37.47361934,
        "music_room_lon": 126.8945564,
        "music_room_type": "노래방",
        "music_room_name": "스타",
        "distance": 491.3963913884705,
        "walking_time": "약 8분"
      },
      {
        "music_room_lat": 37.47219367,
        "music_room_lon": 126.894863,
        "music_room_type": "노래방",
        "music_room_name": "다모아 노래연습장",
        "distance": 499.1431512066436,
        "walking_time": "약 8분"
      },
      {
        "music_room_lat": 37.47205682,
        "music_room_lon": 126.8950781,
        "music_room_type": "노래방",
        "music_room_name": "산울림",
        "distance": 518.9395060393654,
        "walking_time": "약 8분"
      },
      {
        "music_room_lat": 37.47259948,
        "music_room_lon": 126.8951608,
        "music_room_type": "노래방",
        "music_room_name": "디엠헨68",
        "distance": 525.5660473516831,
        "walking_time": "약 8분"
      },
      {
        "music_room_lat": 37.47710413,
        "music_room_lon": 126.8904538,
        "music_room_type": "노래방",
        "music_room_name": "베르사유",
        "distance": 536.687790950245,
        "walking_time": "약 9분"
      },
      {
        "music_room_lat": 37.47622923,
        "music_room_lon": 126.8928887,
        "music_room_type": "노래방",
        "music_room_name": "애플 노래연습장",
        "distance": 537.1667767698592,
        "walking_time": "약 9분"
      }
    ],
    "outdoor_sports": [
      {
        "outdoor_sports_lat": 37.4822615957791,
        "outdoor_sports_lon": 126.889580999202,
        "outdoor_sports_type": "야외 체육시설",
        "outdoor_sports_name": "가리봉동 주민센터 맞은편",
        "distance": 1099.34398002515,
        "walking_time": "약 17분"
      },
      {
        "outdoor_sports_lat": 37.4831569081842,
        "outdoor_sports_lon": 126.885583202317,
        "outdoor_sports_type": "야외 체육시설",
        "outdoor_sports_name": "가리봉",
        "distance": 1240.4541540625112,
        "walking_time": "약 19분"
      },
      {
        "outdoor_sports_lat": 37.4889297964454,
        "outdoor_sports_lon": 126.887502629607,
        "outdoor_sports_type": "야외 체육시설",
        "outdoor_sports_name": "혜원주택 앞",
        "distance": 1846.5006370317724,
        "walking_time": "약 28분"
      },
      {
        "outdoor_sports_lat": 37.489293618839,
        "outdoor_sports_lon": 126.880612294475,
        "outdoor_sports_type": "야외 체육시설",
        "outdoor_sports_name": "솔길어린이공원",
        "distance": 2028.092520204746,
        "walking_time": "약 31분"
      }
    ],
    "park_station": [
      {
        "park_station_lat": 37.4737116,
        "park_station_lon": 126.8894309,
        "park_station_type": "주차장",
        "park_station_name": "요업기술원-LG전자뒤",
        "distance": 149.4014272955735,
        "walking_time": "약 3분"
      },
      {
        "park_station_lat": 37.47199703,
        "park_station_lon": 126.8874809,
        "park_station_type": "주차장",
        "park_station_name": "공유) 02-10구역",
        "distance": 158.55531318194411,
        "walking_time": "약 3분"
      },
      {
        "park_station_lat": 37.4713975,
        "park_station_lon": 126.8913303,
        "park_station_type": "주차장",
        "park_station_name": "사조냉장-무등실업",
        "distance": 216.498454898734,
        "walking_time": "약 4분"
      },
      {
        "park_station_lat": 37.47406777,
        "park_station_lon": 126.8878064,
        "park_station_type": "주차장",
        "park_station_name": "기륭전자",
        "distance": 225.01518144073668,
        "walking_time": "약 4분"
      },
      {
        "park_station_lat": 37.47362206,
        "park_station_lon": 126.8919809,
        "park_station_type": "주차장",
        "park_station_name": "두산공원A~B",
        "distance": 280.73585744206173,
        "walking_time": "약 5분"
      },
      {
        "park_station_lat": 37.47466658,
        "park_station_lon": 126.8872354,
        "park_station_type": "주차장",
        "park_station_name": "LG텔레콤",
        "distance": 308.3923208281759,
        "walking_time": "약 5분"
      },
      {
        "park_station_lat": 37.47125046,
        "park_station_lon": 126.8935137,
        "park_station_type": "주차장",
        "park_station_name": "공유) 02-09구역",
        "distance": 399.8558573891783,
        "walking_time": "약 6분"
      },
      {
        "park_station_lat": 37.47133497,
        "park_station_lon": 126.8848637,
        "park_station_type": "주차장",
        "park_station_name": "세일철강~LG전자연구소",
        "distance": 400.9065357796907,
        "walking_time": "약 6분"
      },
      {
        "park_station_lat": 37.47308694,
        "park_station_lon": 126.894168,
        "park_station_type": "주차장",
        "park_station_name": "두산공원A~B",
        "distance": 444.40164953238224,
        "walking_time": "약 7분"
      },
      {
        "park_station_lat": 37.4747142,
        "park_station_lon": 126.8848549,
        "park_station_type": "주차장",
        "park_station_name": "웅진코웨이~sk트윈타워",
        "distance": 463.9378672869524,
        "walking_time": "약 7분"
      }
    ],
    "pc_room": [
      {
        "pc_room_lat": 37.4721729709167,
        "pc_room_lon": 126.890327938174,
        "pc_room_type": "PC방",
        "pc_room_name": "돼지PC",
        "distance": 101.1354889237382,
        "walking_time": "약 2분"
      },
      {
        "pc_room_lat": 37.473464244273,
        "pc_room_lon": 126.890951102537,
        "pc_room_type": "PC방",
        "pc_room_name": "아이센스PC방(가산점)",
        "distance": 195.2273372252612,
        "walking_time": "약 3분"
      },
      {
        "pc_room_lat": 37.4745325914718,
        "pc_room_lon": 126.889614189767,
        "pc_room_type": "PC방",
        "pc_room_name": "레벨업 PC 카페",
        "distance": 242.05396298162032,
        "walking_time": "약 4분"
      },
      {
        "pc_room_lat": 37.4721508392802,
        "pc_room_lon": 126.894218729672,
        "pc_room_type": "PC방",
        "pc_room_name": "놀토PC방",
        "distance": 442.58937085622296,
        "walking_time": "약 7분"
      },
      {
        "pc_room_lat": 37.4766248371384,
        "pc_room_lon": 126.892559343437,
        "pc_room_type": "PC방",
        "pc_room_name": "리버스PC방",
        "distance": 556.8922864022421,
        "walking_time": "약 9분"
      },
      {
        "pc_room_lat": 37.4767855134829,
        "pc_room_lon": 126.892390322926,
        "pc_room_type": "PC방",
        "pc_room_name": "고고pc방",
        "distance": 564.5590476227172,
        "walking_time": "약 9분"
      },
      {
        "pc_room_lat": 37.4776091156991,
        "pc_room_lon": 126.891984062975,
        "pc_room_type": "PC방",
        "pc_room_name": "옥토끼 PC Cafe",
        "distance": 630.8928215983693,
        "walking_time": "약 10분"
      },
      {
        "pc_room_lat": 37.4715465324496,
        "pc_room_lon": 126.896560213006,
        "pc_room_type": "PC방",
        "pc_room_name": "황금게임랜드",
        "distance": 655.0751828209172,
        "walking_time": "약 10분"
      },
      {
        "pc_room_lat": 37.4780332597461,
        "pc_room_lon": 126.891338804572,
        "pc_room_type": "PC방",
        "pc_room_name": "다조은 PC",
        "distance": 656.1131231254617,
        "walking_time": "약 10분"
      },
      {
        "pc_room_lat": 37.4781332056729,
        "pc_room_lon": 126.892151762982,
        "pc_room_type": "PC방",
        "pc_room_name": "PC게임천국",
        "distance": 690.4055421078455,
        "walking_time": "약 11분"
      }
    ],
    "police_office": [
      {
        "police_office_lat": 37.47920893,
        "police_office_lon": 126.8926603,
        "police_office_type": "경찰소",
        "police_office_name": "가리봉파출소",
        "distance": 818.1236568165473,
        "walking_time": "약 13분"
      },
      {
        "police_office_lat": 37.47993673,
        "police_office_lon": 126.8880557,
        "police_office_type": "경찰소",
        "police_office_name": "가산파출소",
        "distance": 846.5179128165222,
        "walking_time": "약 13분"
      },
      {
        "police_office_lat": 37.46464482,
        "police_office_lon": 126.8947575,
        "police_office_type": "경찰소",
        "police_office_name": "독산파출소",
        "distance": 989.5465748527422,
        "walking_time": "약 15분"
      },
      {
        "police_office_lat": 37.48666065,
        "police_office_lon": 126.8913999,
        "police_office_type": "경찰소",
        "police_office_name": "구로3파출소",
        "distance": 1599.708503821214,
        "walking_time": "약 24분"
      },
      {
        "police_office_lat": 37.48925211,
        "police_office_lon": 126.8907002,
        "police_office_type": "경찰소",
        "police_office_name": "구일지구대",
        "distance": 1880.7621026393333,
        "walking_time": "약 29분"
      }
    ],
    "post_office": [
      {
        "post_office_lat": 37.47844469,
        "post_office_lon": 126.8937442,
        "post_office_type": "우체국",
        "post_office_name": "서울가산동우체국",
        "distance": 784.1190692171274,
        "walking_time": "약 12분"
      },
      {
        "post_office_lat": 37.47019149,
        "post_office_lon": 126.8985251,
        "post_office_type": "우체국",
        "post_office_name": "서울금천우체국",
        "distance": 857.153130572633,
        "walking_time": "약 13분"
      },
      {
        "post_office_lat": 37.47789556,
        "post_office_lon": 126.8806648,
        "post_office_type": "우체국",
        "post_office_name": "서울가산디지털우체국",
        "distance": 972.169661220714,
        "walking_time": "약 15분"
      },
      {
        "post_office_lat": 37.48329888,
        "post_office_lon": 126.8984697,
        "post_office_type": "우체국",
        "post_office_name": "서울구로디지털단지우체국",
        "distance": 1463.4499620002712,
        "walking_time": "약 22분"
      }
    ],
    "public_health_center": [
      {
        "public_health_center_lat": 37.48199214,
        "public_health_center_lon": 126.8923489,
        "public_health_center_type": "보건소",
        "public_health_center_name": "G밸리보건지소",
        "distance": 1104.1647401332243,
        "walking_time": "약 17분"
      }
    ],
    "school": [
      {
        "school_lat": 37.467546675265,
        "school_lon": 126.890946472913,
        "school_type": "초등학교",
        "school_name": "서울두산초등학교",
        "distance": 558.7447107340871,
        "walking_time": "약 9분"
      },
      {
        "school_lat": 37.4745944107703,
        "school_lon": 126.895368861106,
        "school_type": "중학교",
        "school_name": "세일중학교",
        "distance": 596.5708818468737,
        "walking_time": "약 9분"
      },
      {
        "school_lat": 37.468777055274,
        "school_lon": 126.894474890365,
        "school_type": "중학교",
        "school_name": "가산중학교",
        "distance": 613.3348296752947,
        "walking_time": "약 10분"
      },
      {
        "school_lat": 37.4781477195501,
        "school_lon": 126.896184019972,
        "school_type": "초등학교",
        "school_name": "서울가산초등학교",
        "distance": 888.8064278378276,
        "walking_time": "약 14분"
      },
      {
        "school_lat": 37.4748818804257,
        "school_lon": 126.899471333222,
        "school_type": "초등학교",
        "school_name": "서울문성초등학교",
        "distance": 947.1830504898652,
        "walking_time": "약 15분"
      },
      {
        "school_lat": 37.4656561906645,
        "school_lon": 126.899712928109,
        "school_type": "초등학교",
        "school_name": "서울독산초등학교",
        "distance": 1190.6952536854662,
        "walking_time": "약 18분"
      },
      {
        "school_lat": 37.4847045985983,
        "school_lon": 126.890267788001,
        "school_type": "초등학교",
        "school_name": "서울구로남초등학교",
        "distance": 1373.6747939485078,
        "walking_time": "약 21분"
      },
      {
        "school_lat": 37.4856100736284,
        "school_lon": 126.883911257917,
        "school_type": "초등학교",
        "school_name": "서울영일초등학교",
        "distance": 1543.7566019051578,
        "walking_time": "약 24분"
      },
      {
        "school_lat": 37.4879630931966,
        "school_lon": 126.895027399291,
        "school_type": "초등학교",
        "school_name": "서울영서초등학교",
        "distance": 1807.2281649001045,
        "walking_time": "약 27분"
      },
      {
        "school_lat": 37.4897523897016,
        "school_lon": 126.89491012521,
        "school_type": "중학교",
        "school_name": "영서중학교",
        "distance": 1996.1645059222528,
        "walking_time": "약 30분"
      }
    ],
    "subway": [
      {
        "subway_lat": 37.4815957375443,
        "subway_lon": 126.882559483336,
        "subway_type": "지하철",
        "subway_name": "7호선-가산디지털단지역",
        "distance": 1181.0415947151753,
        "walking_time": "약 18분"
      },
      {
        "subway_lat": 37.4853205005175,
        "subway_lon": 126.886331688209,
        "subway_type": "지하철",
        "subway_name": "7호선-남구로역",
        "distance": 1461.2663317455465,
        "walking_time": "약 22분"
      }
    ],
    "supermarket": [
      {
        "supermarket_lat": 37.47643941,
        "supermarket_lon": 126.8873317,
        "supermarket_type": "마트",
        "supermarket_name": "가산퍼블릭 상업시설",
        "distance": 480.9850365638675,
        "walking_time": "약 8분"
      },
      {
        "supermarket_lat": 37.47544481,
        "supermarket_lon": 126.8936809,
        "supermarket_type": "마트",
        "supermarket_name": "홈플러스(주)익스프레스 가산점",
        "distance": 521.2805960816911,
        "walking_time": "약 8분"
      },
      {
        "supermarket_lat": 37.47761902,
        "supermarket_lon": 126.8890553,
        "supermarket_type": "마트",
        "supermarket_name": "현대아울렛",
        "distance": 582.7939036020971,
        "walking_time": "약 9분"
      },
      {
        "supermarket_lat": 37.47068103,
        "supermarket_lon": 126.8956481,
        "supermarket_type": "마트",
        "supermarket_name": "롯데쇼핑(주) 롯데마트맥스 금천점",
        "distance": 598.5747909007018,
        "walking_time": "약 9분"
      },
      {
        "supermarket_lat": 37.47818755,
        "supermarket_lon": 126.8871542,
        "supermarket_type": "마트",
        "supermarket_name": "마리오아울렛 1관",
        "distance": 670.8867280776532,
        "walking_time": "약 11분"
      },
      {
        "supermarket_lat": 37.46935918,
        "supermarket_lon": 126.8970019,
        "supermarket_type": "마트",
        "supermarket_name": "시티렉스",
        "distance": 765.1234139821098,
        "walking_time": "약 12분"
      },
      {
        "supermarket_lat": 37.47844577,
        "supermarket_lon": 126.8850808,
        "supermarket_type": "마트",
        "supermarket_name": "마리오아울렛 3관",
        "distance": 766.762183651166,
        "walking_time": "약 12분"
      },
      {
        "supermarket_lat": 37.46866385,
        "supermarket_lon": 126.8968853,
        "supermarket_type": "마트",
        "supermarket_name": "홈플러스(주) 금천점",
        "distance": 793.2735678179133,
        "walking_time": "약 12분"
      },
      {
        "supermarket_lat": 37.46866385,
        "supermarket_lon": 126.8968853,
        "supermarket_type": "마트",
        "supermarket_name": "삼성테스코(주)홈플러스 금천점",
        "distance": 793.2735678179133,
        "walking_time": "약 12분"
      },
      {
        "supermarket_lat": 37.46866385,
        "supermarket_lon": 126.8968853,
        "supermarket_type": "마트",
        "supermarket_name": "삼성테스코(주)홈플러스 금천점",
        "distance": 793.2735678179133,
        "walking_time": "약 12분"
      }
    ],
    "tax_office": [
      {
        "tax_office_lat": 37.47801956,
        "tax_office_lon": 126.8997992,
        "tax_office_type": "세무서",
        "tax_office_name": "금천세무서",
        "distance": 1125.2785058065451,
        "walking_time": "약 17분"
      }
    ],
    "theater": [
      {
        "theater_lat": 37.4776190161713,
        "theater_lon": 126.88905533739,
        "theater_type": "영화관",
        "theater_name": "롯데시네마 가산디지털",
        "distance": 582.7933998102441,
        "walking_time": "약 9분"
      },
      {
        "theater_lat": 37.4693591753013,
        "theater_lon": 126.897001948519,
        "theater_type": "영화관",
        "theater_name": "롯데시네마 독산",
        "distance": 765.1274907050148,
        "walking_time": "약 12분"
      }
    ]
  }
}