{
  "클러스터_위도": 37.54771877816961,
  "클러스터_경도": 127.13405633304396,
  "클러스터_level": 4.0,
  "facilities": {
    "bus": [
      {
        "bus_lat": 37.54763426,
        "bus_lon": 127.1334688,
        "bus_type": "버스정류장",
        "bus_name": "서울.경기양돈농협",
        "distance": 52.6428861018348,
        "walking_time": "약 1분"
      },
      {
        "bus_lat": 37.54754436,
        "bus_lon": 127.1332864,
        "bus_type": "버스정류장",
        "bus_name": "서울.경기양돈농협",
        "distance": 70.59411882303719,
        "walking_time": "약 2분"
      },
      {
        "bus_lat": 37.54807047,
        "bus_lon": 127.1353379,
        "bus_type": "버스정류장",
        "bus_name": "강동농협",
        "distance": 119.55971124251128,
        "walking_time": "약 2분"
      },
      {
        "bus_lat": 37.54808355,
        "bus_lon": 127.1353709,
        "bus_type": "버스정류장",
        "bus_name": "강동농협",
        "distance": 122.78541509854016,
        "walking_time": "약 2분"
      },
      {
        "bus_lat": 37.5464913,
        "bus_lon": 127.1342129,
        "bus_type": "버스정류장",
        "bus_name": "천호초교입구사거리",
        "distance": 137.1855227780685,
        "walking_time": "약 3분"
      },
      {
        "bus_lat": 37.54840916,
        "bus_lon": 127.1358972,
        "bus_type": "버스정류장",
        "bus_name": "강동농협",
        "distance": 179.53136203619,
        "walking_time": "약 3분"
      },
      {
        "bus_lat": 37.54840012,
        "bus_lon": 127.1359045,
        "bus_type": "버스정류장",
        "bus_name": "강동농협",
        "distance": 179.68721651787996,
        "walking_time": "약 3분"
      },
      {
        "bus_lat": 37.54589692,
        "bus_lon": 127.1336463,
        "bus_type": "버스정류장",
        "bus_name": "천호초교입구사거리",
        "distance": 205.7813847714207,
        "walking_time": "약 4분"
      },
      {
        "bus_lat": 37.54887157,
        "bus_lon": 127.1301482,
        "bus_type": "버스정류장",
        "bus_name": "브라운스톤",
        "distance": 367.61284041820494,
        "walking_time": "약 6분"
      },
      {
        "bus_lat": 37.54460068,
        "bus_lon": 127.132309,
        "bus_type": "버스정류장",
        "bus_name": "천일초교사거리",
        "distance": 379.3989106970353,
        "walking_time": "약 6분"
      }
    ],
    "community_center": [
      {
        "community_center_lat": 37.54500381,
        "community_center_lon": 127.1368198,
        "community_center_type": "주민센터",
        "community_center_name": "천호1동 자치회관",
        "distance": 387.9368534247304,
        "walking_time": "약 6분"
      },
      {
        "community_center_lat": 37.55237984,
        "community_center_lon": 127.1357214,
        "community_center_type": "주민센터",
        "community_center_name": "암사1동 자치회관",
        "distance": 538.6721442663912,
        "walking_time": "약 9분"
      },
      {
        "community_center_lat": 37.5517063,
        "community_center_lon": 127.1272709,
        "community_center_type": "주민센터",
        "community_center_name": "암사2동 자치회관",
        "distance": 744.5998822014972,
        "walking_time": "약 12분"
      },
      {
        "community_center_lat": 37.54345134,
        "community_center_lon": 127.1254311,
        "community_center_type": "주민센터",
        "community_center_name": "천호2동 자치회관",
        "distance": 896.3341722904286,
        "walking_time": "약 14분"
      },
      {
        "community_center_lat": 37.55126175,
        "community_center_lon": 127.1443451,
        "community_center_type": "주민센터",
        "community_center_name": "명일1동 자치회관",
        "distance": 988.9024199511896,
        "walking_time": "약 15분"
      },
      {
        "community_center_lat": 37.55499636,
        "community_center_lon": 127.1407841,
        "community_center_type": "주민센터",
        "community_center_name": "암사3동 자치회관",
        "distance": 1003.3015771476996,
        "walking_time": "약 15분"
      },
      {
        "community_center_lat": 37.53660488,
        "community_center_lon": 127.1331156,
        "community_center_type": "주민센터",
        "community_center_name": "천호3동 자치회관",
        "distance": 1238.5892889348888,
        "walking_time": "약 19분"
      },
      {
        "community_center_lat": 37.53807237,
        "community_center_lon": 127.1220741,
        "community_center_type": "주민센터",
        "community_center_name": "풍납1동 자치회관",
        "distance": 1505.5157735623036,
        "walking_time": "약 23분"
      },
      {
        "community_center_lat": 37.53459123,
        "community_center_lon": 127.1391361,
        "community_center_type": "주민센터",
        "community_center_name": "길동 자치회관",
        "distance": 1526.88052644086,
        "walking_time": "약 23분"
      },
      {
        "community_center_lat": 37.53334613,
        "community_center_lon": 127.1419485,
        "community_center_type": "주민센터",
        "community_center_name": "둔촌2동 자치회관",
        "distance": 1743.0812399437025,
        "walking_time": "약 27분"
      }
    ],
    "convenience_store": [
      {
        "convenience_store_lat": 37.54759343,
        "convenience_store_lon": 127.1337845,
        "convenience_store_type": "편의점",
        "convenience_store_name": "CU 강동은혜점",
        "distance": 27.72343292448093,
        "walking_time": "약 1분"
      },
      {
        "convenience_store_lat": 37.54636523,
        "convenience_store_lon": 127.1347018,
        "convenience_store_type": "편의점",
        "convenience_store_name": "GS25 천호한신점",
        "distance": 160.9060722375122,
        "walking_time": "약 3분"
      },
      {
        "convenience_store_lat": 37.54692892,
        "convenience_store_lon": 127.1324446,
        "convenience_store_type": "편의점",
        "convenience_store_name": "세븐일레븐 천호아마빌레점",
        "distance": 167.04459975070608,
        "walking_time": "약 3분"
      },
      {
        "convenience_store_lat": 37.5489657,
        "convenience_store_lon": 127.1328628,
        "convenience_store_type": "편의점",
        "convenience_store_name": "GS25 암사햇살점",
        "distance": 174.0568249847505,
        "walking_time": "약 3분"
      },
      {
        "convenience_store_lat": 37.54850991,
        "convenience_store_lon": 127.1316346,
        "convenience_store_type": "편의점",
        "convenience_store_name": "GS25 암사상암점",
        "distance": 230.91324908027488,
        "walking_time": "약 4분"
      },
      {
        "convenience_store_lat": 37.54876265,
        "convenience_store_lon": 127.1309753,
        "convenience_store_type": "편의점",
        "convenience_store_name": "CU 암사상암로점",
        "distance": 295.384941611819,
        "walking_time": "약 5분"
      },
      {
        "convenience_store_lat": 37.55009823,
        "convenience_store_lon": 127.1359667,
        "convenience_store_type": "편의점",
        "convenience_store_name": "GS25 암사해리점",
        "distance": 313.63696399203496,
        "walking_time": "약 5분"
      },
      {
        "convenience_store_lat": 37.5454923,
        "convenience_store_lon": 127.1366173,
        "convenience_store_type": "편의점",
        "convenience_store_name": "CU 천호1동점",
        "distance": 335.0653122736094,
        "walking_time": "약 6분"
      },
      {
        "convenience_store_lat": 37.54474909,
        "convenience_store_lon": 127.1324018,
        "convenience_store_type": "편의점",
        "convenience_store_name": "GS25 천호하이빌점",
        "distance": 360.9968491588454,
        "walking_time": "약 6분"
      },
      {
        "convenience_store_lat": 37.547979,
        "convenience_store_lon": 127.1295506,
        "convenience_store_type": "편의점",
        "convenience_store_name": "GS25 천호하이츠점",
        "distance": 398.2792813466714,
        "walking_time": "약 6분"
      }
    ],
    "daycare": [
      {
        "daycare_lat": 37.5479217,
        "daycare_lon": 127.1329487,
        "daycare_type": "어린이집",
        "daycare_name": "예꿈어린이집",
        "distance": 100.2223296217802,
        "walking_time": "약 2분"
      },
      {
        "daycare_lat": 37.54882119178714,
        "daycare_lon": 127.13317058722696,
        "daycare_type": "어린이집",
        "daycare_name": "구립해든어린이집",
        "distance": 145.34149771462052,
        "walking_time": "약 3분"
      },
      {
        "daycare_lat": 37.546282613424566,
        "daycare_lon": 127.13526145193526,
        "daycare_type": "어린이집",
        "daycare_name": "한신리틀어린이집",
        "distance": 191.8077635318576,
        "walking_time": "약 3분"
      },
      {
        "daycare_lat": 37.54645253292461,
        "daycare_lon": 127.1323109,
        "daycare_type": "어린이집",
        "daycare_name": "상미어린이집",
        "distance": 208.57504506359604,
        "walking_time": "약 4분"
      },
      {
        "daycare_lat": 37.54622790880674,
        "daycare_lon": 127.13175148208622,
        "daycare_type": "어린이집",
        "daycare_name": "구립꿈사랑어린이집",
        "distance": 262.2437462482724,
        "walking_time": "약 4분"
      },
      {
        "daycare_lat": 37.54536894437762,
        "daycare_lon": 127.1344273,
        "daycare_type": "어린이집",
        "daycare_name": "아이꿈어린이집",
        "distance": 263.3284617163479,
        "walking_time": "약 4분"
      },
      {
        "daycare_lat": 37.54869215795412,
        "daycare_lon": 127.13727138706568,
        "daycare_type": "어린이집",
        "daycare_name": "윤슬어린이집",
        "distance": 303.4012839179324,
        "walking_time": "약 5분"
      },
      {
        "daycare_lat": 37.55052536,
        "daycare_lon": 127.1349873,
        "daycare_type": "어린이집",
        "daycare_name": "꿈동산어린이집",
        "distance": 322.6893739486823,
        "walking_time": "약 5분"
      },
      {
        "daycare_lat": 37.55024253,
        "daycare_lon": 127.1361087,
        "daycare_type": "어린이집",
        "daycare_name": "루하마어린이집",
        "distance": 333.90059929347666,
        "walking_time": "약 5분"
      },
      {
        "daycare_lat": 37.546846401184446,
        "daycare_lon": 127.13771159061427,
        "daycare_type": "어린이집",
        "daycare_name": "온누리어린이집",
        "distance": 336.53455836905255,
        "walking_time": "약 6분"
      }
    ],
    "education": [
      {
        "education_lat": 37.55283302,
        "education_lon": 127.1333655,
        "education_type": "도서관",
        "education_name": "강동구립암사도서관",
        "distance": 571.9295759667923,
        "walking_time": "약 9분"
      },
      {
        "education_lat": 37.54052322,
        "education_lon": 127.1340815,
        "education_type": "도서관",
        "education_name": "강동구립천호도서관",
        "distance": 800.1126394344808,
        "walking_time": "약 12분"
      },
      {
        "education_lat": 37.54394767,
        "education_lon": 127.1255384,
        "education_type": "도서관",
        "education_name": "강동구립해공도서관",
        "distance": 860.1062768442133,
        "walking_time": "약 13분"
      },
      {
        "education_lat": 37.55073399,
        "education_lon": 127.1248583,
        "education_type": "도서관",
        "education_name": "한국점자도서관",
        "distance": 877.4662098300154,
        "walking_time": "약 14분"
      },
      {
        "education_lat": 37.53808297,
        "education_lon": 127.1435009,
        "education_type": "도서관",
        "education_name": "서울특별시교육청 강동도서관",
        "distance": 1356.976816896432,
        "walking_time": "약 21분"
      },
      {
        "education_lat": 37.55985381,
        "education_lon": 127.1308316,
        "education_type": "박물관/기념관",
        "education_name": "암사동선사유적박물관",
        "distance": 1378.9728193857254,
        "walking_time": "약 21분"
      },
      {
        "education_lat": 37.53284547,
        "education_lon": 127.133343,
        "education_type": "도서관",
        "education_name": "강동구립성내도서관",
        "distance": 1655.0318832152786,
        "walking_time": "약 25분"
      }
    ],
    "fitness": [
      {
        "fitness_lat": 37.54698867,
        "fitness_lon": 127.1343449,
        "fitness_type": "운동시설",
        "fitness_name": "인피티샵 헬스& PT 천호점",
        "distance": 85.07704979969104,
        "walking_time": "약 2분"
      },
      {
        "fitness_lat": 37.54672703,
        "fitness_lon": 127.1348095,
        "fitness_type": "운동시설",
        "fitness_name": "스포애니 천호초교점",
        "distance": 128.7247273450191,
        "walking_time": "약 2분"
      },
      {
        "fitness_lat": 37.54845435,
        "fitness_lon": 127.1360514,
        "fitness_type": "운동시설",
        "fitness_name": "피트니즈 천호점",
        "distance": 193.97292111420032,
        "walking_time": "약 3분"
      },
      {
        "fitness_lat": 37.54942445,
        "fitness_lon": 127.1294904,
        "fitness_type": "운동시설",
        "fitness_name": "차선생바디팩토리 시즌2",
        "distance": 444.9743985303426,
        "walking_time": "약 7분"
      },
      {
        "fitness_lat": 37.55200429,
        "fitness_lon": 127.1347886,
        "fitness_type": "운동시설",
        "fitness_name": "고고 피트니스(암사)",
        "distance": 480.8799358362581,
        "walking_time": "약 8분"
      },
      {
        "fitness_lat": 37.55178928,
        "fitness_lon": 127.1320273,
        "fitness_type": "운동시설",
        "fitness_name": "J Class Gym",
        "distance": 486.6832416387928,
        "walking_time": "약 8분"
      },
      {
        "fitness_lat": 37.5501746,
        "fitness_lon": 127.1281898,
        "fitness_type": "운동시설",
        "fitness_name": "암사점 스포애니 (주)케이디헬스케어",
        "distance": 584.8530259748156,
        "walking_time": "약 9분"
      },
      {
        "fitness_lat": 37.55059189,
        "fitness_lon": 127.1279894,
        "fitness_type": "운동시설",
        "fitness_name": "GOGO GYM",
        "distance": 623.0029025445447,
        "walking_time": "약 10분"
      },
      {
        "fitness_lat": 37.55111181,
        "fitness_lon": 127.1281958,
        "fitness_type": "운동시설",
        "fitness_name": "주식회사 라이언짐",
        "distance": 639.7492559443929,
        "walking_time": "약 10분"
      },
      {
        "fitness_lat": 37.55111181,
        "fitness_lon": 127.1281958,
        "fitness_type": "운동시설",
        "fitness_name": "라이언 컴퍼니",
        "distance": 639.7492559443929,
        "walking_time": "약 10분"
      }
    ],
    "gas_station": [
      {
        "gas_station_lat": 37.5504579,
        "gas_station_lon": 127.1382269,
        "gas_station_type": "주유소",
        "gas_station_name": "구천면주유소",
        "distance": 477.4408508568181,
        "walking_time": "약 8분"
      },
      {
        "gas_station_lat": 37.54517786,
        "gas_station_lon": 127.1294966,
        "gas_station_type": "주유소",
        "gas_station_name": "천호 현대주유소",
        "distance": 491.3524837776042,
        "walking_time": "약 8분"
      },
      {
        "gas_station_lat": 37.55506025,
        "gas_station_lon": 127.1298437,
        "gas_station_type": "주유소",
        "gas_station_name": "㈜삼표에너지 고덕주유소",
        "distance": 896.8372760066819,
        "walking_time": "약 14분"
      },
      {
        "gas_station_lat": 37.5415768,
        "gas_station_lon": 127.124242,
        "gas_station_type": "주유소",
        "gas_station_name": "광성주유소",
        "distance": 1102.327180700736,
        "walking_time": "약 17분"
      },
      {
        "gas_station_lat": 37.55447863,
        "gas_station_lon": 127.1440113,
        "gas_station_type": "주유소",
        "gas_station_name": "현대오일뱅크㈜직영 명일셀프주유소",
        "distance": 1155.4942627132064,
        "walking_time": "약 18분"
      },
      {
        "gas_station_lat": 37.53341993,
        "gas_station_lon": 127.1411846,
        "gas_station_type": "주유소",
        "gas_station_name": "대성석유㈜ 길동주유소",
        "distance": 1709.67027298598,
        "walking_time": "약 26분"
      },
      {
        "gas_station_lat": 37.53232065,
        "gas_station_lon": 127.1330903,
        "gas_station_type": "주유소",
        "gas_station_name": "㈜지유에너지 직영오렌지주유소",
        "distance": 1714.3109719106656,
        "walking_time": "약 26분"
      },
      {
        "gas_station_lat": 37.53641686,
        "gas_station_lon": 127.1493724,
        "gas_station_type": "주유소",
        "gas_station_name": "재건에너지 재정제2주유소 고속셀프지점",
        "distance": 1844.6800638788648,
        "walking_time": "약 28분"
      },
      {
        "gas_station_lat": 37.53326047,
        "gas_station_lon": 127.122008,
        "gas_station_type": "주유소",
        "gas_station_name": "㈜소모에너지앤 성내주유소",
        "distance": 1926.9478276038533,
        "walking_time": "약 29분"
      },
      {
        "gas_station_lat": 37.53133149,
        "gas_station_lon": 127.121249,
        "gas_station_type": "주유소",
        "gas_station_name": "구도일주유소 코알라",
        "distance": 2143.7117031142498,
        "walking_time": "약 32분"
      }
    ],
    "hospital": [
      {
        "hospital_lat": 37.54714841,
        "hospital_lon": 127.1341178,
        "hospital_type": "병원",
        "hospital_name": "우리편한내과의원",
        "distance": 63.65313281093573,
        "walking_time": "약 1분"
      },
      {
        "hospital_lat": 37.54698867,
        "hospital_lon": 127.1343449,
        "hospital_type": "병원",
        "hospital_name": "더나인의원",
        "distance": 85.07704979969104,
        "walking_time": "약 2분"
      },
      {
        "hospital_lat": 37.54698867,
        "hospital_lon": 127.1343449,
        "hospital_type": "병원",
        "hospital_name": "덕인한의원",
        "distance": 85.07704979969104,
        "walking_time": "약 2분"
      },
      {
        "hospital_lat": 37.54698867,
        "hospital_lon": 127.1343449,
        "hospital_type": "병원",
        "hospital_name": "덕인한의원",
        "distance": 85.07704979969104,
        "walking_time": "약 2분"
      },
      {
        "hospital_lat": 37.5482277,
        "hospital_lon": 127.1353175,
        "hospital_type": "병원",
        "hospital_name": "서울돌봄치과의원",
        "distance": 124.75739316711,
        "walking_time": "약 2분"
      },
      {
        "hospital_lat": 37.54672703,
        "hospital_lon": 127.1348095,
        "hospital_type": "병원",
        "hospital_name": "명보한의원",
        "distance": 128.7247273450191,
        "walking_time": "약 2분"
      },
      {
        "hospital_lat": 37.54672703,
        "hospital_lon": 127.1348095,
        "hospital_type": "병원",
        "hospital_name": "미소나눔치과의원",
        "distance": 128.7247273450191,
        "walking_time": "약 2분"
      },
      {
        "hospital_lat": 37.54672703,
        "hospital_lon": 127.1348095,
        "hospital_type": "병원",
        "hospital_name": "서울정형외과의원",
        "distance": 128.7247273450191,
        "walking_time": "약 2분"
      },
      {
        "hospital_lat": 37.54793597,
        "hospital_lon": 127.1355407,
        "hospital_type": "병원",
        "hospital_name": "성일한의원",
        "distance": 133.07212237567612,
        "walking_time": "약 2분"
      },
      {
        "hospital_lat": 37.54805346,
        "hospital_lon": 127.1356133,
        "hospital_type": "병원",
        "hospital_name": "김창환산부인과의원",
        "distance": 142.21805629985798,
        "walking_time": "약 3분"
      }
    ],
    "music_room": [
      {
        "music_room_lat": 37.54739781,
        "music_room_lon": 127.134587,
        "music_room_type": "노래방",
        "music_room_name": "땡겨노래연습장",
        "distance": 58.84314523044308,
        "walking_time": "약 1분"
      },
      {
        "music_room_lat": 37.54729718,
        "music_room_lon": 127.1345003,
        "music_room_type": "노래방",
        "music_room_name": "청개구리",
        "distance": 61.071015606870525,
        "walking_time": "약 1분"
      },
      {
        "music_room_lat": 37.547682,
        "music_room_lon": 127.1348123,
        "music_room_type": "노래방",
        "music_room_name": "정화",
        "distance": 66.77176362936201,
        "walking_time": "약 1분"
      },
      {
        "music_room_lat": 37.54698867,
        "music_room_lon": 127.1343449,
        "music_room_type": "노래방",
        "music_room_name": "썬노래연습장",
        "distance": 85.07704979969104,
        "walking_time": "약 2분"
      },
      {
        "music_room_lat": 37.54667552,
        "music_room_lon": 127.1332769,
        "music_room_type": "노래방",
        "music_room_name": "팡팡노래연습장",
        "distance": 134.82954065929937,
        "walking_time": "약 3분"
      },
      {
        "music_room_lat": 37.54641551,
        "music_room_lon": 127.1339049,
        "music_room_type": "노래방",
        "music_room_name": "울랄라 노래연습장",
        "distance": 145.53047057709887,
        "walking_time": "약 3분"
      },
      {
        "music_room_lat": 37.5481769,
        "music_room_lon": 127.1323581,
        "music_room_type": "노래방",
        "music_room_name": "영",
        "distance": 158.14553850803114,
        "walking_time": "약 3분"
      },
      {
        "music_room_lat": 37.54819801,
        "music_room_lon": 127.1357486,
        "music_room_type": "노래방",
        "music_room_name": "축제 노래연습장",
        "distance": 158.4217399887133,
        "walking_time": "약 3분"
      },
      {
        "music_room_lat": 37.54642281,
        "music_room_lon": 127.1331833,
        "music_room_type": "노래방",
        "music_room_name": "천궁노래연습장",
        "distance": 163.3716525655187,
        "walking_time": "약 3분"
      },
      {
        "music_room_lat": 37.54629592,
        "music_room_lon": 127.1334524,
        "music_room_type": "노래방",
        "music_room_name": "마이다스",
        "distance": 166.93332639598097,
        "walking_time": "약 3분"
      }
    ],
    "park": [
      {
        "park_lat": 37.5444741,
        "park_lon": 127.1263451,
        "park_type": "공원",
        "park_name": "천호근린공원",
        "distance": 769.6453641190411,
        "walking_time": "약 12분"
      },
      {
        "park_lat": 37.5504807,
        "park_lon": 127.1471618,
        "park_type": "공원",
        "park_name": "샛마을근린공원",
        "distance": 1195.4832846529005,
        "walking_time": "약 18분"
      }
    ],
    "park_station": [
      {
        "park_station_lat": 37.54459923,
        "park_station_lon": 127.1366199,
        "park_station_type": "주차장",
        "park_station_name": "천호1동 주차장",
        "distance": 414.0106332817289,
        "walking_time": "약 7분"
      },
      {
        "park_station_lat": 37.55237587,
        "park_station_lon": 127.1350983,
        "park_station_type": "주차장",
        "park_station_name": "볕우물 공영주차장",
        "distance": 525.92890464776,
        "walking_time": "약 8분"
      },
      {
        "park_station_lat": 37.54307844,
        "park_station_lon": 127.1321772,
        "park_station_type": "주차장",
        "park_station_name": "고분다리 전통시장 공영주차장",
        "distance": 541.9263476911956,
        "walking_time": "약 9분"
      },
      {
        "park_station_lat": 37.55289,
        "park_station_lon": 127.1377215,
        "park_station_type": "주차장",
        "park_station_name": "암사1동 주차장",
        "distance": 659.5769696249673,
        "walking_time": "약 10분"
      },
      {
        "park_station_lat": 37.54071205,
        "park_station_lon": 127.1341864,
        "park_station_type": "주차장",
        "park_station_name": "천호3동 제2공영주차장",
        "distance": 779.1970105084223,
        "walking_time": "약 12분"
      },
      {
        "park_station_lat": 37.55088357,
        "park_station_lon": 127.1428872,
        "park_station_type": "주차장",
        "park_station_name": "명일동 주차장",
        "distance": 854.3583229943598,
        "walking_time": "약 13분"
      },
      {
        "park_station_lat": 37.53891769,
        "park_station_lon": 127.1332432,
        "park_station_type": "주차장",
        "park_station_name": "천호3동 주차장",
        "distance": 981.2586956123586,
        "walking_time": "약 15분"
      },
      {
        "park_station_lat": 37.54478899,
        "park_station_lon": 127.1218776,
        "park_station_type": "주차장",
        "park_station_name": "천호유수지 주차장",
        "distance": 1122.0387147058293,
        "walking_time": "약 17분"
      },
      {
        "park_station_lat": 37.55503725,
        "park_station_lon": 127.1233953,
        "park_station_type": "주차장",
        "park_station_name": "광나루1,2주차장",
        "distance": 1243.190867899978,
        "walking_time": "약 19분"
      },
      {
        "park_station_lat": 37.54033859,
        "park_station_lon": 127.1230043,
        "park_station_type": "주차장",
        "park_station_name": "천호2동노외주차장",
        "distance": 1273.933111020527,
        "walking_time": "약 20분"
      }
    ],
    "pc_room": [
      {
        "pc_room_lat": 37.5477400001926,
        "pc_room_lon": 127.133404605734,
        "pc_room_type": "PC방",
        "pc_room_name": "엔젤PC방",
        "distance": 57.505009316622406,
        "walking_time": "약 1분"
      },
      {
        "pc_room_lat": 37.5484151003879,
        "pc_room_lon": 127.135241872797,
        "pc_room_type": "PC방",
        "pc_room_name": "피에스타PC방(강동암사직영점)",
        "distance": 130.07256091560058,
        "walking_time": "약 2분"
      },
      {
        "pc_room_lat": 37.5478916117998,
        "pc_room_lon": 127.132467669442,
        "pc_room_type": "PC방",
        "pc_room_name": "럭키 PC방",
        "distance": 141.36953519377167,
        "walking_time": "약 3분"
      },
      {
        "pc_room_lat": 37.5464228103138,
        "pc_room_lon": 127.133183294497,
        "pc_room_type": "PC방",
        "pc_room_name": "인테크 PC방",
        "distance": 163.37185035234657,
        "walking_time": "약 3분"
      },
      {
        "pc_room_lat": 37.5480212795705,
        "pc_room_lon": 127.132133391881,
        "pc_room_type": "PC방",
        "pc_room_name": "암사PC",
        "distance": 172.83181681895928,
        "walking_time": "약 3분"
      },
      {
        "pc_room_lat": 37.5482728322168,
        "pc_room_lon": 127.132219273556,
        "pc_room_type": "PC방",
        "pc_room_name": "행운PC",
        "distance": 173.27752073330427,
        "walking_time": "약 3분"
      },
      {
        "pc_room_lat": 37.5459525227775,
        "pc_room_lon": 127.133552374339,
        "pc_room_type": "PC방",
        "pc_room_name": "오엑스 피씨(OX PC)천호동점",
        "distance": 201.3614378133467,
        "walking_time": "약 4분"
      },
      {
        "pc_room_lat": 37.5488506615037,
        "pc_room_lon": 127.130092937199,
        "pc_room_type": "PC방",
        "pc_room_name": "싹쓰리PC",
        "distance": 371.3886203141373,
        "walking_time": "약 6분"
      },
      {
        "pc_room_lat": 37.5489067252912,
        "pc_room_lon": 127.129991413909,
        "pc_room_type": "PC방",
        "pc_room_name": "여우 PC방",
        "distance": 381.9322833978821,
        "walking_time": "약 6분"
      },
      {
        "pc_room_lat": 37.5515710167382,
        "pc_room_lon": 127.133428069413,
        "pc_room_type": "PC방",
        "pc_room_name": "놀 PC방",
        "distance": 431.9153491206664,
        "walking_time": "약 7분"
      }
    ],
    "police_office": [
      {
        "police_office_lat": 37.55499636,
        "police_office_lon": 127.1407841,
        "police_office_type": "경찰소",
        "police_office_name": "암사지구대",
        "distance": 1003.3015771476996,
        "walking_time": "약 15분"
      },
      {
        "police_office_lat": 37.54257321,
        "police_office_lon": 127.1207773,
        "police_office_type": "경찰소",
        "police_office_name": "천호지구대",
        "distance": 1303.0609320749077,
        "walking_time": "약 20분"
      }
    ],
    "post_office": [
      {
        "post_office_lat": 37.5401163,
        "post_office_lon": 127.136473,
        "post_office_type": "우체국",
        "post_office_name": "서울천호3동우편취급국",
        "distance": 871.7942976965745,
        "walking_time": "약 14분"
      },
      {
        "post_office_lat": 37.55578284,
        "post_office_lon": 127.1375673,
        "post_office_type": "우체국",
        "post_office_name": "서울암사3동우편취급국",
        "distance": 948.5976388504968,
        "walking_time": "약 15분"
      },
      {
        "post_office_lat": 37.54537547,
        "post_office_lon": 127.1452012,
        "post_office_type": "우체국",
        "post_office_name": "서울명일삼익우편취급국",
        "distance": 1016.514674924069,
        "walking_time": "약 16분"
      },
      {
        "post_office_lat": 37.54072766,
        "post_office_lon": 127.1254701,
        "post_office_type": "우체국",
        "post_office_name": "서울천호동우체국",
        "distance": 1085.065178155252,
        "walking_time": "약 17분"
      },
      {
        "post_office_lat": 37.53637593,
        "post_office_lon": 127.1432061,
        "post_office_type": "우체국",
        "post_office_name": "서울강동우체국",
        "distance": 1497.188806587584,
        "walking_time": "약 23분"
      },
      {
        "post_office_lat": 37.53279964,
        "post_office_lon": 127.1390214,
        "post_office_type": "우체국",
        "post_office_name": "서울둔촌2동우편취급국",
        "distance": 1715.720361412761,
        "walking_time": "약 26분"
      },
      {
        "post_office_lat": 37.53334505,
        "post_office_lon": 127.1211601,
        "post_office_type": "우체국",
        "post_office_name": "서울풍납동우체국",
        "distance": 1961.477471673821,
        "walking_time": "약 30분"
      }
    ],
    "public_health_center": [
      {
        "public_health_center_lat": 37.54684651,
        "public_health_center_lon": 127.1337755,
        "public_health_center_type": "보건소",
        "public_health_center_name": "천호보건지소",
        "distance": 100.10191001317388,
        "walking_time": "약 2분"
      }
    ],
    "school": [
      {
        "school_lat": 37.5477189664877,
        "school_lon": 127.136592330295,
        "school_type": "초등학교",
        "school_name": "서울천호초등학교",
        "distance": 223.5746831281839,
        "walking_time": "약 4분"
      },
      {
        "school_lat": 37.5463638024947,
        "school_lon": 127.130187177341,
        "school_type": "초등학교",
        "school_name": "서울강동초등학교",
        "distance": 372.9023459662649,
        "walking_time": "약 6분"
      },
      {
        "school_lat": 37.5443612197289,
        "school_lon": 127.133436718515,
        "school_type": "초등학교",
        "school_name": "서울천일초등학교",
        "distance": 377.3187277531212,
        "walking_time": "약 6분"
      },
      {
        "school_lat": 37.5465192580007,
        "school_lon": 127.139697961268,
        "school_type": "중학교",
        "school_name": "천호중학교",
        "distance": 514.9464183496658,
        "walking_time": "약 8분"
      },
      {
        "school_lat": 37.5458447527249,
        "school_lon": 127.128196604109,
        "school_type": "중학교",
        "school_name": "천일중학교",
        "distance": 557.047262385476,
        "walking_time": "약 9분"
      },
      {
        "school_lat": 37.5498545397762,
        "school_lon": 127.141541303447,
        "school_type": "고등학교",
        "school_name": "성덕고등학교",
        "distance": 701.3034971720422,
        "walking_time": "약 11분"
      },
      {
        "school_lat": 37.5498545397762,
        "school_lon": 127.141541303447,
        "school_type": "중학교",
        "school_name": "성덕여자중학교",
        "distance": 701.3034971720422,
        "walking_time": "약 11분"
      },
      {
        "school_lat": 37.541015901733,
        "school_lon": 127.137828727405,
        "school_type": "초등학교",
        "school_name": "서울천동초등학교",
        "distance": 816.1662713164321,
        "walking_time": "약 13분"
      },
      {
        "school_lat": 37.5500236743432,
        "school_lon": 127.124404356441,
        "school_type": "초등학교",
        "school_name": "서울신암초등학교",
        "distance": 888.6692378347904,
        "walking_time": "약 14분"
      },
      {
        "school_lat": 37.5553453453104,
        "school_lon": 127.138008577115,
        "school_type": "중학교",
        "school_name": "강일중학교",
        "distance": 916.8187000424548,
        "walking_time": "약 14분"
      }
    ],
    "subway": [
      {
        "subway_lat": 37.5501403417224,
        "subway_lon": 127.127540246626,
        "subway_type": "지하철",
        "subway_name": "8호선-암사역",
        "distance": 634.427986379663,
        "walking_time": "약 10분"
      },
      {
        "subway_lat": 37.5457314720664,
        "subway_lon": 127.142970847846,
        "subway_type": "지하철",
        "subway_name": "5호선-굽은다리(강동구민회관앞)역",
        "distance": 816.3938042822433,
        "walking_time": "약 13분"
      },
      {
        "subway_lat": 37.551257212513,
        "subway_lon": 127.144000696892,
        "subway_type": "지하철",
        "subway_name": "5호선-명일역",
        "distance": 960.9232184466543,
        "walking_time": "약 15분"
      },
      {
        "subway_lat": 37.5572689182034,
        "subway_lon": 127.137592807465,
        "subway_type": "지하철",
        "subway_name": "8호선-암사역사공원역",
        "distance": 1106.7437746252797,
        "walking_time": "약 17분"
      },
      {
        "subway_lat": 37.5378115570072,
        "subway_lon": 127.13999920444,
        "subway_type": "지하철",
        "subway_name": "5호선-길동역",
        "distance": 1219.8892949329388,
        "walking_time": "약 19분"
      },
      {
        "subway_lat": 37.5393391659214,
        "subway_lon": 127.123301730964,
        "subway_type": "지하철",
        "subway_name": "5호선-천호(풍납토성)역",
        "distance": 1329.3791096629316,
        "walking_time": "약 20분"
      },
      {
        "subway_lat": 37.5393391659214,
        "subway_lon": 127.123301730964,
        "subway_type": "지하철",
        "subway_name": "8호선-천호(풍납토성)역",
        "distance": 1329.3791096629316,
        "walking_time": "약 20분"
      },
      {
        "subway_lat": 37.5357793773303,
        "subway_lon": 127.132720388453,
        "subway_type": "지하철",
        "subway_name": "5호선-강동역",
        "distance": 1332.8156826824272,
        "walking_time": "약 20분"
      },
      {
        "subway_lat": 37.5306740877124,
        "subway_lon": 127.12057605164,
        "subway_type": "지하철",
        "subway_name": "8호선-강동구청역",
        "distance": 2237.136919089328,
        "walking_time": "약 34분"
      }
    ],
    "supermarket": [
      {
        "supermarket_lat": 37.55238065,
        "supermarket_lon": 127.1350988,
        "supermarket_type": "마트",
        "supermarket_name": "홈플러스(주) 익스프레스 암사점",
        "distance": 526.4599471726556,
        "walking_time": "약 8분"
      },
      {
        "supermarket_lat": 37.54571459,
        "supermarket_lon": 127.1422553,
        "supermarket_type": "마트",
        "supermarket_name": "홈플러스 강동점",
        "distance": 756.4087404925783,
        "walking_time": "약 12분"
      },
      {
        "supermarket_lat": 37.55525285,
        "supermarket_lon": 127.1403472,
        "supermarket_type": "마트",
        "supermarket_name": "(주)지에스리테일 암사캐슬점",
        "distance": 1004.6802588426142,
        "walking_time": "약 15분"
      },
      {
        "supermarket_lat": 37.54159201,
        "supermarket_lon": 127.1255364,
        "supermarket_type": "마트",
        "supermarket_name": "이천일아울렛 천호점",
        "distance": 1014.0770062121188,
        "walking_time": "약 16분"
      },
      {
        "supermarket_lat": 37.55109534,
        "supermarket_lon": 127.144778,
        "supermarket_type": "마트",
        "supermarket_name": "(주)지에스리테일 명일점",
        "distance": 1017.045418031464,
        "walking_time": "약 16분"
      },
      {
        "supermarket_lat": 37.54260895,
        "supermarket_lon": 127.1436538,
        "supermarket_type": "마트",
        "supermarket_name": "동서울오네뜨상가",
        "distance": 1019.2152096410535,
        "walking_time": "약 16분"
      },
      {
        "supermarket_lat": 37.5385076,
        "supermarket_lon": 127.1363642,
        "supermarket_type": "마트",
        "supermarket_name": "롯데쇼핑㈜롯데슈퍼길동점",
        "distance": 1044.251937158319,
        "walking_time": "약 16분"
      },
      {
        "supermarket_lat": 37.53837539,
        "supermarket_lon": 127.140544,
        "supermarket_type": "마트",
        "supermarket_name": "홈플러스(주)익스프레스 길동점",
        "distance": 1185.9870005640937,
        "walking_time": "약 18분"
      },
      {
        "supermarket_lat": 37.53872905,
        "supermarket_lon": 127.1251462,
        "supermarket_type": "마트",
        "supermarket_name": "(주)이마트천호점",
        "distance": 1271.3547081398635,
        "walking_time": "약 19분"
      },
      {
        "supermarket_lat": 37.53897505,
        "supermarket_lon": 127.124441,
        "supermarket_type": "마트",
        "supermarket_name": "현대백화점 천호점",
        "distance": 1289.9427676720234,
        "walking_time": "약 20분"
      }
    ],
    "tax_office": [
      {
        "tax_office_lat": 37.53459594,
        "tax_office_lon": 127.1381166,
        "tax_office_type": "세무서",
        "tax_office_name": "강동세무서",
        "distance": 1502.4641855933328,
        "walking_time": "약 23분"
      }
    ],
    "theater": [
      {
        "theater_lat": 37.5457145865749,
        "theater_lon": 127.14225531407,
        "theater_type": "영화관",
        "theater_name": "CGV 천호",
        "distance": 756.410038091385,
        "walking_time": "약 12분"
      },
      {
        "theater_lat": 37.5366333948264,
        "theater_lon": 127.125335580215,
        "theater_type": "영화관",
        "theater_name": "롯데시네마",
        "distance": 1452.7828662220347,
        "walking_time": "약 22분"
      }
    ]
  }
}