{
  "클러스터_위도": 37.54323275038552,
  "클러스터_경도": 127.1412002501356,
  "클러스터_level": 4.0,
  "facilities": {
    "bus": [
      {
        "bus_lat": 37.54345768,
        "bus_lon": 127.1419715,
        "bus_type": "버스정류장",
        "bus_name": "십자성마을",
        "distance": 72.45166120778171,
        "walking_time": "약 2분"
      },
      {
        "bus_lat": 37.54297902,
        "bus_lon": 127.1421222,
        "bus_type": "버스정류장",
        "bus_name": "십자성마을",
        "distance": 86.04174537411494,
        "walking_time": "약 2분"
      },
      {
        "bus_lat": 37.54113355,
        "bus_lon": 127.1398826,
        "bus_type": "버스정류장",
        "bus_name": "참잘함한방병원",
        "distance": 260.7322890093639,
        "walking_time": "약 4분"
      },
      {
        "bus_lat": 37.54093176,
        "bus_lon": 127.140039,
        "bus_type": "버스정류장",
        "bus_name": "참잘함한방병원",
        "distance": 275.5831112097689,
        "walking_time": "약 5분"
      },
      {
        "bus_lat": 37.54096431,
        "bus_lon": 127.1427532,
        "bus_type": "버스정류장",
        "bus_name": "강동농협",
        "distance": 287.00415188485783,
        "walking_time": "약 5분"
      },
      {
        "bus_lat": 37.5454039,
        "bus_lon": 127.1430234,
        "bus_type": "버스정류장",
        "bus_name": "굽은다리역",
        "distance": 290.0351983081542,
        "walking_time": "약 5분"
      },
      {
        "bus_lat": 37.54558894,
        "bus_lon": 127.1427437,
        "bus_type": "버스정류장",
        "bus_name": "굽은다리역",
        "distance": 295.2272103484932,
        "walking_time": "약 5분"
      },
      {
        "bus_lat": 37.54569475,
        "bus_lon": 127.1427892,
        "bus_type": "버스정류장",
        "bus_name": "굽은다리역구민회관.강동홈플러스",
        "distance": 307.52299767869704,
        "walking_time": "약 5분"
      },
      {
        "bus_lat": 37.545612,
        "bus_lon": 127.143063,
        "bus_type": "버스정류장",
        "bus_name": "굽은다리역구민회관.강동홈플러스",
        "distance": 311.38904083430435,
        "walking_time": "약 5분"
      },
      {
        "bus_lat": 37.54073313,
        "bus_lon": 127.1431647,
        "bus_type": "버스정류장",
        "bus_name": "강동농협",
        "distance": 327.49315405228947,
        "walking_time": "약 5분"
      }
    ],
    "community_center": [
      {
        "community_center_lat": 37.54500381,
        "community_center_lon": 127.1368198,
        "community_center_type": "주민센터",
        "community_center_name": "천호1동 자치회관",
        "distance": 433.5134048759985,
        "walking_time": "약 7분"
      },
      {
        "community_center_lat": 37.55126175,
        "community_center_lon": 127.1443451,
        "community_center_type": "주민센터",
        "community_center_name": "명일1동 자치회관",
        "distance": 934.843638081079,
        "walking_time": "약 14분"
      },
      {
        "community_center_lat": 37.5463638,
        "community_center_lon": 127.1513524,
        "community_center_type": "주민센터",
        "community_center_name": "명일2동 자치회관",
        "distance": 960.3819644994744,
        "walking_time": "약 15분"
      },
      {
        "community_center_lat": 37.53459123,
        "community_center_lon": 127.1391361,
        "community_center_type": "주민센터",
        "community_center_name": "길동 자치회관",
        "distance": 977.9770109563018,
        "walking_time": "약 15분"
      },
      {
        "community_center_lat": 37.53660488,
        "community_center_lon": 127.1331156,
        "community_center_type": "주민센터",
        "community_center_name": "천호3동 자치회관",
        "distance": 1025.3104688071226,
        "walking_time": "약 16분"
      },
      {
        "community_center_lat": 37.53334613,
        "community_center_lon": 127.1419485,
        "community_center_type": "주민센터",
        "community_center_name": "둔촌2동 자치회관",
        "distance": 1101.3198974517418,
        "walking_time": "약 17분"
      },
      {
        "community_center_lat": 37.55237984,
        "community_center_lon": 127.1357214,
        "community_center_type": "주민센터",
        "community_center_name": "암사1동 자치회관",
        "distance": 1125.9744461568312,
        "walking_time": "약 17분"
      },
      {
        "community_center_lat": 37.55499636,
        "community_center_lon": 127.1407841,
        "community_center_type": "주민센터",
        "community_center_name": "암사3동 자치회관",
        "distance": 1308.5680958196665,
        "walking_time": "약 20분"
      },
      {
        "community_center_lat": 37.55727133,
        "community_center_lon": 127.1515218,
        "community_center_type": "주민센터",
        "community_center_name": "고덕1동 자치회관",
        "distance": 1806.8583751534247,
        "walking_time": "약 27분"
      }
    ],
    "convenience_store": [
      {
        "convenience_store_lat": 37.54341938,
        "convenience_store_lon": 127.1424791,
        "convenience_store_type": "편의점",
        "convenience_store_name": "GS25 강동KT&G점",
        "distance": 114.64450392641692,
        "walking_time": "약 2분"
      },
      {
        "convenience_store_lat": 37.54401424,
        "convenience_store_lon": 127.1432058,
        "convenience_store_type": "편의점",
        "convenience_store_name": "세븐일레븐 길동본점",
        "distance": 197.01900335361023,
        "walking_time": "약 3분"
      },
      {
        "convenience_store_lat": 37.54208123,
        "convenience_store_lon": 127.1431421,
        "convenience_store_type": "편의점",
        "convenience_store_name": "세븐일레븐 길동으뜸점",
        "distance": 213.7909305992249,
        "walking_time": "약 4분"
      },
      {
        "convenience_store_lat": 37.54126225,
        "convenience_store_lon": 127.1408726,
        "convenience_store_type": "편의점",
        "convenience_store_name": "세븐일레븐 천호5호점",
        "distance": 221.00576470998595,
        "walking_time": "약 4분"
      },
      {
        "convenience_store_lat": 37.54260895,
        "convenience_store_lon": 127.1436538,
        "convenience_store_type": "편의점",
        "convenience_store_name": "이마트24 길동오네뜨점",
        "distance": 227.16872835324304,
        "walking_time": "약 4분"
      },
      {
        "convenience_store_lat": 37.54115872,
        "convenience_store_lon": 127.1415503,
        "convenience_store_type": "편의점",
        "convenience_store_name": "GS25 길동타운점",
        "distance": 232.67759577804028,
        "walking_time": "약 4분"
      },
      {
        "convenience_store_lat": 37.54400011,
        "convenience_store_lon": 127.1385903,
        "convenience_store_type": "편의점",
        "convenience_store_name": "GS25 천호타운점",
        "distance": 245.4177508918041,
        "walking_time": "약 4분"
      },
      {
        "convenience_store_lat": 37.54495983,
        "convenience_store_lon": 127.1435854,
        "convenience_store_type": "편의점",
        "convenience_store_name": "CU 강동해오름점",
        "distance": 284.7816236027852,
        "walking_time": "약 5분"
      },
      {
        "convenience_store_lat": 37.54234442,
        "convenience_store_lon": 127.1442457,
        "convenience_store_type": "편의점",
        "convenience_store_name": "CU 강동오네뜨점",
        "distance": 286.09883024955315,
        "walking_time": "약 5분"
      },
      {
        "convenience_store_lat": 37.54576991,
        "convenience_store_lon": 127.140447,
        "convenience_store_type": "편의점",
        "convenience_store_name": "GS25 천호중앙점",
        "distance": 289.8301928680285,
        "walking_time": "약 5분"
      }
    ],
    "daycare": [
      {
        "daycare_lat": 37.54375185,
        "daycare_lon": 127.1403718,
        "daycare_type": "어린이집",
        "daycare_name": "아기둥지어린이집",
        "distance": 93.09502504986696,
        "walking_time": "약 2분"
      },
      {
        "daycare_lat": 37.542442622245005,
        "daycare_lon": 127.14051422592894,
        "daycare_type": "어린이집",
        "daycare_name": "영재아이짐어린이집",
        "distance": 106.664920112802,
        "walking_time": "약 2분"
      },
      {
        "daycare_lat": 37.542486608253256,
        "daycare_lon": 127.14234708689628,
        "daycare_type": "어린이집",
        "daycare_name": "구립아이누리어린이집",
        "distance": 130.7946704900368,
        "walking_time": "약 2분"
      },
      {
        "daycare_lat": 37.54353680279021,
        "daycare_lon": 127.14283596237118,
        "daycare_type": "어린이집",
        "daycare_name": "강동복지관어린이집",
        "distance": 148.123581212285,
        "walking_time": "약 3분"
      },
      {
        "daycare_lat": 37.54358231133353,
        "daycare_lon": 127.1428292598748,
        "daycare_type": "어린이집",
        "daycare_name": "강동한양어린이집",
        "distance": 148.7893417123308,
        "walking_time": "약 3분"
      },
      {
        "daycare_lat": 37.54358231,
        "daycare_lon": 127.1428293,
        "daycare_type": "어린이집",
        "daycare_name": "비네어린이집",
        "distance": 148.7927177952889,
        "walking_time": "약 3분"
      },
      {
        "daycare_lat": 37.544604836612486,
        "daycare_lon": 127.14066765118258,
        "daycare_type": "어린이집",
        "daycare_name": "강동무지개어린이집",
        "distance": 159.63153451554683,
        "walking_time": "약 3분"
      },
      {
        "daycare_lat": 37.54315983,
        "daycare_lon": 127.1393782,
        "daycare_type": "어린이집",
        "daycare_name": "라온어린이집",
        "distance": 160.8470257554048,
        "walking_time": "약 3분"
      },
      {
        "daycare_lat": 37.54320057,
        "daycare_lon": 127.1391571,
        "daycare_type": "어린이집",
        "daycare_name": "소담어린이집",
        "distance": 180.1714699071549,
        "walking_time": "약 3분"
      },
      {
        "daycare_lat": 37.54458642,
        "daycare_lon": 127.1399039,
        "daycare_type": "어린이집",
        "daycare_name": "혜림어린이집",
        "distance": 188.9958798458429,
        "walking_time": "약 3분"
      }
    ],
    "education": [
      {
        "education_lat": 37.53808297,
        "education_lon": 127.1435009,
        "education_type": "도서관",
        "education_name": "서울특별시교육청 강동도서관",
        "distance": 607.495523184404,
        "walking_time": "약 10분"
      },
      {
        "education_lat": 37.54052322,
        "education_lon": 127.1340815,
        "education_type": "도서관",
        "education_name": "강동구립천호도서관",
        "distance": 696.2090695830865,
        "walking_time": "약 11분"
      },
      {
        "education_lat": 37.55283302,
        "education_lon": 127.1333655,
        "education_type": "도서관",
        "education_name": "강동구립암사도서관",
        "distance": 1271.4725305064803,
        "walking_time": "약 19분"
      },
      {
        "education_lat": 37.53284547,
        "education_lon": 127.133343,
        "education_type": "도서관",
        "education_name": "강동구립성내도서관",
        "distance": 1346.8522431915674,
        "walking_time": "약 21분"
      },
      {
        "education_lat": 37.55122046,
        "education_lon": 127.1573425,
        "education_type": "문화예술회관",
        "education_name": "강동아트센터",
        "distance": 1677.5428441884776,
        "walking_time": "약 26분"
      },
      {
        "education_lat": 37.55985381,
        "education_lon": 127.1308316,
        "education_type": "박물관/기념관",
        "education_name": "암사동선사유적박물관",
        "distance": 2061.8589187006182,
        "walking_time": "약 31분"
      },
      {
        "education_lat": 37.55612041,
        "education_lon": 127.1580394,
        "education_type": "도서관",
        "education_name": "서울특별시교육청 고덕평생학습관",
        "distance": 2063.3407298526363,
        "walking_time": "약 31분"
      }
    ],
    "electric_gas_station": [
      {
        "electric_gas_station_lat": 37.55470672,
        "electric_gas_station_lon": 127.1556131,
        "electric_gas_station_type": "전기차 충전소",
        "electric_gas_station_name": "이마트 명일점",
        "distance": 1800.6295302502883,
        "walking_time": "약 27분"
      }
    ],
    "fitness": [
      {
        "fitness_lat": 37.54299161,
        "fitness_lon": 127.1412598,
        "fitness_type": "운동시설",
        "fitness_name": "탑 헬스클럽",
        "distance": 27.322770462360424,
        "walking_time": "약 1분"
      },
      {
        "fitness_lat": 37.54392716,
        "fitness_lon": 127.1425742,
        "fitness_type": "운동시설",
        "fitness_name": "썸바디 휘트니스",
        "distance": 143.65153467603582,
        "walking_time": "약 3분"
      },
      {
        "fitness_lat": 37.54126225,
        "fitness_lon": 127.1408726,
        "fitness_type": "운동시설",
        "fitness_name": "김현진153GYM",
        "distance": 221.00576470998595,
        "walking_time": "약 4분"
      },
      {
        "fitness_lat": 37.54464356,
        "fitness_lon": 127.1441193,
        "fitness_type": "운동시설",
        "fitness_name": "판타짐",
        "distance": 301.40135565218253,
        "walking_time": "약 5분"
      },
      {
        "fitness_lat": 37.5454223,
        "fitness_lon": 127.1432253,
        "fitness_type": "운동시설",
        "fitness_name": "W38 휘트니스",
        "distance": 301.91341031694,
        "walking_time": "약 5분"
      },
      {
        "fitness_lat": 37.54478001,
        "fitness_lon": 127.1442402,
        "fitness_type": "운동시설",
        "fitness_name": "M PT GYM",
        "distance": 318.48591560235707,
        "walking_time": "약 5분"
      },
      {
        "fitness_lat": 37.54592275,
        "fitness_lon": 127.1433492,
        "fitness_type": "운동시설",
        "fitness_name": "트렌디우먼휘트니스 굽은다리역점",
        "distance": 354.0686510990807,
        "walking_time": "약 6분"
      },
      {
        "fitness_lat": 37.54618021,
        "fitness_lon": 127.1441943,
        "fitness_type": "운동시설",
        "fitness_name": "굽은다리역점 스포애니 (주)케이디헬스케어",
        "distance": 420.8253937374856,
        "walking_time": "약 7분"
      },
      {
        "fitness_lat": 37.53930372,
        "fitness_lon": 127.1402894,
        "fitness_type": "운동시설",
        "fitness_name": "스포애니 길동역점",
        "distance": 444.2079470636691,
        "walking_time": "약 7분"
      },
      {
        "fitness_lat": 37.54666642,
        "fitness_lon": 127.1444622,
        "fitness_type": "운동시설",
        "fitness_name": "훈련소",
        "distance": 477.9977354398024,
        "walking_time": "약 8분"
      }
    ],
    "gas_station": [
      {
        "gas_station_lat": 37.5504579,
        "gas_station_lon": 127.1382269,
        "gas_station_type": "주유소",
        "gas_station_name": "구천면주유소",
        "distance": 845.083593665215,
        "walking_time": "약 13분"
      },
      {
        "gas_station_lat": 37.53641686,
        "gas_station_lon": 127.1493724,
        "gas_station_type": "주유소",
        "gas_station_name": "재건에너지 재정제2주유소 고속셀프지점",
        "distance": 1045.7409726903504,
        "walking_time": "약 16분"
      },
      {
        "gas_station_lat": 37.53341993,
        "gas_station_lon": 127.1411846,
        "gas_station_type": "주유소",
        "gas_station_name": "대성석유㈜ 길동주유소",
        "distance": 1091.1367154820105,
        "walking_time": "약 17분"
      },
      {
        "gas_station_lat": 37.55447863,
        "gas_station_lon": 127.1440113,
        "gas_station_type": "주유소",
        "gas_station_name": "현대오일뱅크㈜직영 명일셀프주유소",
        "distance": 1274.8045806631903,
        "walking_time": "약 20분"
      },
      {
        "gas_station_lat": 37.54606064,
        "gas_station_lon": 127.1554951,
        "gas_station_type": "주유소",
        "gas_station_name": "방아다리주유소",
        "distance": 1298.9280195744984,
        "walking_time": "약 20분"
      },
      {
        "gas_station_lat": 37.53232065,
        "gas_station_lon": 127.1330903,
        "gas_station_type": "주유소",
        "gas_station_name": "㈜지유에너지 직영오렌지주유소",
        "distance": 1408.4017921647396,
        "walking_time": "약 22분"
      }
    ],
    "hospital": [
      {
        "hospital_lat": 37.54350653,
        "hospital_lon": 127.1418645,
        "hospital_type": "병원",
        "hospital_name": "서울탑신경외과의원",
        "distance": 66.00387341947103,
        "walking_time": "약 1분"
      },
      {
        "hospital_lat": 37.54350653,
        "hospital_lon": 127.1418645,
        "hospital_type": "병원",
        "hospital_name": "연세프라임치과의원",
        "distance": 66.00387341947103,
        "walking_time": "약 1분"
      },
      {
        "hospital_lat": 37.54209985,
        "hospital_lon": 127.1412951,
        "hospital_type": "병원",
        "hospital_name": "올바른서울병원",
        "distance": 126.2500406246818,
        "walking_time": "약 2분"
      },
      {
        "hospital_lat": 37.54443636,
        "hospital_lon": 127.1427646,
        "hospital_type": "병원",
        "hospital_name": "강동한방병원",
        "distance": 192.18241869609284,
        "walking_time": "약 3분"
      },
      {
        "hospital_lat": 37.54126225,
        "hospital_lon": 127.1408726,
        "hospital_type": "병원",
        "hospital_name": "아문성형외과의원",
        "distance": 221.00576470998595,
        "walking_time": "약 4분"
      },
      {
        "hospital_lat": 37.54126225,
        "hospital_lon": 127.1408726,
        "hospital_type": "병원",
        "hospital_name": "참잘함한방병원",
        "distance": 221.00576470998595,
        "walking_time": "약 4분"
      },
      {
        "hospital_lat": 37.54115872,
        "hospital_lon": 127.1415503,
        "hospital_type": "병원",
        "hospital_name": "타임치과의원",
        "distance": 232.67759577804028,
        "walking_time": "약 4분"
      },
      {
        "hospital_lat": 37.54509869,
        "hospital_lon": 127.1430533,
        "hospital_type": "병원",
        "hospital_name": "미하나의원",
        "distance": 264.0835246724778,
        "walking_time": "약 4분"
      },
      {
        "hospital_lat": 37.54509869,
        "hospital_lon": 127.1430533,
        "hospital_type": "병원",
        "hospital_name": "우리동네행복한치과의원",
        "distance": 264.0835246724778,
        "walking_time": "약 4분"
      },
      {
        "hospital_lat": 37.54106294,
        "hospital_lon": 127.142751,
        "hospital_type": "병원",
        "hospital_name": "경희유명한의원",
        "distance": 277.31907390951136,
        "walking_time": "약 5분"
      }
    ],
    "music_room": [
      {
        "music_room_lat": 37.54392716,
        "music_room_lon": 127.1425742,
        "music_room_type": "노래방",
        "music_room_name": "SBS노래연습장",
        "distance": 143.65153467603582,
        "walking_time": "약 3분"
      },
      {
        "music_room_lat": 37.54106294,
        "music_room_lon": 127.142751,
        "music_room_type": "노래방",
        "music_room_name": "SBS노래연습장",
        "distance": 277.31907390951136,
        "walking_time": "약 5분"
      },
      {
        "music_room_lat": 37.54122878,
        "music_room_lon": 127.1392381,
        "music_room_type": "노래방",
        "music_room_name": "칭구노래연습장",
        "distance": 282.10227968656085,
        "walking_time": "약 5분"
      },
      {
        "music_room_lat": 37.54468848,
        "music_room_lon": 127.1438576,
        "music_room_type": "노래방",
        "music_room_name": "제이노래연습장",
        "distance": 284.7652969557989,
        "walking_time": "약 5분"
      },
      {
        "music_room_lat": 37.54192953,
        "music_room_lon": 127.1444485,
        "music_room_type": "노래방",
        "music_room_name": "짱구노래연습장",
        "distance": 320.9623322753019,
        "walking_time": "약 5분"
      },
      {
        "music_room_lat": 37.54566357,
        "music_room_lon": 127.1432421,
        "music_room_type": "노래방",
        "music_room_name": "플러스 노래연습장",
        "distance": 324.7551063473013,
        "walking_time": "약 5분"
      },
      {
        "music_room_lat": 37.54449587,
        "music_room_lon": 127.1447243,
        "music_room_type": "노래방",
        "music_room_name": "자유인",
        "distance": 340.9693530351013,
        "walking_time": "약 6분"
      },
      {
        "music_room_lat": 37.54097512,
        "music_room_lon": 127.1438423,
        "music_room_type": "노래방",
        "music_room_name": "좋은노래연습장",
        "distance": 342.4638878691809,
        "walking_time": "약 6분"
      },
      {
        "music_room_lat": 37.54409559,
        "music_room_lon": 127.1449888,
        "music_room_type": "노래방",
        "music_room_name": "진주노래연습장",
        "distance": 347.5247722048349,
        "walking_time": "약 6분"
      },
      {
        "music_room_lat": 37.54330846,
        "music_room_lon": 127.1372362,
        "music_room_type": "노래방",
        "music_room_name": "방방노래연습장",
        "distance": 349.59471130049366,
        "walking_time": "약 6분"
      }
    ],
    "park": [
      {
        "park_lat": 37.5504807,
        "park_lon": 127.1471618,
        "park_type": "공원",
        "park_name": "샛마을근린공원",
        "distance": 962.166787593246,
        "walking_time": "약 15분"
      },
      {
        "park_lat": 37.5403935,
        "park_lon": 127.1547791,
        "park_type": "공원",
        "park_name": "길동생태공원",
        "distance": 1238.1400044633745,
        "walking_time": "약 19분"
      },
      {
        "park_lat": 37.5372715,
        "park_lon": 127.1533951,
        "park_type": "공원",
        "park_name": "허브천문공원",
        "distance": 1263.116646368304,
        "walking_time": "약 19분"
      },
      {
        "park_lat": 37.5431657,
        "park_lon": 127.1574587,
        "park_type": "공원",
        "park_name": "일자산근린공원",
        "distance": 1433.4586975955435,
        "walking_time": "약 22분"
      }
    ],
    "park_station": [
      {
        "park_station_lat": 37.54459923,
        "park_station_lon": 127.1366199,
        "park_station_type": "주차장",
        "park_station_name": "천호1동 주차장",
        "distance": 431.4663414044679,
        "walking_time": "약 7분"
      },
      {
        "park_station_lat": 37.54071205,
        "park_station_lon": 127.1341864,
        "park_station_type": "주차장",
        "park_station_name": "천호3동 제2공영주차장",
        "distance": 678.9481102249355,
        "walking_time": "약 11분"
      },
      {
        "park_station_lat": 37.54307844,
        "park_station_lon": 127.1321772,
        "park_station_type": "주차장",
        "park_station_name": "고분다리 전통시장 공영주차장",
        "distance": 795.709961465586,
        "walking_time": "약 12분"
      },
      {
        "park_station_lat": 37.53891769,
        "park_station_lon": 127.1332432,
        "park_station_type": "주차장",
        "park_station_name": "천호3동 주차장",
        "distance": 849.9449239087623,
        "walking_time": "약 13분"
      },
      {
        "park_station_lat": 37.55088357,
        "park_station_lon": 127.1428872,
        "park_station_type": "주차장",
        "park_station_name": "명일동 주차장",
        "distance": 863.6342959615414,
        "walking_time": "약 13분"
      },
      {
        "park_station_lat": 37.55289,
        "park_station_lon": 127.1377215,
        "park_station_type": "주차장",
        "park_station_name": "암사1동 주차장",
        "distance": 1116.7734973004258,
        "walking_time": "약 17분"
      },
      {
        "park_station_lat": 37.55237587,
        "park_station_lon": 127.1350983,
        "park_station_type": "주차장",
        "park_station_name": "볕우물 공영주차장",
        "distance": 1150.2196257051096,
        "walking_time": "약 18분"
      },
      {
        "park_station_lat": 37.55293546,
        "park_station_lon": 127.1530576,
        "park_station_type": "주차장",
        "park_station_name": "공유) 주양쇼핑옆 주차장",
        "distance": 1502.2492462447938,
        "walking_time": "약 23분"
      },
      {
        "park_station_lat": 37.55184853,
        "park_station_lon": 127.1545513,
        "park_station_type": "주차장",
        "park_station_name": "공유) 주양쇼핑앞 주차장",
        "distance": 1517.6431175536993,
        "walking_time": "약 23분"
      },
      {
        "park_station_lat": 37.55360254,
        "park_station_lon": 127.155899,
        "park_station_type": "주차장",
        "park_station_name": "명일동 공영주차장",
        "distance": 1734.5771055035773,
        "walking_time": "약 26분"
      }
    ],
    "pc_room": [
      {
        "pc_room_lat": 37.5440484317022,
        "pc_room_lon": 127.142054351358,
        "pc_room_type": "PC방",
        "pc_room_name": "Hype PC 굽은다리역점",
        "distance": 117.88479289917588,
        "walking_time": "약 2분"
      },
      {
        "pc_room_lat": 37.5430139944025,
        "pc_room_lon": 127.143545009244,
        "pc_room_type": "PC방",
        "pc_room_name": "놀토PC방",
        "distance": 208.15393423610527,
        "walking_time": "약 4분"
      },
      {
        "pc_room_lat": 37.5448781012584,
        "pc_room_lon": 127.142999883738,
        "pc_room_type": "PC방",
        "pc_room_name": "시즌아이PC존",
        "distance": 242.17096889981613,
        "walking_time": "약 4분"
      },
      {
        "pc_room_lat": 37.5441752463432,
        "pc_room_lon": 127.138374977732,
        "pc_room_type": "PC방",
        "pc_room_name": "PC Class J&S PC방",
        "distance": 270.2395079872678,
        "walking_time": "약 5분"
      },
      {
        "pc_room_lat": 37.5446884804623,
        "pc_room_lon": 127.143857591075,
        "pc_room_type": "PC방",
        "pc_room_name": "아이비스PC방 굽은다리점",
        "distance": 284.76467879351594,
        "walking_time": "약 5분"
      },
      {
        "pc_room_lat": 37.5447800056278,
        "pc_room_lon": 127.144240238074,
        "pc_room_type": "PC방",
        "pc_room_name": "쟈스민",
        "distance": 318.4884778405125,
        "walking_time": "약 5분"
      },
      {
        "pc_room_lat": 37.5433291703749,
        "pc_room_lon": 127.13748197924,
        "pc_room_type": "PC방",
        "pc_room_name": "프로게이머 PC방",
        "distance": 327.9992588809712,
        "walking_time": "약 5분"
      },
      {
        "pc_room_lat": 37.5406438518667,
        "pc_room_lon": 127.143227263627,
        "pc_room_type": "PC방",
        "pc_room_name": "7번가 PC방",
        "distance": 338.8362770698605,
        "walking_time": "약 6분"
      },
      {
        "pc_room_lat": 37.5439366523799,
        "pc_room_lon": 127.137224986244,
        "pc_room_type": "PC방",
        "pc_room_name": "누나랑 PC할래",
        "distance": 359.11397081546147,
        "walking_time": "약 6분"
      },
      {
        "pc_room_lat": 37.5445962224323,
        "pc_room_lon": 127.145105986585,
        "pc_room_type": "PC방",
        "pc_room_name": "엠티PC방",
        "distance": 376.2475850642456,
        "walking_time": "약 6분"
      }
    ],
    "police_office": [
      {
        "police_office_lat": 37.55499636,
        "police_office_lon": 127.1407841,
        "police_office_type": "경찰소",
        "police_office_name": "암사지구대",
        "distance": 1308.5680958196665,
        "walking_time": "약 20분"
      },
      {
        "police_office_lat": 37.55364418,
        "police_office_lon": 127.1560882,
        "police_office_type": "경찰소",
        "police_office_name": "명일파출소",
        "distance": 1750.1322199710935,
        "walking_time": "약 27분"
      },
      {
        "police_office_lat": 37.55732424,
        "police_office_lon": 127.1517129,
        "police_office_type": "경찰소",
        "police_office_name": "고덕파출소",
        "distance": 1820.4619382637525,
        "walking_time": "약 28분"
      }
    ],
    "post_office": [
      {
        "post_office_lat": 37.54537547,
        "post_office_lon": 127.1452012,
        "post_office_type": "우체국",
        "post_office_name": "서울명일삼익우편취급국",
        "distance": 425.66929069792513,
        "walking_time": "약 7분"
      },
      {
        "post_office_lat": 37.5401163,
        "post_office_lon": 127.136473,
        "post_office_type": "우체국",
        "post_office_name": "서울천호3동우편취급국",
        "distance": 542.0328678130691,
        "walking_time": "약 9분"
      },
      {
        "post_office_lat": 37.53637593,
        "post_office_lon": 127.1432061,
        "post_office_type": "우체국",
        "post_office_name": "서울강동우체국",
        "distance": 782.686490963295,
        "walking_time": "약 12분"
      },
      {
        "post_office_lat": 37.53279964,
        "post_office_lon": 127.1390214,
        "post_office_type": "우체국",
        "post_office_name": "서울둔촌2동우편취급국",
        "distance": 1175.9083005473626,
        "walking_time": "약 18분"
      },
      {
        "post_office_lat": 37.55578284,
        "post_office_lon": 127.1375673,
        "post_office_type": "우체국",
        "post_office_name": "서울암사3동우편취급국",
        "distance": 1431.786927258624,
        "walking_time": "약 22분"
      },
      {
        "post_office_lat": 37.55148193,
        "post_office_lon": 127.1546778,
        "post_office_type": "우체국",
        "post_office_name": "서울명일현대우편취급국",
        "distance": 1501.0598265039916,
        "walking_time": "약 23분"
      }
    ],
    "public_health_center": [
      {
        "public_health_center_lat": 37.54684651,
        "public_health_center_lon": 127.1337755,
        "public_health_center_type": "보건소",
        "public_health_center_name": "천호보건지소",
        "distance": 768.0889389026108,
        "walking_time": "약 12분"
      }
    ],
    "school": [
      {
        "school_lat": 37.541015901733,
        "school_lon": 127.137828727405,
        "school_type": "초등학교",
        "school_name": "서울천동초등학교",
        "distance": 386.1674472305365,
        "walking_time": "약 6분"
      },
      {
        "school_lat": 37.5465192580007,
        "school_lon": 127.139697961268,
        "school_type": "중학교",
        "school_name": "천호중학교",
        "distance": 388.7041473283932,
        "walking_time": "약 6분"
      },
      {
        "school_lat": 37.5385916779149,
        "school_lon": 127.144972942492,
        "school_type": "초등학교",
        "school_name": "서울길동초등학교",
        "distance": 613.9757665195539,
        "walking_time": "약 10분"
      },
      {
        "school_lat": 37.5477189664877,
        "school_lon": 127.136592330295,
        "school_type": "초등학교",
        "school_name": "서울천호초등학교",
        "distance": 643.3379299198815,
        "walking_time": "약 10분"
      },
      {
        "school_lat": 37.5443612197289,
        "school_lon": 127.133436718515,
        "school_type": "초등학교",
        "school_name": "서울천일초등학교",
        "distance": 695.8792136277773,
        "walking_time": "약 11분"
      },
      {
        "school_lat": 37.5418144867925,
        "school_lon": 127.149291882662,
        "school_type": "중학교",
        "school_name": "신명중학교",
        "distance": 730.6345148627299,
        "walking_time": "약 11분"
      },
      {
        "school_lat": 37.5498545397762,
        "school_lon": 127.141541303447,
        "school_type": "고등학교",
        "school_name": "성덕고등학교",
        "distance": 736.9230552051401,
        "walking_time": "약 11분"
      },
      {
        "school_lat": 37.5498545397762,
        "school_lon": 127.141541303447,
        "school_type": "중학교",
        "school_name": "성덕여자중학교",
        "distance": 736.9230552051401,
        "walking_time": "약 11분"
      },
      {
        "school_lat": 37.5409268527757,
        "school_lon": 127.149979091111,
        "school_type": "초등학교",
        "school_name": "서울신명초등학교",
        "distance": 815.3693124430521,
        "walking_time": "약 13분"
      },
      {
        "school_lat": 37.5367695166843,
        "school_lon": 127.134366593349,
        "school_type": "중학교",
        "school_name": "동신중학교",
        "distance": 937.8328189720274,
        "walking_time": "약 14분"
      }
    ],
    "subway": [
      {
        "subway_lat": 37.5457314720664,
        "subway_lon": 127.142970847846,
        "subway_type": "지하철",
        "subway_name": "5호선-굽은다리(강동구민회관앞)역",
        "distance": 318.694585403341,
        "walking_time": "약 5분"
      },
      {
        "subway_lat": 37.5378115570072,
        "subway_lon": 127.13999920444,
        "subway_type": "지하철",
        "subway_name": "5호선-길동역",
        "distance": 612.0397655502295,
        "walking_time": "약 10분"
      },
      {
        "subway_lat": 37.551257212513,
        "subway_lon": 127.144000696892,
        "subway_type": "지하철",
        "subway_name": "5호선-명일역",
        "distance": 925.8063821827184,
        "walking_time": "약 14분"
      },
      {
        "subway_lat": 37.5357793773303,
        "subway_lon": 127.132720388453,
        "subway_type": "지하철",
        "subway_name": "5호선-강동역",
        "distance": 1116.1915053744196,
        "walking_time": "약 17분"
      },
      {
        "subway_lat": 37.5572689182034,
        "subway_lon": 127.137592807465,
        "subway_type": "지하철",
        "subway_name": "8호선-암사역사공원역",
        "distance": 1592.8217793692097,
        "walking_time": "약 24분"
      },
      {
        "subway_lat": 37.5550473189056,
        "subway_lon": 127.15394941502,
        "subway_type": "지하철",
        "subway_name": "5호선-고덕역",
        "distance": 1728.9088573452027,
        "walking_time": "약 26분"
      }
    ],
    "supermarket": [
      {
        "supermarket_lat": 37.54260895,
        "supermarket_lon": 127.1436538,
        "supermarket_type": "마트",
        "supermarket_name": "동서울오네뜨상가",
        "distance": 227.16872835324304,
        "walking_time": "약 4분"
      },
      {
        "supermarket_lat": 37.54571459,
        "supermarket_lon": 127.1422553,
        "supermarket_type": "마트",
        "supermarket_name": "홈플러스 강동점",
        "distance": 291.2226307474883,
        "walking_time": "약 5분"
      },
      {
        "supermarket_lat": 37.53837539,
        "supermarket_lon": 127.140544,
        "supermarket_type": "마트",
        "supermarket_name": "홈플러스(주)익스프레스 길동점",
        "distance": 543.204206095155,
        "walking_time": "약 9분"
      },
      {
        "supermarket_lat": 37.5385076,
        "supermarket_lon": 127.1363642,
        "supermarket_type": "마트",
        "supermarket_name": "롯데쇼핑㈜롯데슈퍼길동점",
        "distance": 676.6571641648184,
        "walking_time": "약 11분"
      },
      {
        "supermarket_lat": 37.53608469,
        "supermarket_lon": 127.137474,
        "supermarket_type": "마트",
        "supermarket_name": "강동한신휴플러스",
        "distance": 860.0537320675843,
        "walking_time": "약 13분"
      },
      {
        "supermarket_lat": 37.55109534,
        "supermarket_lon": 127.144778,
        "supermarket_type": "마트",
        "supermarket_name": "(주)지에스리테일 명일점",
        "distance": 929.4376948653776,
        "walking_time": "약 14분"
      },
      {
        "supermarket_lat": 37.55238065,
        "supermarket_lon": 127.1350988,
        "supermarket_type": "마트",
        "supermarket_name": "홈플러스(주) 익스프레스 암사점",
        "distance": 1150.6688358948238,
        "walking_time": "약 18분"
      },
      {
        "supermarket_lat": 37.5520143,
        "supermarket_lon": 127.1494576,
        "supermarket_type": "마트",
        "supermarket_name": "(주)이마트에브리데이 명일동점",
        "distance": 1217.959652214137,
        "walking_time": "약 19분"
      },
      {
        "supermarket_lat": 37.55525285,
        "supermarket_lon": 127.1403472,
        "supermarket_type": "마트",
        "supermarket_name": "(주)지에스리테일 암사캐슬점",
        "distance": 1338.688132357293,
        "walking_time": "약 20분"
      },
      {
        "supermarket_lat": 37.55239614,
        "supermarket_lon": 127.153459,
        "supermarket_type": "마트",
        "supermarket_name": "주양쇼핑",
        "distance": 1485.325697320069,
        "walking_time": "약 23분"
      }
    ],
    "tax_office": [
      {
        "tax_office_lat": 37.53459594,
        "tax_office_lon": 127.1381166,
        "tax_office_type": "세무서",
        "tax_office_name": "강동세무서",
        "distance": 998.114582816482,
        "walking_time": "약 15분"
      }
    ],
    "theater": [
      {
        "theater_lat": 37.5457145865749,
        "theater_lon": 127.14225531407,
        "theater_type": "영화관",
        "theater_name": "CGV 천호",
        "distance": 291.2226660582886,
        "walking_time": "약 5분"
      }
    ]
  }
}