{
  "클러스터_위도": 37.56615700059108,
  "클러스터_경도": 126.93395449867197,
  "클러스터_level": 4.0,
  "facilities": {
    "bus": [
      {
        "bus_lat": 37.56699381,
        "bus_lon": 126.9312475,
        "bus_type": "버스정류장",
        "bus_name": "하나은행연희동지점",
        "distance": 256.0922318941767,
        "walking_time": "약 4분"
      },
      {
        "bus_lat": 37.56775647,
        "bus_lon": 126.9318332,
        "bus_type": "버스정류장",
        "bus_name": "국민은행",
        "distance": 258.0466599277673,
        "walking_time": "약 4분"
      },
      {
        "bus_lat": 37.56786646,
        "bus_lon": 126.9319225,
        "bus_type": "버스정류장",
        "bus_name": "연희3거리",
        "distance": 261.1644072203913,
        "walking_time": "약 4분"
      },
      {
        "bus_lat": 37.56793299,
        "bus_lon": 126.9316095,
        "bus_type": "버스정류장",
        "bus_name": "연희3거리",
        "distance": 285.860850039493,
        "walking_time": "약 5분"
      },
      {
        "bus_lat": 37.56570825,
        "bus_lon": 126.9302298,
        "bus_type": "버스정류장",
        "bus_name": "연희브라운스톤",
        "distance": 332.0614387902632,
        "walking_time": "약 5분"
      },
      {
        "bus_lat": 37.56721105,
        "bus_lon": 126.9303733,
        "bus_type": "버스정류장",
        "bus_name": "사러가쇼핑",
        "distance": 336.6978863812245,
        "walking_time": "약 6분"
      },
      {
        "bus_lat": 37.56604971,
        "bus_lon": 126.930131,
        "bus_type": "버스정류장",
        "bus_name": "연희브라운스톤",
        "distance": 337.20935006747413,
        "walking_time": "약 6분"
      },
      {
        "bus_lat": 37.5657,
        "bus_lon": 126.930163,
        "bus_type": "버스정류장",
        "bus_name": "연희교차로",
        "distance": 338.0201339820894,
        "walking_time": "약 6분"
      },
      {
        "bus_lat": 37.5659472,
        "bus_lon": 126.9300349,
        "bus_type": "버스정류장",
        "bus_name": "연희교차로",
        "distance": 346.2553873204721,
        "walking_time": "약 6분"
      },
      {
        "bus_lat": 37.56729432,
        "bus_lon": 126.9302459,
        "bus_type": "버스정류장",
        "bus_name": "사러가쇼핑",
        "distance": 350.47983674728147,
        "walking_time": "약 6분"
      }
    ],
    "community_center": [
      {
        "community_center_lat": 37.56933601,
        "community_center_lon": 126.9307755,
        "community_center_type": "주민센터",
        "community_center_name": "연희동 자치회관",
        "distance": 451.06490410885897,
        "walking_time": "약 7분"
      },
      {
        "community_center_lat": 37.55781754,
        "community_center_lon": 126.939546,
        "community_center_type": "주민센터",
        "community_center_name": "신촌동 자치회관",
        "distance": 1050.1437415967416,
        "walking_time": "약 16분"
      },
      {
        "community_center_lat": 37.56450401,
        "community_center_lon": 126.9220214,
        "community_center_type": "주민센터",
        "community_center_name": "연남동 자치회관",
        "distance": 1067.7184622139755,
        "walking_time": "약 16분"
      },
      {
        "community_center_lat": 37.55585899,
        "community_center_lon": 126.9423208,
        "community_center_type": "주민센터",
        "community_center_name": "대흥동 자치회관",
        "distance": 1362.001819419488,
        "walking_time": "약 21분"
      },
      {
        "community_center_lat": 37.57843406,
        "community_center_lon": 126.9238669,
        "community_center_type": "주민센터",
        "community_center_name": "남가좌2동 자치회관",
        "distance": 1629.1123556076975,
        "walking_time": "약 25분"
      }
    ],
    "convenience_store": [
      {
        "convenience_store_lat": 37.56533588,
        "convenience_store_lon": 126.932366,
        "convenience_store_type": "편의점",
        "convenience_store_name": "GS25 연세시티점",
        "distance": 167.1496111334649,
        "walking_time": "약 3분"
      },
      {
        "convenience_store_lat": 37.56698647,
        "convenience_store_lon": 126.9313555,
        "convenience_store_type": "편의점",
        "convenience_store_name": "CU 연희로점",
        "distance": 246.9420759406999,
        "walking_time": "약 4분"
      },
      {
        "convenience_store_lat": 37.5639275,
        "convenience_store_lon": 126.933726,
        "convenience_store_type": "편의점",
        "convenience_store_name": "CU 연대서문점",
        "distance": 248.7258795304269,
        "walking_time": "약 4분"
      },
      {
        "convenience_store_lat": 37.56370799,
        "convenience_store_lon": 126.9336903,
        "convenience_store_type": "편의점",
        "convenience_store_name": "GS25 연대서문점",
        "distance": 273.311380301102,
        "walking_time": "약 5분"
      },
      {
        "convenience_store_lat": 37.56876238,
        "convenience_store_lon": 126.9326928,
        "convenience_store_type": "편의점",
        "convenience_store_name": "CU 연희삼거리점",
        "distance": 310.31429267192067,
        "walking_time": "약 5분"
      },
      {
        "convenience_store_lat": 37.56462511,
        "convenience_store_lon": 126.9306982,
        "convenience_store_type": "편의점",
        "convenience_store_name": "CU 연대연희점",
        "distance": 333.7501945813883,
        "walking_time": "약 5분"
      },
      {
        "convenience_store_lat": 37.56599758,
        "convenience_store_lon": 126.9298947,
        "convenience_store_type": "편의점",
        "convenience_store_name": "세븐일레븐 서대문연희로점",
        "distance": 358.2643720201844,
        "walking_time": "약 6분"
      },
      {
        "convenience_store_lat": 37.56480384,
        "convenience_store_lon": 126.9298852,
        "convenience_store_type": "편의점",
        "convenience_store_name": "세븐일레븐 동서한방병원점",
        "distance": 388.94820475240704,
        "walking_time": "약 6분"
      },
      {
        "convenience_store_lat": 37.56318791,
        "convenience_store_lon": 126.9315844,
        "convenience_store_type": "편의점",
        "convenience_store_name": "CU 연세학사점",
        "distance": 390.6883597808077,
        "walking_time": "약 6분"
      },
      {
        "convenience_store_lat": 37.56252056,
        "convenience_store_lon": 126.9310014,
        "convenience_store_type": "편의점",
        "convenience_store_name": "GS25 연희IC2점",
        "distance": 480.88672429055765,
        "walking_time": "약 8분"
      }
    ],
    "daycare": [
      {
        "daycare_lat": 37.56535187816856,
        "daycare_lon": 126.93115072830298,
        "daycare_type": "어린이집",
        "daycare_name": "우정어린이집",
        "distance": 262.838421617938,
        "walking_time": "약 4분"
      },
      {
        "daycare_lat": 37.56923842,
        "daycare_lon": 126.9347425,
        "daycare_type": "어린이집",
        "daycare_name": "푸른누리어린이집",
        "distance": 349.60622257141705,
        "walking_time": "약 6분"
      },
      {
        "daycare_lat": 37.56708653,
        "daycare_lon": 126.9287432,
        "daycare_type": "어린이집",
        "daycare_name": "연희이화어린이집",
        "distance": 470.7997229633352,
        "walking_time": "약 8분"
      },
      {
        "daycare_lat": 37.56411095,
        "daycare_lon": 126.9389787,
        "daycare_type": "어린이집",
        "daycare_name": "연세대학교유진어린이집",
        "distance": 497.8569369913733,
        "walking_time": "약 8분"
      },
      {
        "daycare_lat": 37.56209232,
        "daycare_lon": 126.9285767,
        "daycare_type": "어린이집",
        "daycare_name": "천사어린이집",
        "distance": 654.9497264281522,
        "walking_time": "약 10분"
      },
      {
        "daycare_lat": 37.56287732097153,
        "daycare_lon": 126.92748137787709,
        "daycare_type": "어린이집",
        "daycare_name": "해찬솔어린이집",
        "distance": 677.1376879539735,
        "walking_time": "약 11분"
      },
      {
        "daycare_lat": 37.56213796,
        "daycare_lon": 126.9281361,
        "daycare_type": "어린이집",
        "daycare_name": "리틀빌리지어린이집",
        "distance": 680.2362382923476,
        "walking_time": "약 11분"
      },
      {
        "daycare_lat": 37.56002506,
        "daycare_lon": 126.9299264,
        "daycare_type": "어린이집",
        "daycare_name": "내일어린이집",
        "distance": 768.7419756701856,
        "walking_time": "약 12분"
      },
      {
        "daycare_lat": 37.56960307,
        "daycare_lon": 126.9259621,
        "daycare_type": "어린이집",
        "daycare_name": "하린어린이집",
        "distance": 801.8994453042382,
        "walking_time": "약 12분"
      },
      {
        "daycare_lat": 37.5650344,
        "daycare_lon": 126.9245279,
        "daycare_type": "어린이집",
        "daycare_name": "꼬마또래어린이집",
        "distance": 840.1786331686958,
        "walking_time": "약 13분"
      }
    ],
    "education": [
      {
        "education_lat": 37.5656579,
        "education_lon": 126.9285381,
        "education_type": "공연장",
        "education_name": "연희예술극장",
        "distance": 480.6106289657943,
        "walking_time": "약 8분"
      },
      {
        "education_lat": 37.57009912,
        "education_lon": 126.9294945,
        "education_type": "미술관/갤러리",
        "education_name": "스페이스애프터",
        "distance": 588.7811457155923,
        "walking_time": "약 9분"
      },
      {
        "education_lat": 37.56605084,
        "education_lon": 126.9439162,
        "education_type": "공연장",
        "education_name": "금호아트홀 연세",
        "distance": 878.0908576256248,
        "walking_time": "약 14분"
      },
      {
        "education_lat": 37.56605084,
        "education_lon": 126.9439162,
        "education_type": "박물관/기념관",
        "education_name": "연세대학교신촌캠퍼스박물관",
        "distance": 878.0908576256248,
        "walking_time": "약 14분"
      },
      {
        "education_lat": 37.55886566,
        "education_lon": 126.9400664,
        "education_type": "미술관/갤러리",
        "education_name": "ANDNEW GALLERY(앤드뉴 갤러리)",
        "distance": 973.4229871678444,
        "walking_time": "약 15분"
      },
      {
        "education_lat": 37.55760078,
        "education_lon": 126.9381984,
        "education_type": "공연장",
        "education_name": "극장PLOT",
        "distance": 1022.3055095682596,
        "walking_time": "약 16분"
      },
      {
        "education_lat": 37.55698238,
        "education_lon": 126.92959,
        "education_type": "도서관",
        "education_name": "연세대학교 김대중도서관",
        "distance": 1090.296799586303,
        "walking_time": "약 17분"
      },
      {
        "education_lat": 37.55865739,
        "education_lon": 126.9424913,
        "education_type": "미술관/갤러리",
        "education_name": "갤러리 아미디 신촌",
        "distance": 1123.216969300448,
        "walking_time": "약 17분"
      },
      {
        "education_lat": 37.55656393,
        "education_lon": 126.9403281,
        "education_type": "박물관/기념관",
        "education_name": "우석뮤지엄",
        "distance": 1205.597845719802,
        "walking_time": "약 18분"
      },
      {
        "education_lat": 37.57692288,
        "education_lon": 126.9317696,
        "education_type": "미술관/갤러리",
        "education_name": "플레이스막3",
        "distance": 1212.4992976451522,
        "walking_time": "약 19분"
      }
    ],
    "fitness": [
      {
        "fitness_lat": 37.56768262,
        "fitness_lon": 126.9312745,
        "fitness_type": "운동시설",
        "fitness_name": "DAYSTAR PLAYGROUND",
        "distance": 290.81407483676253,
        "walking_time": "약 5분"
      },
      {
        "fitness_lat": 37.56768262,
        "fitness_lon": 126.9312745,
        "fitness_type": "운동시설",
        "fitness_name": "아지트(Hide out)",
        "distance": 290.81407483676253,
        "walking_time": "약 5분"
      },
      {
        "fitness_lat": 37.56754755,
        "fitness_lon": 126.9307944,
        "fitness_type": "운동시설",
        "fitness_name": "플렉스피티",
        "distance": 318.56509241739,
        "walking_time": "약 5분"
      },
      {
        "fitness_lat": 37.56728114,
        "fitness_lon": 126.9305207,
        "fitness_type": "운동시설",
        "fitness_name": "짐라이트 연희/연세대점",
        "distance": 327.4454374320915,
        "walking_time": "약 5분"
      },
      {
        "fitness_lat": 37.56521326,
        "fitness_lon": 126.9302076,
        "fitness_type": "운동시설",
        "fitness_name": "스타칼리 휘트니스",
        "distance": 346.5204392373419,
        "walking_time": "약 6분"
      },
      {
        "fitness_lat": 37.56693557,
        "fitness_lon": 126.9301467,
        "fitness_type": "운동시설",
        "fitness_name": "연희 피티 앤 피트니스",
        "distance": 346.5986290468421,
        "walking_time": "약 6분"
      },
      {
        "fitness_lat": 37.56641263,
        "fitness_lon": 126.9299881,
        "fitness_type": "운동시설",
        "fitness_name": "피트니스 소마",
        "distance": 350.7460899882038,
        "walking_time": "약 6분"
      },
      {
        "fitness_lat": 37.56763493,
        "fitness_lon": 126.9303168,
        "fitness_type": "운동시설",
        "fitness_name": "연희 피티＆필라테스",
        "distance": 360.28237062166204,
        "walking_time": "약 6분"
      },
      {
        "fitness_lat": 37.56763493,
        "fitness_lon": 126.9303168,
        "fitness_type": "운동시설",
        "fitness_name": "제프웰니스센터",
        "distance": 360.28237062166204,
        "walking_time": "약 6분"
      },
      {
        "fitness_lat": 37.56606644,
        "fitness_lon": 126.9290413,
        "fitness_type": "운동시설",
        "fitness_name": "리커버리PT스튜디오",
        "distance": 433.1600147687513,
        "walking_time": "약 7분"
      }
    ],
    "gas_station": [
      {
        "gas_station_lat": 37.5693078,
        "gas_station_lon": 126.9324582,
        "gas_station_type": "주유소",
        "gas_station_name": "연희주유소",
        "distance": 374.3517315826345,
        "walking_time": "약 6분"
      },
      {
        "gas_station_lat": 37.56502434,
        "gas_station_lon": 126.929929,
        "gas_station_type": "주유소",
        "gas_station_name": "㈜안국에너지 삼보주유소",
        "distance": 376.4954215002496,
        "walking_time": "약 6분"
      },
      {
        "gas_station_lat": 37.56607084,
        "gas_station_lon": 126.9249412,
        "gas_station_type": "주유소",
        "gas_station_name": "구도일주유소 두꺼비",
        "distance": 794.4781826066634,
        "walking_time": "약 12분"
      },
      {
        "gas_station_lat": 37.57347791,
        "gas_station_lon": 126.9359275,
        "gas_station_type": "주유소",
        "gas_station_name": "현대오일뱅크(주) 직영 연세주유소",
        "distance": 832.4130875936237,
        "walking_time": "약 13분"
      },
      {
        "gas_station_lat": 37.56101556,
        "gas_station_lon": 126.9415693,
        "gas_station_type": "주유소",
        "gas_station_name": "행촌제2주유소",
        "distance": 881.661977163226,
        "walking_time": "약 14분"
      },
      {
        "gas_station_lat": 37.55986958,
        "gas_station_lon": 126.9268498,
        "gas_station_type": "주유소",
        "gas_station_name": "㈜중앙에너비스 동교지점",
        "distance": 938.5837391827392,
        "walking_time": "약 15분"
      },
      {
        "gas_station_lat": 37.5732609,
        "gas_station_lon": 126.9224624,
        "gas_station_type": "주유소",
        "gas_station_name": "㈜가재울뉴타운주유소",
        "distance": 1284.458778358221,
        "walking_time": "약 20분"
      },
      {
        "gas_station_lat": 37.57567158,
        "gas_station_lon": 126.9255184,
        "gas_station_type": "주유소",
        "gas_station_name": "남정주유소",
        "distance": 1293.096014605579,
        "walking_time": "약 20분"
      }
    ],
    "hospital": [
      {
        "hospital_lat": 37.56682448,
        "hospital_lon": 126.9313823,
        "hospital_type": "병원",
        "hospital_name": "대지한의원",
        "distance": 238.54909536373552,
        "walking_time": "약 4분"
      },
      {
        "hospital_lat": 37.56718178,
        "hospital_lon": 126.9314743,
        "hospital_type": "병원",
        "hospital_name": "연희아산위풍당당재활의학과의원",
        "distance": 246.51685543054228,
        "walking_time": "약 4분"
      },
      {
        "hospital_lat": 37.56760572,
        "hospital_lon": 126.9318256,
        "hospital_type": "병원",
        "hospital_name": "이태호치과의원",
        "distance": 247.3004167998428,
        "walking_time": "약 4분"
      },
      {
        "hospital_lat": 37.56739143,
        "hospital_lon": 126.9316095,
        "hospital_type": "병원",
        "hospital_name": "연희제일의원",
        "distance": 248.1107043917087,
        "walking_time": "약 4분"
      },
      {
        "hospital_lat": 37.5668506,
        "hospital_lon": 126.9312055,
        "hospital_type": "병원",
        "hospital_name": "임희식치과의원",
        "distance": 254.2706986368788,
        "walking_time": "약 4분"
      },
      {
        "hospital_lat": 37.56661919,
        "hospital_lon": 126.9310001,
        "hospital_type": "병원",
        "hospital_name": "홍영택산부인과의원",
        "distance": 265.41905523619755,
        "walking_time": "약 4분"
      },
      {
        "hospital_lat": 37.56723425,
        "hospital_lon": 126.9309071,
        "hospital_type": "병원",
        "hospital_name": "늘편한마취통증의학과의원",
        "distance": 294.09155760302644,
        "walking_time": "약 5분"
      },
      {
        "hospital_lat": 37.56723425,
        "hospital_lon": 126.9309071,
        "hospital_type": "병원",
        "hospital_name": "새하나의원",
        "distance": 294.09155760302644,
        "walking_time": "약 5분"
      },
      {
        "hospital_lat": 37.56859828,
        "hospital_lon": 126.9326447,
        "hospital_type": "병원",
        "hospital_name": "김의원",
        "distance": 294.98514653802147,
        "walking_time": "약 5분"
      },
      {
        "hospital_lat": 37.5682107,
        "hospital_lon": 126.9317532,
        "hospital_type": "병원",
        "hospital_name": "연세박내과의원",
        "distance": 299.65188074994666,
        "walking_time": "약 5분"
      }
    ],
    "music_room": [
      {
        "music_room_lat": 37.56680388,
        "music_room_lon": 126.9305165,
        "music_room_type": "노래방",
        "music_room_name": "ZI 코인노래연습장",
        "distance": 311.43946643959094,
        "walking_time": "약 5분"
      },
      {
        "music_room_lat": 37.56583861,
        "music_room_lon": 126.928938,
        "music_room_type": "노래방",
        "music_room_name": "K2노래연습장",
        "distance": 443.5634885133338,
        "walking_time": "약 7분"
      },
      {
        "music_room_lat": 37.57190464,
        "music_room_lon": 126.9346946,
        "music_room_type": "노래방",
        "music_room_name": "드루와 노래연습장",
        "distance": 642.4284377087765,
        "walking_time": "약 10분"
      },
      {
        "music_room_lat": 37.56251805,
        "music_room_lon": 126.9271133,
        "music_room_type": "노래방",
        "music_room_name": "씨티 노래연습장",
        "distance": 726.1701879755427,
        "walking_time": "약 11분"
      },
      {
        "music_room_lat": 37.56315655,
        "music_room_lon": 126.9254732,
        "music_room_type": "노래방",
        "music_room_name": "M 노래연습장",
        "distance": 818.6184302321069,
        "walking_time": "약 13분"
      },
      {
        "music_room_lat": 37.56302416,
        "music_room_lon": 126.9248535,
        "music_room_type": "노래방",
        "music_room_name": "렉스코인노래연습장 연남점",
        "distance": 874.5416586910497,
        "walking_time": "약 14분"
      },
      {
        "music_room_lat": 37.55839436,
        "music_room_lon": 126.9366274,
        "music_room_type": "노래방",
        "music_room_name": "리코스타 코인노래연습장 연대점",
        "distance": 894.7415718839659,
        "walking_time": "약 14분"
      },
      {
        "music_room_lat": 37.5581643,
        "music_room_lon": 126.9360564,
        "music_room_type": "노래방",
        "music_room_name": "락휴 코인노래연습장 신촌 연대점",
        "distance": 907.8529929647366,
        "walking_time": "약 14분"
      },
      {
        "music_room_lat": 37.55822231,
        "music_room_lon": 126.9367087,
        "music_room_type": "노래방",
        "music_room_name": "어썸 코인노래연습장 신촌2호점",
        "distance": 915.086443615788,
        "walking_time": "약 14분"
      },
      {
        "music_room_lat": 37.55866416,
        "music_room_lon": 126.9385912,
        "music_room_type": "노래방",
        "music_room_name": "블링블링 노래연습장",
        "distance": 928.0061581342384,
        "walking_time": "약 14분"
      }
    ],
    "park": [
      {
        "park_lat": 37.5690506,
        "park_lon": 126.9229851,
        "park_type": "공원",
        "park_name": "궁동근린공원",
        "distance": 1018.9432569721768,
        "walking_time": "약 16분"
      },
      {
        "park_lat": 37.5798246,
        "park_lon": 126.9390273,
        "park_type": "공원",
        "park_name": "안산도시자연공원",
        "distance": 1584.1604834440095,
        "walking_time": "약 24분"
      },
      {
        "park_lat": 37.5517298,
        "park_lon": 126.9289936,
        "park_type": "공원",
        "park_name": "와우근린공원",
        "distance": 1662.7629468573227,
        "walking_time": "약 25분"
      }
    ],
    "park_station": [
      {
        "park_station_lat": 37.56757751,
        "park_station_lon": 126.9290467,
        "park_station_type": "주차장",
        "park_station_name": "연희사러가쇼핑센터앞",
        "distance": 460.4994062228868,
        "walking_time": "약 7분"
      },
      {
        "park_station_lat": 37.56314258,
        "park_station_lon": 126.9254671,
        "park_station_type": "주차장",
        "park_station_name": "연남 유료 주차장",
        "distance": 819.7434469830131,
        "walking_time": "약 13분"
      },
      {
        "park_station_lat": 37.56258735,
        "park_station_lon": 126.9248387,
        "park_station_type": "주차장",
        "park_station_name": "연남 유료 주차장",
        "distance": 896.1699628068786,
        "walking_time": "약 14분"
      },
      {
        "park_station_lat": 37.56260201,
        "park_station_lon": 126.924384,
        "park_station_type": "주차장",
        "park_station_name": "연남 유료 주차장",
        "distance": 931.578142607458,
        "walking_time": "약 14분"
      },
      {
        "park_station_lat": 37.5620216,
        "park_station_lon": 126.9241215,
        "park_station_type": "주차장",
        "park_station_name": "연남 유료 주차장",
        "distance": 981.1230741428494,
        "walking_time": "약 15분"
      },
      {
        "park_station_lat": 37.56158877,
        "park_station_lon": 126.9241269,
        "park_station_type": "주차장",
        "park_station_name": "연남 유료 주차장",
        "distance": 1004.1716949742352,
        "walking_time": "약 15분"
      },
      {
        "park_station_lat": 37.56147992,
        "park_station_lon": 126.924116,
        "park_station_type": "주차장",
        "park_station_name": "연남 유료 주차장",
        "distance": 1011.1726299180092,
        "walking_time": "약 16분"
      },
      {
        "park_station_lat": 37.56136972,
        "park_station_lon": 126.9241056,
        "park_station_type": "주차장",
        "park_station_name": "연남 유료 주차장",
        "distance": 1018.3111098057956,
        "walking_time": "약 16분"
      },
      {
        "park_station_lat": 37.5569955,
        "park_station_lon": 126.9289222,
        "park_station_type": "주차장",
        "park_station_name": "공유) 9-88",
        "distance": 1111.0926378676086,
        "walking_time": "약 17분"
      },
      {
        "park_station_lat": 37.55558374,
        "park_station_lon": 126.9352179,
        "park_station_type": "주차장",
        "park_station_name": "신촌노외 공영주차장",
        "distance": 1180.9553168579114,
        "walking_time": "약 18분"
      }
    ],
    "pc_room": [
      {
        "pc_room_lat": 37.5651378360408,
        "pc_room_lon": 126.932823594828,
        "pc_room_type": "PC방",
        "pc_room_name": "티온 PC방 서문점",
        "distance": 150.92472818625524,
        "walking_time": "약 3분"
      },
      {
        "pc_room_lat": 37.567234248303,
        "pc_room_lon": 126.930907083597,
        "pc_room_type": "PC방",
        "pc_room_name": "LEV9 PC방",
        "distance": 294.0928011212187,
        "walking_time": "약 5분"
      },
      {
        "pc_room_lat": 37.5623999133101,
        "pc_room_lon": 126.927239750975,
        "pc_room_type": "PC방",
        "pc_room_name": "샘 피시방 (SAEM PC방)",
        "distance": 724.437675500046,
        "walking_time": "약 11분"
      },
      {
        "pc_room_lat": 37.5587839163385,
        "pc_room_lon": 126.937240313986,
        "pc_room_type": "PC방",
        "pc_room_name": "아크PC",
        "distance": 869.5021593227528,
        "walking_time": "약 13분"
      },
      {
        "pc_room_lat": 37.5587839163385,
        "pc_room_lon": 126.937240313986,
        "pc_room_type": "PC방",
        "pc_room_name": "블루포스PC",
        "distance": 869.5021593227528,
        "walking_time": "약 13분"
      },
      {
        "pc_room_lat": 37.5581938175898,
        "pc_room_lon": 126.937854004585,
        "pc_room_type": "PC방",
        "pc_room_name": "SNS PC방",
        "distance": 949.8366262642612,
        "walking_time": "약 15분"
      },
      {
        "pc_room_lat": 37.5582028873199,
        "pc_room_lon": 126.9290107594,
        "pc_room_type": "PC방",
        "pc_room_name": "GEEKSTAR PC방 창천점",
        "distance": 985.976206435044,
        "walking_time": "약 15분"
      },
      {
        "pc_room_lat": 37.5614156250297,
        "pc_room_lon": 126.924450876158,
        "pc_room_type": "PC방",
        "pc_room_name": "으뜸 플스방",
        "distance": 989.7661958985776,
        "walking_time": "약 15분"
      },
      {
        "pc_room_lat": 37.5573105128395,
        "pc_room_lon": 126.937404523407,
        "pc_room_type": "PC방",
        "pc_room_name": "아이콘 PC",
        "distance": 1029.6170386625354,
        "walking_time": "약 16분"
      },
      {
        "pc_room_lat": 37.556633214994,
        "pc_room_lon": 126.937200582487,
        "pc_room_type": "PC방",
        "pc_room_name": "갤러리 PC방",
        "distance": 1096.9688561058945,
        "walking_time": "약 17분"
      }
    ],
    "police_office": [
      {
        "police_office_lat": 37.57027551,
        "police_office_lon": 126.9328491,
        "police_office_type": "경찰소",
        "police_office_name": "연희파출소",
        "distance": 468.2058236155044,
        "walking_time": "약 7분"
      },
      {
        "police_office_lat": 37.56033561,
        "police_office_lon": 126.9237621,
        "police_office_type": "경찰소",
        "police_office_name": "연남파출소",
        "distance": 1107.2915145645345,
        "walking_time": "약 17분"
      },
      {
        "police_office_lat": 37.55855258,
        "police_office_lon": 126.9430099,
        "police_office_type": "경찰소",
        "police_office_name": "신촌지구대",
        "distance": 1162.7861032614317,
        "walking_time": "약 18분"
      },
      {
        "police_office_lat": 37.57604086,
        "police_office_lon": 126.9240383,
        "police_office_type": "경찰소",
        "police_office_name": "남가좌파출소",
        "distance": 1404.155692982252,
        "walking_time": "약 21분"
      }
    ],
    "post_office": [
      {
        "post_office_lat": 37.56958301,
        "post_office_lon": 126.9316141,
        "post_office_type": "우체국",
        "post_office_name": "서울연희동우체국",
        "distance": 433.2157828834816,
        "walking_time": "약 7분"
      },
      {
        "post_office_lat": 37.56084354,
        "post_office_lon": 126.9320908,
        "post_office_type": "우체국",
        "post_office_name": "서대문우체국",
        "distance": 613.2409569190131,
        "walking_time": "약 10분"
      },
      {
        "post_office_lat": 37.56605084,
        "post_office_lon": 126.9439162,
        "post_office_type": "우체국",
        "post_office_name": "서울연세대학교우체국",
        "distance": 878.0908576256248,
        "walking_time": "약 14분"
      },
      {
        "post_office_lat": 37.55769106,
        "post_office_lon": 126.928758,
        "post_office_type": "우체국",
        "post_office_name": "서울동교동우편취급국",
        "distance": 1046.8887098040873,
        "walking_time": "약 16분"
      },
      {
        "post_office_lat": 37.55462944,
        "post_office_lon": 126.9379735,
        "post_office_type": "우체국",
        "post_office_name": "서울노고산동우편취급국",
        "distance": 1329.8590587847937,
        "walking_time": "약 20분"
      },
      {
        "post_office_lat": 37.55694048,
        "post_office_lon": 126.943879,
        "post_office_type": "우체국",
        "post_office_name": "서울신촌우체국",
        "distance": 1347.4153629372097,
        "walking_time": "약 21분"
      },
      {
        "post_office_lat": 37.57981456,
        "post_office_lon": 126.9345321,
        "post_office_type": "우체국",
        "post_office_name": "서울홍은2동우편취급국",
        "distance": 1519.5042193114966,
        "walking_time": "약 23분"
      },
      {
        "post_office_lat": 37.55146496,
        "post_office_lon": 126.94298,
        "post_office_type": "우체국",
        "post_office_name": "서강대학교우편취급국",
        "distance": 1817.099179086346,
        "walking_time": "약 28분"
      }
    ],
    "public_health_center": [
      {
        "public_health_center_lat": 37.5786098,
        "public_health_center_lon": 126.9362749,
        "public_health_center_type": "보건소",
        "public_health_center_name": "서대문구보건소",
        "distance": 1399.707614232889,
        "walking_time": "약 21분"
      }
    ],
    "school": [
      {
        "school_lat": 37.5690459271047,
        "school_lon": 126.934142303217,
        "school_type": "초등학교",
        "school_name": "서울연희초등학교",
        "distance": 321.6601474450153,
        "walking_time": "약 5분"
      },
      {
        "school_lat": 37.5682162296874,
        "school_lon": 126.927137653568,
        "school_type": "중학교",
        "school_name": "서연중학교",
        "distance": 642.9725070238053,
        "walking_time": "약 10분"
      },
      {
        "school_lat": 37.5715036063411,
        "school_lon": 126.938378258532,
        "school_type": "고등학교",
        "school_name": "한국한성화교고등학교",
        "distance": 710.9591994323941,
        "walking_time": "약 11분"
      },
      {
        "school_lat": 37.5715036063411,
        "school_lon": 126.938378258532,
        "school_type": "중학교",
        "school_name": "한국한성화교중학교",
        "distance": 710.9591994323941,
        "walking_time": "약 11분"
      },
      {
        "school_lat": 37.5581430512569,
        "school_lon": 126.933480871339,
        "school_type": "초등학교",
        "school_name": "서울창서초등학교",
        "distance": 892.087865594275,
        "walking_time": "약 14분"
      },
      {
        "school_lat": 37.5611502235257,
        "school_lon": 126.942775077877,
        "school_type": "초등학교",
        "school_name": "이화여자대학교사범대학부속초등학교",
        "distance": 956.2376392839616,
        "walking_time": "약 15분"
      },
      {
        "school_lat": 37.5626393076934,
        "school_lon": 126.944488566727,
        "school_type": "중학교",
        "school_name": "이화여자대학교사범대학부속이화·금란중학교",
        "distance": 1007.5087722955312,
        "walking_time": "약 16분"
      },
      {
        "school_lat": 37.5663888550725,
        "school_lon": 126.947355714248,
        "school_type": "고등학교",
        "school_name": "이화여자대학교사범대학부속이화금란고등학교",
        "distance": 1181.444502934192,
        "walking_time": "약 18분"
      },
      {
        "school_lat": 37.5775532912341,
        "school_lon": 126.938295387125,
        "school_type": "중학교",
        "school_name": "연북중학교",
        "distance": 1323.6996716801184,
        "walking_time": "약 20분"
      },
      {
        "school_lat": 37.5549178201995,
        "school_lon": 126.939295148137,
        "school_type": "중학교",
        "school_name": "창천중학교",
        "distance": 1335.461782513238,
        "walking_time": "약 20분"
      }
    ],
    "self_laundromat": [
      {
        "self_laundromat_lat": 37.56676336,
        "self_laundromat_lon": 126.9321058,
        "self_laundromat_type": "셀프 빨래방",
        "self_laundromat_name": "세탁풍경 연희점",
        "distance": 176.34007543133154,
        "walking_time": "약 3분"
      },
      {
        "self_laundromat_lat": 37.56676336,
        "self_laundromat_lon": 126.9321058,
        "self_laundromat_type": "셀프 빨래방",
        "self_laundromat_name": "세탁풍경 연희점",
        "distance": 176.34007543133154,
        "walking_time": "약 3분"
      },
      {
        "self_laundromat_lat": 37.5663532,
        "self_laundromat_lon": 126.9309751,
        "self_laundromat_type": "셀프 빨래방",
        "self_laundromat_name": "화이트365 연희점",
        "distance": 263.5045004631949,
        "walking_time": "약 4분"
      },
      {
        "self_laundromat_lat": 37.5663532,
        "self_laundromat_lon": 126.9309751,
        "self_laundromat_type": "셀프 빨래방",
        "self_laundromat_name": "화이트365 연희점",
        "distance": 263.5045004631949,
        "walking_time": "약 4분"
      },
      {
        "self_laundromat_lat": 37.56521326,
        "self_laundromat_lon": 126.9302076,
        "self_laundromat_type": "셀프 빨래방",
        "self_laundromat_name": "워시큐 연희브라운스톤점",
        "distance": 346.5204392373419,
        "walking_time": "약 6분"
      },
      {
        "self_laundromat_lat": 37.56521326,
        "self_laundromat_lon": 126.9302076,
        "self_laundromat_type": "셀프 빨래방",
        "self_laundromat_name": "워시큐 연희브라운스톤점",
        "distance": 346.5204392373419,
        "walking_time": "약 6분"
      },
      {
        "self_laundromat_lat": 37.56939756,
        "self_laundromat_lon": 126.9321874,
        "self_laundromat_type": "셀프 빨래방",
        "self_laundromat_name": "워시프렌즈 셀프빨래방 연희점",
        "distance": 392.552330843373,
        "walking_time": "약 6분"
      },
      {
        "self_laundromat_lat": 37.56939756,
        "self_laundromat_lon": 126.9321874,
        "self_laundromat_type": "셀프 빨래방",
        "self_laundromat_name": "워시프렌즈 셀프빨래방 연희점",
        "distance": 392.552330843373,
        "walking_time": "약 6분"
      },
      {
        "self_laundromat_lat": 37.56312103,
        "self_laundromat_lon": 126.9312236,
        "self_laundromat_type": "셀프 빨래방",
        "self_laundromat_name": "워시스토리셀프빨래방 연희연세대점",
        "distance": 414.6095324861713,
        "walking_time": "약 7분"
      },
      {
        "self_laundromat_lat": 37.56312103,
        "self_laundromat_lon": 126.9312236,
        "self_laundromat_type": "셀프 빨래방",
        "self_laundromat_name": "워시스토리셀프빨래방 연희연세대점",
        "distance": 414.6095324861713,
        "walking_time": "약 7분"
      }
    ],
    "subway": [
      {
        "subway_lat": 37.5553118177651,
        "subway_lon": 126.935539064832,
        "subway_type": "지하철",
        "subway_name": "2호선-신촌(지하)역",
        "distance": 1213.9908059915929,
        "walking_time": "약 19분"
      },
      {
        "subway_lat": 37.5568904093718,
        "subway_lon": 126.923674307594,
        "subway_type": "지하철",
        "subway_name": "2호선-홍대입구역",
        "distance": 1372.1540943537618,
        "walking_time": "약 21분"
      },
      {
        "subway_lat": 37.5565092992834,
        "subway_lon": 126.945485771834,
        "subway_type": "지하철",
        "subway_name": "2호선-이대역",
        "distance": 1477.8193084129434,
        "walking_time": "약 23분"
      }
    ],
    "supermarket": [
      {
        "supermarket_lat": 37.56715459,
        "supermarket_lon": 126.9296612,
        "supermarket_type": "마트",
        "supermarket_name": "연희슈퍼마켓",
        "distance": 394.3267767642844,
        "walking_time": "약 6분"
      },
      {
        "supermarket_lat": 37.56237655,
        "supermarket_lon": 126.9267634,
        "supermarket_type": "마트",
        "supermarket_name": "동진시장",
        "distance": 760.5580582838346,
        "walking_time": "약 12분"
      },
      {
        "supermarket_lat": 37.55840604,
        "supermarket_lon": 126.928533,
        "supermarket_type": "마트",
        "supermarket_name": "롯데슈퍼 창천점",
        "distance": 985.4815084787546,
        "walking_time": "약 15분"
      },
      {
        "supermarket_lat": 37.55982413,
        "supermarket_lon": 126.942387,
        "supermarket_type": "마트",
        "supermarket_name": "신촌 밀리오레",
        "distance": 1023.8703565175512,
        "walking_time": "약 16분"
      },
      {
        "supermarket_lat": 37.55608306,
        "supermarket_lon": 126.9358449,
        "supermarket_type": "마트",
        "supermarket_name": "현대백화점 신촌점",
        "distance": 1132.496524186974,
        "walking_time": "약 17분"
      },
      {
        "supermarket_lat": 37.56271074,
        "supermarket_lon": 126.921857,
        "supermarket_type": "마트",
        "supermarket_name": "홈플러스익스프레스 연남점",
        "distance": 1133.0508908617194,
        "walking_time": "약 17분"
      },
      {
        "supermarket_lat": 37.55774581,
        "supermarket_lon": 126.9264983,
        "supermarket_type": "마트",
        "supermarket_name": "AK PLAZA 홍대",
        "distance": 1143.103341393564,
        "walking_time": "약 18분"
      },
      {
        "supermarket_lat": 37.55653513,
        "supermarket_lon": 126.9283908,
        "supermarket_type": "마트",
        "supermarket_name": "홍대복합역사 상업시설",
        "distance": 1176.9423882497415,
        "walking_time": "약 18분"
      },
      {
        "supermarket_lat": 37.55499393,
        "supermarket_lon": 126.9360018,
        "supermarket_type": "마트",
        "supermarket_name": "정도진흥기업(주)",
        "distance": 1254.3260757532526,
        "walking_time": "약 19분"
      },
      {
        "supermarket_lat": 37.55724678,
        "supermarket_lon": 126.9249862,
        "supermarket_type": "마트",
        "supermarket_name": "스타피카소 아울렛",
        "distance": 1267.4855530113014,
        "walking_time": "약 19분"
      }
    ],
    "theater": [
      {
        "theater_lat": 37.5651674709792,
        "theater_lon": 126.930936157626,
        "theater_type": "영화관",
        "theater_name": "라이카시네마",
        "distance": 287.8905674976915,
        "walking_time": "약 5분"
      },
      {
        "theater_lat": 37.5637750959193,
        "theater_lon": 126.944090214952,
        "theater_type": "영화관",
        "theater_name": "필름포럼",
        "distance": 931.7968111353877,
        "walking_time": "약 14분"
      },
      {
        "theater_lat": 37.5598241279561,
        "theater_lon": 126.942386979371,
        "theater_type": "영화관",
        "theater_name": "메가박스중앙(주) 신촌지점",
        "distance": 1023.8691928802888,
        "walking_time": "약 16분"
      },
      {
        "theater_lat": 37.5576684824211,
        "theater_lon": 126.92589313527,
        "theater_type": "영화관",
        "theater_name": "CGV연남",
        "distance": 1181.4409114870548,
        "walking_time": "약 18분"
      },
      {
        "theater_lat": 37.5565639285478,
        "theater_lon": 126.940328119434,
        "theater_type": "영화관",
        "theater_name": "CGV신촌아트레온",
        "distance": 1205.598786835753,
        "walking_time": "약 18분"
      },
      {
        "theater_lat": 37.5572467836494,
        "theater_lon": 126.924986220455,
        "theater_type": "영화관",
        "theater_name": "독립영화전용관 인디스페이스",
        "distance": 1267.4841113190737,
        "walking_time": "약 19분"
      },
      {
        "theater_lat": 37.5564943733388,
        "theater_lon": 126.922631917858,
        "theater_type": "영화관",
        "theater_name": "CGV홍대",
        "distance": 1466.4440371566282,
        "walking_time": "약 22분"
      },
      {
        "theater_lat": 37.5560502523992,
        "theater_lon": 126.922054509333,
        "theater_type": "영화관",
        "theater_name": "메가박스중앙(주) 홍대지점",
        "distance": 1537.27122548486,
        "walking_time": "약 23분"
      },
      {
        "theater_lat": 37.5543349117636,
        "theater_lon": 126.921207395382,
        "theater_type": "영화관",
        "theater_name": "모노플렉스 앳 라이즈",
        "distance": 1729.3174341939894,
        "walking_time": "약 26분"
      },
      {
        "theater_lat": 37.5509576951977,
        "theater_lon": 126.921063042067,
        "theater_type": "영화관",
        "theater_name": "KT&G 상상마당 cinema",
        "distance": 2036.58638812498,
        "walking_time": "약 31분"
      }
    ],
    "university": [
      {
        "university_lat": 37.5660508394158,
        "university_lon": 126.943916239886,
        "university_type": "대학교",
        "university_name": "연세대학교",
        "distance": 878.0943736841779,
        "walking_time": "약 14분"
      },
      {
        "university_lat": 37.5631740311778,
        "university_lon": 126.947807434256,
        "university_type": "대학교",
        "university_name": "이화여자대학교",
        "distance": 1265.2542797780416,
        "walking_time": "약 19분"
      },
      {
        "university_lat": 37.5525245968145,
        "university_lon": 126.9250355422,
        "university_type": "대학교",
        "university_name": "홍익대학교",
        "distance": 1707.5970080741215,
        "walking_time": "약 26분"
      },
      {
        "university_lat": 37.5514649610226,
        "university_lon": 126.942979960696,
        "university_type": "대학교",
        "university_name": "서강대학교",
        "distance": 1817.097559986679,
        "walking_time": "약 28분"
      }
    ]
  }
}