{
  "클러스터_위도": 37.48226,
  "클러스터_경도": 126.949513,
  "클러스터_level": 4.0,
  "facilities": {
    "bus": [
      {
        "bus_lat": 37.48148289,
        "bus_lon": 126.9484611,
        "bus_type": "버스정류장",
        "bus_name": "KT관악지점",
        "distance": 126.81466742105484,
        "walking_time": "약 2분"
      },
      {
        "bus_lat": 37.48162815,
        "bus_lon": 126.9510142,
        "bus_type": "버스정류장",
        "bus_name": "서울대입구역5번출구",
        "distance": 149.9424958226965,
        "walking_time": "약 3분"
      },
      {
        "bus_lat": 37.48159318,
        "bus_lon": 126.951428,
        "bus_type": "버스정류장",
        "bus_name": "서울대학교입구전철역",
        "distance": 184.52839213459708,
        "walking_time": "약 3분"
      },
      {
        "bus_lat": 37.48203902,
        "bus_lon": 126.9471913,
        "bus_type": "버스정류장",
        "bus_name": "KT관악지점",
        "distance": 206.3304056038026,
        "walking_time": "약 4분"
      },
      {
        "bus_lat": 37.48319505,
        "bus_lon": 126.9465738,
        "bus_type": "버스정류장",
        "bus_name": "신협",
        "distance": 279.4122450761007,
        "walking_time": "약 5분"
      },
      {
        "bus_lat": 37.48321392,
        "bus_lon": 126.946455,
        "bus_type": "버스정류장",
        "bus_name": "신협",
        "distance": 289.92938450767394,
        "walking_time": "약 5분"
      },
      {
        "bus_lat": 37.48070059,
        "bus_lon": 126.952444,
        "bus_type": "버스정류장",
        "bus_name": "서울대입구역",
        "distance": 311.3765358440773,
        "walking_time": "약 5분"
      },
      {
        "bus_lat": 37.48419001,
        "bus_lon": 126.9468252,
        "bus_type": "버스정류장",
        "bus_name": "신봉초등학교입구",
        "distance": 319.84742915937073,
        "walking_time": "약 5분"
      },
      {
        "bus_lat": 37.48435883,
        "bus_lon": 126.9465537,
        "bus_type": "버스정류장",
        "bus_name": "은천동두산아파트3단지",
        "distance": 350.21243926375314,
        "walking_time": "약 6분"
      },
      {
        "bus_lat": 37.48279341,
        "bus_lon": 126.9535723,
        "bus_type": "버스정류장",
        "bus_name": "봉천사거리.위버폴리스",
        "distance": 363.0601600711877,
        "walking_time": "약 6분"
      }
    ],
    "community_center": [
      {
        "community_center_lat": 37.48419282,
        "community_center_lon": 126.9497511,
        "community_center_type": "주민센터",
        "community_center_name": "중앙동 자치회관",
        "distance": 215.94419546016715,
        "walking_time": "약 4분"
      },
      {
        "community_center_lat": 37.48064257,
        "community_center_lon": 126.9570309,
        "community_center_type": "주민센터",
        "community_center_name": "행운동 자치회관",
        "distance": 687.3181012485024,
        "walking_time": "약 11분"
      },
      {
        "community_center_lat": 37.48533865,
        "community_center_lon": 126.9424717,
        "community_center_type": "주민센터",
        "community_center_name": "은천동 자치회관",
        "distance": 709.3651635022173,
        "walking_time": "약 11분"
      },
      {
        "community_center_lat": 37.4791175,
        "community_center_lon": 126.9416407,
        "community_center_type": "주민센터",
        "community_center_name": "청룡동 자치회관",
        "distance": 777.5852890938326,
        "walking_time": "약 12분"
      },
      {
        "community_center_lat": 37.48721429,
        "community_center_lon": 126.956633,
        "community_center_type": "주민센터",
        "community_center_name": "성현동 자치회관",
        "distance": 835.558446149226,
        "walking_time": "약 13분"
      },
      {
        "community_center_lat": 37.47649632,
        "community_center_lon": 126.9583326,
        "community_center_type": "주민센터",
        "community_center_name": "낙성대동 자치회관",
        "distance": 1008.1761573034338,
        "walking_time": "약 16분"
      },
      {
        "community_center_lat": 37.49184717,
        "community_center_lon": 126.9586277,
        "community_center_type": "주민센터",
        "community_center_name": "청림동 자치회관",
        "distance": 1335.3667689812198,
        "walking_time": "약 20분"
      },
      {
        "community_center_lat": 37.47499588,
        "community_center_lon": 126.9349996,
        "community_center_type": "주민센터",
        "community_center_name": "서림동 자치회관",
        "distance": 1514.1359651044972,
        "walking_time": "약 23분"
      },
      {
        "community_center_lat": 37.48817585,
        "community_center_lon": 126.932778,
        "community_center_type": "주민센터",
        "community_center_name": "보라매동 자치회관",
        "distance": 1616.4990536948658,
        "walking_time": "약 25분"
      },
      {
        "community_center_lat": 37.47976918,
        "community_center_lon": 126.9313747,
        "community_center_type": "주민센터",
        "community_center_name": "서원동 자치회관",
        "distance": 1624.298340698064,
        "walking_time": "약 25분"
      }
    ],
    "convenience_store": [
      {
        "convenience_store_lat": 37.48182209,
        "convenience_store_lon": 126.9503819,
        "convenience_store_type": "편의점",
        "convenience_store_name": "CU 관악한울점",
        "distance": 90.8258967755234,
        "walking_time": "약 2분"
      },
      {
        "convenience_store_lat": 37.48265777,
        "convenience_store_lon": 126.9505919,
        "convenience_store_type": "편의점",
        "convenience_store_name": "GS25 관악한빛점",
        "distance": 104.97258801952076,
        "walking_time": "약 2분"
      },
      {
        "convenience_store_lat": 37.4809235,
        "convenience_store_lon": 126.9488786,
        "convenience_store_type": "편의점",
        "convenience_store_name": "CU 서울대파인점",
        "distance": 158.80533082724227,
        "walking_time": "약 3분"
      },
      {
        "convenience_store_lat": 37.48350324,
        "convenience_store_lon": 126.9507275,
        "convenience_store_type": "편의점",
        "convenience_store_name": "CU 관악트윈스점",
        "distance": 174.91413790957426,
        "walking_time": "약 3분"
      },
      {
        "convenience_store_lat": 37.48069559,
        "convenience_store_lon": 126.9502571,
        "convenience_store_type": "편의점",
        "convenience_store_name": "GS25 관악봉천점",
        "distance": 185.9332797559766,
        "walking_time": "약 3분"
      },
      {
        "convenience_store_lat": 37.48031858,
        "convenience_store_lon": 126.9501843,
        "convenience_store_type": "편의점",
        "convenience_store_name": "미니스톱 관악정옥점",
        "distance": 223.85538779912284,
        "walking_time": "약 4분"
      },
      {
        "convenience_store_lat": 37.48057724,
        "convenience_store_lon": 126.9474288,
        "convenience_store_type": "편의점",
        "convenience_store_name": "GS25 봉천제일점",
        "distance": 262.3617691495992,
        "walking_time": "약 4분"
      },
      {
        "convenience_store_lat": 37.48170083,
        "convenience_store_lon": 126.9461146,
        "convenience_store_type": "편의점",
        "convenience_store_name": "세븐일레븐 봉천점",
        "distance": 306.2467952875853,
        "walking_time": "약 5분"
      },
      {
        "convenience_store_lat": 37.48456599,
        "convenience_store_lon": 126.9474148,
        "convenience_store_type": "편의점",
        "convenience_store_name": "GS25 봉천가온점",
        "distance": 316.26621876310327,
        "walking_time": "약 5분"
      },
      {
        "convenience_store_lat": 37.47938345,
        "convenience_store_lon": 126.9500473,
        "convenience_store_type": "편의점",
        "convenience_store_name": "GS25 관악원앙점",
        "distance": 323.3137351208234,
        "walking_time": "약 5분"
      }
    ],
    "daycare": [
      {
        "daycare_lat": 37.48050423,
        "daycare_lon": 126.9478278,
        "daycare_type": "어린이집",
        "daycare_name": "성약어린이집",
        "distance": 245.41299898146403,
        "walking_time": "약 4분"
      },
      {
        "daycare_lat": 37.48435092,
        "daycare_lon": 126.9480441,
        "daycare_type": "어린이집",
        "daycare_name": "중앙사회복지관 방과후 어린이집",
        "distance": 266.1861149165383,
        "walking_time": "약 4분"
      },
      {
        "daycare_lat": 37.48448664,
        "daycare_lon": 126.94828802903749,
        "daycare_type": "어린이집",
        "daycare_name": "구립중앙어린이집",
        "distance": 270.155829742925,
        "walking_time": "약 5분"
      },
      {
        "daycare_lat": 37.48359971,
        "daycare_lon": 126.9460511,
        "daycare_type": "어린이집",
        "daycare_name": "이레몬테소리어린이집",
        "distance": 339.85630821456783,
        "walking_time": "약 6분"
      },
      {
        "daycare_lat": 37.48395781,
        "daycare_lon": 126.9528834,
        "daycare_type": "어린이집",
        "daycare_name": "예원어린이집",
        "distance": 352.25512560646246,
        "walking_time": "약 6분"
      },
      {
        "daycare_lat": 37.48549667,
        "daycare_lon": 126.9492153,
        "daycare_type": "어린이집",
        "daycare_name": "평안어린이집",
        "distance": 360.85860468424056,
        "walking_time": "약 6분"
      },
      {
        "daycare_lat": 37.48527424,
        "daycare_lon": 126.9472057,
        "daycare_type": "어린이집",
        "daycare_name": "예대어린이집",
        "distance": 392.1548074922542,
        "walking_time": "약 6분"
      },
      {
        "daycare_lat": 37.48007722,
        "daycare_lon": 126.945412,
        "daycare_type": "어린이집",
        "daycare_name": "늘푸른어린이집",
        "distance": 435.7281166076337,
        "walking_time": "약 7분"
      },
      {
        "daycare_lat": 37.48518707,
        "daycare_lon": 126.9459179,
        "daycare_type": "어린이집",
        "daycare_name": "즐거운어린이집",
        "distance": 454.4900257561352,
        "walking_time": "약 7분"
      },
      {
        "daycare_lat": 37.48515226,
        "daycare_lon": 126.9457775,
        "daycare_type": "어린이집",
        "daycare_name": "구립즐거운어린이집",
        "distance": 460.5102158072704,
        "walking_time": "약 7분"
      }
    ],
    "education": [
      {
        "education_lat": 37.48624318,
        "education_lon": 126.9596703,
        "education_type": "도서관",
        "education_name": "글빛정보도서관",
        "distance": 999.7021324952012,
        "walking_time": "약 15분"
      },
      {
        "education_lat": 37.47197208,
        "education_lon": 126.959371,
        "education_type": "도서관",
        "education_name": "낙성대공원도서관",
        "distance": 1437.1483147762365,
        "walking_time": "약 22분"
      },
      {
        "education_lat": 37.49642897,
        "education_lon": 126.9551579,
        "education_type": "박물관/기념관",
        "education_name": "숭실대학교 한국기독교박물관",
        "distance": 1652.3637312705132,
        "walking_time": "약 25분"
      },
      {
        "education_lat": 37.49543351,
        "education_lon": 126.9405902,
        "education_type": "도서관",
        "education_name": "국사봉숲속작은도서관",
        "distance": 1662.9781387566034,
        "walking_time": "약 25분"
      },
      {
        "education_lat": 37.49788488,
        "education_lon": 126.9474555,
        "education_type": "도서관",
        "education_name": "약수도서관",
        "distance": 1746.865101777786,
        "walking_time": "약 27분"
      },
      {
        "education_lat": 37.49925547,
        "education_lon": 126.9403722,
        "education_type": "공연장",
        "education_name": "상도어울마당 아트홀",
        "distance": 2054.6970381229453,
        "walking_time": "약 31분"
      }
    ],
    "fitness": [
      {
        "fitness_lat": 37.48194203,
        "fitness_lon": 126.9493677,
        "fitness_type": "운동시설",
        "fitness_name": "운동친구",
        "distance": 37.609445007894585,
        "walking_time": "약 1분"
      },
      {
        "fitness_lat": 37.48186235,
        "fitness_lon": 126.9501321,
        "fitness_type": "운동시설",
        "fitness_name": "얼티밋트레이닝 서울대점",
        "distance": 70.28051885255886,
        "walking_time": "약 2분"
      },
      {
        "fitness_lat": 37.48129174,
        "fitness_lon": 126.9499232,
        "fitness_type": "운동시설",
        "fitness_name": "바운드짐",
        "distance": 113.58691611502316,
        "walking_time": "약 2분"
      },
      {
        "fitness_lat": 37.4813303,
        "fitness_lon": 126.948665,
        "fitness_type": "운동시설",
        "fitness_name": "짐 인 더 하우스(Gym in the house)",
        "distance": 127.61640137102304,
        "walking_time": "약 2분"
      },
      {
        "fitness_lat": 37.48108808,
        "fitness_lon": 126.9509178,
        "fitness_type": "운동시설",
        "fitness_name": "포인티PT",
        "distance": 179.85148002038795,
        "walking_time": "약 3분"
      },
      {
        "fitness_lat": 37.48108808,
        "fitness_lon": 126.9509178,
        "fitness_type": "운동시설",
        "fitness_name": "슬림한바디PT 서울대입구점",
        "distance": 179.85148002038795,
        "walking_time": "약 3분"
      },
      {
        "fitness_lat": 37.48069559,
        "fitness_lon": 126.9502571,
        "fitness_type": "운동시설",
        "fitness_name": "헤게모니짐PT 서울대입구점",
        "distance": 185.9332797559766,
        "walking_time": "약 3분"
      },
      {
        "fitness_lat": 37.48092236,
        "fitness_lon": 126.9513114,
        "fitness_type": "운동시설",
        "fitness_name": "Re:BODY 헬스 365",
        "distance": 217.49760295867765,
        "walking_time": "약 4분"
      },
      {
        "fitness_lat": 37.48103582,
        "fitness_lon": 126.9515661,
        "fitness_type": "운동시설",
        "fitness_name": "슬릭부스트 서울대입구점",
        "distance": 226.6036952292428,
        "walking_time": "약 4분"
      },
      {
        "fitness_lat": 37.48164117,
        "fitness_lon": 126.9521444,
        "fitness_type": "운동시설",
        "fitness_name": "피트니스 FM",
        "distance": 242.17163191868684,
        "walking_time": "약 4분"
      }
    ],
    "gas_station": [
      {
        "gas_station_lat": 37.48233196,
        "gas_station_lon": 126.9450663,
        "gas_station_type": "주유소",
        "gas_station_name": "시몬주유소",
        "distance": 392.44850935090943,
        "walking_time": "약 6분"
      },
      {
        "gas_station_lat": 37.4787977,
        "gas_station_lon": 126.9583966,
        "gas_station_type": "주유소",
        "gas_station_name": "SK에너지㈜ 신봉천주유소",
        "distance": 873.3254395889613,
        "walking_time": "약 14분"
      },
      {
        "gas_station_lat": 37.47909674,
        "gas_station_lon": 126.9591692,
        "gas_station_type": "주유소",
        "gas_station_name": "행운주유소",
        "distance": 921.8060147915504,
        "walking_time": "약 14분"
      },
      {
        "gas_station_lat": 37.49347189,
        "gas_station_lon": 126.9564351,
        "gas_station_type": "주유소",
        "gas_station_name": "현대오일뱅크㈜직영동작주유소",
        "distance": 1388.2664564679824,
        "walking_time": "약 21분"
      },
      {
        "gas_station_lat": 37.4737677,
        "gas_station_lon": 126.9348256,
        "gas_station_type": "주유소",
        "gas_station_name": "유림주유소",
        "distance": 1603.5802504147746,
        "walking_time": "약 24분"
      },
      {
        "gas_station_lat": 37.48041974,
        "gas_station_lon": 126.9306687,
        "gas_station_type": "주유소",
        "gas_station_name": "신관주유소",
        "distance": 1675.344070351763,
        "walking_time": "약 26분"
      },
      {
        "gas_station_lat": 37.4983605,
        "gas_station_lon": 126.951389,
        "gas_station_type": "주유소",
        "gas_station_name": "살피재주유소",
        "distance": 1797.928796517942,
        "walking_time": "약 27분"
      }
    ],
    "hospital": [
      {
        "hospital_lat": 37.48204308,
        "hospital_lon": 126.9486313,
        "hospital_type": "병원",
        "hospital_name": "미래드림여성병원",
        "distance": 81.4526883767996,
        "walking_time": "약 2분"
      },
      {
        "hospital_lat": 37.48182209,
        "hospital_lon": 126.9503819,
        "hospital_type": "병원",
        "hospital_name": "미앤미의원",
        "distance": 90.8258967755234,
        "walking_time": "약 2분"
      },
      {
        "hospital_lat": 37.48182209,
        "hospital_lon": 126.9503819,
        "hospital_type": "병원",
        "hospital_name": "서울나란이치과교정과치과의원",
        "distance": 90.8258967755234,
        "walking_time": "약 2분"
      },
      {
        "hospital_lat": 37.48182209,
        "hospital_lon": 126.9503819,
        "hospital_type": "병원",
        "hospital_name": "연서담한의원",
        "distance": 90.8258967755234,
        "walking_time": "약 2분"
      },
      {
        "hospital_lat": 37.48131348,
        "hospital_lon": 126.949349,
        "hospital_type": "병원",
        "hospital_name": "손승환내과의원",
        "distance": 106.23841488388624,
        "walking_time": "약 2분"
      },
      {
        "hospital_lat": 37.4817775,
        "hospital_lon": 126.950845,
        "hospital_type": "병원",
        "hospital_name": "구앤장마취통증의학과피부과의원",
        "distance": 129.19958211001824,
        "walking_time": "약 2분"
      },
      {
        "hospital_lat": 37.48145749,
        "hospital_lon": 126.94817,
        "hospital_type": "병원",
        "hospital_name": "정구일정형외과의원",
        "distance": 148.34452317877177,
        "walking_time": "약 3분"
      },
      {
        "hospital_lat": 37.48203632,
        "hospital_lon": 126.9511969,
        "hospital_type": "병원",
        "hospital_name": "필립포스치과의원",
        "distance": 150.65122798006718,
        "walking_time": "약 3분"
      },
      {
        "hospital_lat": 37.48203632,
        "hospital_lon": 126.9511969,
        "hospital_type": "병원",
        "hospital_name": "필립포스치과의원",
        "distance": 150.65122798006718,
        "walking_time": "약 3분"
      },
      {
        "hospital_lat": 37.48108808,
        "hospital_lon": 126.9509178,
        "hospital_type": "병원",
        "hospital_name": "연세에이플러스치과의원",
        "distance": 179.85148002038795,
        "walking_time": "약 3분"
      }
    ],
    "music_room": [
      {
        "music_room_lat": 37.48226026,
        "music_room_lon": 126.9493556,
        "music_room_type": "노래방",
        "music_room_name": "우리노래연습장",
        "distance": 13.888663073954907,
        "walking_time": "약 1분"
      },
      {
        "music_room_lat": 37.48108654,
        "music_room_lon": 126.9492083,
        "music_room_type": "노래방",
        "music_room_name": "에이스",
        "distance": 133.2239938108851,
        "walking_time": "약 2분"
      },
      {
        "music_room_lat": 37.48108569,
        "music_room_lon": 126.9499484,
        "music_room_type": "노래방",
        "music_room_name": "별",
        "distance": 136.11193315404316,
        "walking_time": "약 3분"
      },
      {
        "music_room_lat": 37.48254533,
        "music_room_lon": 126.9514723,
        "music_room_type": "노래방",
        "music_room_name": "전국",
        "distance": 175.77117777332668,
        "walking_time": "약 3분"
      },
      {
        "music_room_lat": 37.48244124,
        "music_room_lon": 126.952524,
        "music_room_type": "노래방",
        "music_room_name": "팡팡 노래연습장",
        "distance": 266.4469939399843,
        "walking_time": "약 4분"
      },
      {
        "music_room_lat": 37.480948,
        "music_room_lon": 126.9520838,
        "music_room_type": "노래방",
        "music_room_name": "오투 노래연습장 2",
        "distance": 269.7060158635569,
        "walking_time": "약 5분"
      },
      {
        "music_room_lat": 37.48151703,
        "music_room_lon": 126.9465227,
        "music_room_type": "노래방",
        "music_room_name": "영노래연습장",
        "distance": 276.48988545837807,
        "walking_time": "약 5분"
      },
      {
        "music_room_lat": 37.48070831,
        "music_room_lon": 126.9522549,
        "music_room_type": "노래방",
        "music_room_name": "슈가",
        "distance": 297.1630901780868,
        "walking_time": "약 5분"
      },
      {
        "music_room_lat": 37.48328173,
        "music_room_lon": 126.946278,
        "music_room_type": "노래방",
        "music_room_name": "라이브",
        "distance": 307.2258461394005,
        "walking_time": "약 5분"
      },
      {
        "music_room_lat": 37.48370434,
        "music_room_lon": 126.9463635,
        "music_room_type": "노래방",
        "music_room_name": "라라노래연습장",
        "distance": 320.97214693501405,
        "walking_time": "약 5분"
      }
    ],
    "park": [
      {
        "park_lat": 37.492299,
        "park_lon": 126.9385469,
        "park_type": "공원",
        "park_name": "상도근린공원",
        "distance": 1477.249477842261,
        "walking_time": "약 23분"
      }
    ],
    "park_station": [
      {
        "park_station_lat": 37.47785677,
        "park_station_lon": 126.9588859,
        "park_station_type": "주차장",
        "park_station_name": "낙성대제1공영",
        "distance": 961.128077543004,
        "walking_time": "약 15분"
      },
      {
        "park_station_lat": 37.47480251,
        "park_station_lon": 126.9598846,
        "park_station_type": "주차장",
        "park_station_name": "낙성대제2공영",
        "distance": 1235.008380992001,
        "walking_time": "약 19분"
      },
      {
        "park_station_lat": 37.48685341,
        "park_station_lon": 126.9331906,
        "park_station_type": "주차장",
        "park_station_name": "봉천복개3 공영주차장",
        "distance": 1528.0971636711038,
        "walking_time": "약 23분"
      },
      {
        "park_station_lat": 37.49727728,
        "park_station_lon": 126.9540285,
        "park_station_type": "주차장",
        "park_station_name": "살피재 공유주차장",
        "distance": 1716.713231594662,
        "walking_time": "약 26분"
      },
      {
        "park_station_lat": 37.49727728,
        "park_station_lon": 126.9540285,
        "park_station_type": "주차장",
        "park_station_name": "살피재 공유주차장",
        "distance": 1716.713231594662,
        "walking_time": "약 26분"
      },
      {
        "park_station_lat": 37.49193146,
        "park_station_lon": 126.9331501,
        "park_station_type": "주차장",
        "park_station_name": "당곡중학교공영 ",
        "distance": 1800.246605321779,
        "walking_time": "약 27분"
      },
      {
        "park_station_lat": 37.49330922,
        "park_station_lon": 126.9336841,
        "park_station_type": "주차장",
        "park_station_name": "빙수골장미",
        "distance": 1860.1085907622105,
        "walking_time": "약 28분"
      },
      {
        "park_station_lat": 37.49725268,
        "park_station_lon": 126.9338844,
        "park_station_type": "주차장",
        "park_station_name": "공유) 성대주차장",
        "distance": 2163.471201019964,
        "walking_time": "약 33분"
      },
      {
        "park_station_lat": 37.49978486,
        "park_station_lon": 126.9354957,
        "park_station_type": "주차장",
        "park_station_name": "도화공영주차장",
        "distance": 2307.984013187563,
        "walking_time": "약 35분"
      }
    ],
    "pc_room": [
      {
        "pc_room_lat": 37.4812382481402,
        "pc_room_lon": 126.948113779028,
        "pc_room_type": "PC방",
        "pc_room_name": "더블m PC방",
        "distance": 167.78460845326893,
        "walking_time": "약 3분"
      },
      {
        "pc_room_lat": 37.482562858333,
        "pc_room_lon": 126.951378697167,
        "pc_room_type": "PC방",
        "pc_room_name": "매니아 PC",
        "distance": 168.03390105645823,
        "walking_time": "약 3분"
      },
      {
        "pc_room_lat": 37.4808713899046,
        "pc_room_lon": 126.948600646271,
        "pc_room_type": "PC방",
        "pc_room_name": "이스테이션PC방",
        "distance": 174.13318754537994,
        "walking_time": "약 3분"
      },
      {
        "pc_room_lat": 37.4806186063628,
        "pc_room_lon": 126.951245075921,
        "pc_room_type": "PC방",
        "pc_room_name": "맥스피드PC 서울대입구역점",
        "distance": 238.05571879446452,
        "walking_time": "약 4분"
      },
      {
        "pc_room_lat": 37.4818953761288,
        "pc_room_lon": 126.952225627266,
        "pc_room_type": "PC방",
        "pc_room_name": "에이스PC",
        "distance": 242.76649110491212,
        "walking_time": "약 4분"
      },
      {
        "pc_room_lat": 37.4815170316646,
        "pc_room_lon": 126.946522694417,
        "pc_room_type": "PC방",
        "pc_room_name": "브라보PC",
        "distance": 276.4903002803113,
        "walking_time": "약 5분"
      },
      {
        "pc_room_lat": 37.479783254518,
        "pc_room_lon": 126.951181288015,
        "pc_room_type": "PC방",
        "pc_room_name": "왕바다PC랜드",
        "distance": 312.27609230912554,
        "walking_time": "약 5분"
      },
      {
        "pc_room_lat": 37.4799546008071,
        "pc_room_lon": 126.947344732144,
        "pc_room_type": "PC방",
        "pc_room_name": "욜로PC방 봉천점",
        "distance": 319.8755398755161,
        "walking_time": "약 5분"
      },
      {
        "pc_room_lat": 37.4798753308636,
        "pc_room_lon": 126.952044774856,
        "pc_room_type": "PC방",
        "pc_room_name": "긱스타 PC방(Geek Star PC cafe)",
        "distance": 346.7273659651412,
        "walking_time": "약 6분"
      },
      {
        "pc_room_lat": 37.4830752493665,
        "pc_room_lon": 126.953587750655,
        "pc_room_type": "PC방",
        "pc_room_name": "3POP 피시방",
        "distance": 370.79702161645184,
        "walking_time": "약 6분"
      }
    ],
    "police_office": [
      {
        "police_office_lat": 37.48735272,
        "police_office_lon": 126.9454289,
        "police_office_type": "경찰소",
        "police_office_name": "구암지구대",
        "distance": 671.2208768700649,
        "walking_time": "약 11분"
      },
      {
        "police_office_lat": 37.47832691,
        "police_office_lon": 126.9575957,
        "police_office_type": "경찰소",
        "police_office_name": "낙성대지구대",
        "distance": 836.6282040134405,
        "walking_time": "약 13분"
      },
      {
        "police_office_lat": 37.48600685,
        "police_office_lon": 126.9343644,
        "police_office_type": "경찰소",
        "police_office_name": "당곡지구대",
        "distance": 1400.0726787764904,
        "walking_time": "약 21분"
      },
      {
        "police_office_lat": 37.48401647,
        "police_office_lon": 126.9333173,
        "police_office_type": "경찰소",
        "police_office_name": "신림지구대",
        "distance": 1442.3413687814398,
        "walking_time": "약 22분"
      },
      {
        "police_office_lat": 37.4738594,
        "police_office_lon": 126.9352631,
        "police_office_type": "경찰소",
        "police_office_name": "관악산지구대",
        "distance": 1566.439589657336,
        "walking_time": "약 24분"
      }
    ],
    "post_office": [
      {
        "post_office_lat": 37.47864491,
        "post_office_lon": 126.947376,
        "post_office_type": "우체국",
        "post_office_name": "서울청룡동우편취급국",
        "distance": 444.0110804480512,
        "walking_time": "약 7분"
      },
      {
        "post_office_lat": 37.48084938,
        "post_office_lon": 126.9547091,
        "post_office_type": "우체국",
        "post_office_name": "서울행운동우체국",
        "distance": 484.5848630963955,
        "walking_time": "약 8분"
      },
      {
        "post_office_lat": 37.48227075,
        "post_office_lon": 126.9412539,
        "post_office_type": "우체국",
        "post_office_name": "서울봉천역전우편취급국",
        "distance": 728.7659141529821,
        "walking_time": "약 11분"
      },
      {
        "post_office_lat": 37.48582895,
        "post_office_lon": 126.9416713,
        "post_office_type": "우체국",
        "post_office_name": "서울은천동우체국",
        "distance": 797.6463782415548,
        "walking_time": "약 12분"
      },
      {
        "post_office_lat": 37.48677759,
        "post_office_lon": 126.9567026,
        "post_office_type": "우체국",
        "post_office_name": "서울봉천동우체국",
        "distance": 809.1790610971946,
        "walking_time": "약 13분"
      },
      {
        "post_office_lat": 37.48501424,
        "post_office_lon": 126.9331367,
        "post_office_type": "우체국",
        "post_office_name": "서울관악우체국",
        "distance": 1477.0808285682117,
        "walking_time": "약 23분"
      },
      {
        "post_office_lat": 37.49642897,
        "post_office_lon": 126.9551579,
        "post_office_type": "우체국",
        "post_office_name": "숭실대학교우편취급국",
        "distance": 1652.3637312705132,
        "walking_time": "약 25분"
      },
      {
        "post_office_lat": 37.49941236,
        "post_office_lon": 126.9437362,
        "post_office_type": "우체국",
        "post_office_name": "서울동작약수우편취급국",
        "distance": 1974.1809724823613,
        "walking_time": "약 30분"
      }
    ],
    "public_health_center": [
      {
        "public_health_center_lat": 37.47821067,
        "public_health_center_lon": 126.9515012,
        "public_health_center_type": "보건소",
        "public_health_center_name": "관악구보건소",
        "distance": 483.2364187075193,
        "walking_time": "약 8분"
      },
      {
        "public_health_center_lat": 37.48784455,
        "public_health_center_lon": 126.932302,
        "public_health_center_type": "보건소",
        "public_health_center_name": "관악구보건지소",
        "distance": 1640.660688658517,
        "walking_time": "약 25분"
      }
    ],
    "school": [
      {
        "school_lat": 37.4855779476851,
        "school_lon": 126.949130876206,
        "school_type": "초등학교",
        "school_name": "서울신봉초등학교",
        "distance": 370.4764311164212,
        "walking_time": "약 6분"
      },
      {
        "school_lat": 37.4813047920283,
        "school_lon": 126.955766635019,
        "school_type": "초등학교",
        "school_name": "서울원당초등학교",
        "distance": 561.9399176042638,
        "walking_time": "약 9분"
      },
      {
        "school_lat": 37.4810297131995,
        "school_lon": 126.942570541831,
        "school_type": "초등학교",
        "school_name": "서울관악초등학교",
        "distance": 627.6815825561874,
        "walking_time": "약 10분"
      },
      {
        "school_lat": 37.4767252713626,
        "school_lon": 126.951284574125,
        "school_type": "초등학교",
        "school_name": "서울청룡초등학교",
        "distance": 634.9774773876504,
        "walking_time": "약 10분"
      },
      {
        "school_lat": 37.476541242971,
        "school_lon": 126.945416499639,
        "school_type": "고등학교",
        "school_name": "영락고등학교",
        "distance": 731.4591996333747,
        "walking_time": "약 11분"
      },
      {
        "school_lat": 37.476541242971,
        "school_lon": 126.945416499639,
        "school_type": "고등학교",
        "school_name": "영락의료과학고등학교",
        "distance": 731.4591996333747,
        "walking_time": "약 11분"
      },
      {
        "school_lat": 37.4865852040387,
        "school_lon": 126.942679132637,
        "school_type": "초등학교",
        "school_name": "서울은천초등학교",
        "distance": 771.2967404930323,
        "walking_time": "약 12분"
      },
      {
        "school_lat": 37.4832732140812,
        "school_lon": 126.95820924848,
        "school_type": "초등학교",
        "school_name": "서울봉천초등학교",
        "distance": 775.5597217861584,
        "walking_time": "약 12분"
      },
      {
        "school_lat": 37.4878154195732,
        "school_lon": 126.943760849751,
        "school_type": "고등학교",
        "school_name": "서울관광고등학교",
        "distance": 799.4942384572795,
        "walking_time": "약 12분"
      },
      {
        "school_lat": 37.4892174749954,
        "school_lon": 126.946271723126,
        "school_type": "초등학교",
        "school_name": "서울구암초등학교",
        "distance": 824.8046782911773,
        "walking_time": "약 13분"
      }
    ],
    "subway": [
      {
        "subway_lat": 37.4811526631844,
        "subway_lon": 126.952645104944,
        "subway_type": "지하철",
        "subway_name": "2호선-서울대입구(관악구청)역",
        "distance": 302.5601220828511,
        "walking_time": "약 5분"
      },
      {
        "subway_lat": 37.4825562153548,
        "subway_lon": 126.941495272047,
        "subway_type": "지하철",
        "subway_name": "2호선-봉천역",
        "distance": 708.2317684667772,
        "walking_time": "약 11분"
      },
      {
        "subway_lat": 37.4958143308836,
        "subway_lon": 126.954060246067,
        "subway_type": "지하철",
        "subway_name": "7호선-숭실대입구(살피재)역",
        "distance": 1559.6581447405022,
        "walking_time": "약 24분"
      }
    ],
    "supermarket": [
      {
        "supermarket_lat": 37.480948,
        "supermarket_lon": 126.9520838,
        "supermarket_type": "마트",
        "supermarket_name": "라붐아울렛",
        "distance": 269.7060158635569,
        "walking_time": "약 5분"
      },
      {
        "supermarket_lat": 37.47933913,
        "supermarket_lon": 126.9490155,
        "supermarket_type": "마트",
        "supermarket_name": "(주)지에스리테일 관악점",
        "distance": 327.7392786955196,
        "walking_time": "약 5분"
      },
      {
        "supermarket_lat": 37.48615809,
        "supermarket_lon": 126.9472386,
        "supermarket_type": "마트",
        "supermarket_name": "홈플러스 익스프레스 봉천점",
        "distance": 477.65116438299657,
        "walking_time": "약 8분"
      },
      {
        "supermarket_lat": 37.48362314,
        "supermarket_lon": 126.9551835,
        "supermarket_type": "마트",
        "supermarket_name": "관악프라자",
        "distance": 522.802901724504,
        "walking_time": "약 8분"
      },
      {
        "supermarket_lat": 37.48658496,
        "supermarket_lon": 126.9465719,
        "supermarket_type": "마트",
        "supermarket_name": "봉천현대시장",
        "distance": 546.4638032575085,
        "walking_time": "약 9분"
      },
      {
        "supermarket_lat": 37.48629672,
        "supermarket_lon": 126.9412497,
        "supermarket_type": "마트",
        "supermarket_name": "(주)이마트에브리데이 봉천동점",
        "distance": 856.2054525901012,
        "walking_time": "약 13분"
      },
      {
        "supermarket_lat": 37.48665276,
        "supermarket_lon": 126.9392236,
        "supermarket_type": "마트",
        "supermarket_name": "GS THE FRESH 관악은천점",
        "distance": 1030.9441107701357,
        "walking_time": "약 16분"
      },
      {
        "supermarket_lat": 37.48756216,
        "supermarket_lon": 126.9599377,
        "supermarket_type": "마트",
        "supermarket_name": "지에스 더 프레시(GS THE FRESH) 관악청림점",
        "distance": 1092.550142745729,
        "walking_time": "약 17분"
      },
      {
        "supermarket_lat": 37.48865052,
        "supermarket_lon": 126.959506,
        "supermarket_type": "마트",
        "supermarket_name": "관악쇼핑",
        "distance": 1132.4213605360565,
        "walking_time": "약 17분"
      },
      {
        "supermarket_lat": 37.49205505,
        "supermarket_lon": 126.9589248,
        "supermarket_type": "마트",
        "supermarket_name": "관악현대상가",
        "distance": 1369.624174231549,
        "walking_time": "약 21분"
      }
    ],
    "theater": [
      {
        "theater_lat": 37.4809479979455,
        "theater_lon": 126.952083773717,
        "theater_type": "영화관",
        "theater_name": "롯데시네마 서울대입구",
        "distance": 269.704188835953,
        "walking_time": "약 5분"
      },
      {
        "theater_lat": 37.4838513393186,
        "theater_lon": 126.930234545397,
        "theater_type": "영화관",
        "theater_name": "롯데시네마 신림",
        "distance": 1710.2492348145197,
        "walking_time": "약 26분"
      }
    ],
    "university": [
      {
        "university_lat": 37.4964019323152,
        "university_lon": 126.956588222367,
        "university_type": "대학교",
        "university_name": "숭실대학교",
        "distance": 1691.883774598186,
        "walking_time": "약 26분"
      }
    ]
  }
}