{
  "클러스터_위도": 37.55342,
  "클러스터_경도": 127.012933,
  "클러스터_level": 4.0,
  "facilities": {
    "bus": [
      {
        "bus_lat": 37.553399,
        "bus_lon": 127.012012,
        "bus_type": "버스정류장",
        "bus_name": "약수역4번출구.금호터널입구",
        "distance": 81.22315668605262,
        "walking_time": "약 2분"
      },
      {
        "bus_lat": 37.5528411,
        "bus_lon": 127.0119578,
        "bus_type": "버스정류장",
        "bus_name": "약수지구대",
        "distance": 107.39674889314972,
        "walking_time": "약 2분"
      },
      {
        "bus_lat": 37.55292373,
        "bus_lon": 127.0118693,
        "bus_type": "버스정류장",
        "bus_name": "약수역5번출구.금호터널입구",
        "distance": 108.80181601315196,
        "walking_time": "약 2분"
      },
      {
        "bus_lat": 37.55330466,
        "bus_lon": 127.0117056,
        "bus_type": "버스정류장",
        "bus_name": "약수역.3.6호선",
        "distance": 108.95740696126514,
        "walking_time": "약 2분"
      },
      {
        "bus_lat": 37.55190274,
        "bus_lon": 127.0121656,
        "bus_type": "버스정류장",
        "bus_name": "중구청소년센터.남산타운2상가",
        "distance": 181.769389805734,
        "walking_time": "약 3분"
      },
      {
        "bus_lat": 37.55165491,
        "bus_lon": 127.0127512,
        "bus_type": "버스정류장",
        "bus_name": "중구청소년센터.남산타운2상가",
        "distance": 196.922296930476,
        "walking_time": "약 3분"
      },
      {
        "bus_lat": 37.55173322,
        "bus_lon": 127.01085,
        "bus_type": "버스정류장",
        "bus_name": "약수시장.남산타운동문",
        "distance": 262.48405106583607,
        "walking_time": "약 4분"
      },
      {
        "bus_lat": 37.55386465,
        "bus_lon": 127.0099567,
        "bus_type": "버스정류장",
        "bus_name": "약수역8번출구.신당사회복지관",
        "distance": 266.9891356016212,
        "walking_time": "약 4분"
      },
      {
        "bus_lat": 37.55378896,
        "bus_lon": 127.0098978,
        "bus_type": "버스정류장",
        "bus_name": "약수역",
        "distance": 270.6905920255965,
        "walking_time": "약 5분"
      },
      {
        "bus_lat": 37.55574961,
        "bus_lon": 127.0113797,
        "bus_type": "버스정류장",
        "bus_name": "약수역3번출구.약수하이츠",
        "distance": 293.0036748699691,
        "walking_time": "약 5분"
      }
    ],
    "community_center": [
      {
        "community_center_lat": 37.55247345,
        "community_center_lon": 127.0089948,
        "community_center_type": "주민센터",
        "community_center_name": "약수동 자치회관",
        "distance": 362.7731001005559,
        "walking_time": "약 6분"
      },
      {
        "community_center_lat": 37.55433289,
        "community_center_lon": 127.0082945,
        "community_center_type": "주민센터",
        "community_center_name": "다산동 자치회관",
        "distance": 421.3098771271939,
        "walking_time": "약 7분"
      },
      {
        "community_center_lat": 37.55706761,
        "community_center_lon": 127.0146854,
        "community_center_type": "주민센터",
        "community_center_name": "청구동 자치회관",
        "distance": 434.0172488097785,
        "walking_time": "약 7분"
      },
      {
        "community_center_lat": 37.55323526,
        "community_center_lon": 127.0209587,
        "community_center_type": "주민센터",
        "community_center_name": "금호2,3가동 자치회관",
        "distance": 707.7943125368704,
        "walking_time": "약 11분"
      },
      {
        "community_center_lat": 37.55485999,
        "community_center_lon": 127.0216494,
        "community_center_type": "주민센터",
        "community_center_name": "금호1가동 자치회관",
        "distance": 784.8817637125276,
        "walking_time": "약 12분"
      },
      {
        "community_center_lat": 37.55986467,
        "community_center_lon": 127.0190343,
        "community_center_type": "주민센터",
        "community_center_name": "동화동 자치회관",
        "distance": 895.9891404632965,
        "walking_time": "약 14분"
      },
      {
        "community_center_lat": 37.56203798,
        "community_center_lon": 127.0144679,
        "community_center_type": "주민센터",
        "community_center_name": "신당동 자치회관",
        "distance": 967.780002589193,
        "walking_time": "약 15분"
      },
      {
        "community_center_lat": 37.56190715,
        "community_center_lon": 127.0078401,
        "community_center_type": "주민센터",
        "community_center_name": "장충동 자치회관",
        "distance": 1045.066008600245,
        "walking_time": "약 16분"
      },
      {
        "community_center_lat": 37.54718056,
        "community_center_lon": 127.0223825,
        "community_center_type": "주민센터",
        "community_center_name": "금호4가동 자치회관",
        "distance": 1084.1178595681706,
        "walking_time": "약 17분"
      },
      {
        "community_center_lat": 37.54364027,
        "community_center_lon": 127.0134149,
        "community_center_type": "주민센터",
        "community_center_name": "옥수동 자치회관",
        "distance": 1088.28591389984,
        "walking_time": "약 17분"
      }
    ],
    "convenience_store": [
      {
        "convenience_store_lat": 37.55368411,
        "convenience_store_lon": 127.0129735,
        "convenience_store_type": "편의점",
        "convenience_store_name": "CU 중구동호로점",
        "distance": 29.583911214456784,
        "walking_time": "약 1분"
      },
      {
        "convenience_store_lat": 37.55401362,
        "convenience_store_lon": 127.0119542,
        "convenience_store_type": "편의점",
        "convenience_store_name": "GS25 중구약수점",
        "distance": 108.63706365633814,
        "walking_time": "약 2분"
      },
      {
        "convenience_store_lat": 37.55388372,
        "convenience_store_lon": 127.0117341,
        "convenience_store_type": "편의점",
        "convenience_store_name": "세븐일레븐 약수역점",
        "distance": 117.5948601301144,
        "walking_time": "약 2분"
      },
      {
        "convenience_store_lat": 37.55332531,
        "convenience_store_lon": 127.0114919,
        "convenience_store_type": "편의점",
        "convenience_store_name": "CU 약수역사거리점",
        "distance": 127.47398208026728,
        "walking_time": "약 2분"
      },
      {
        "convenience_store_lat": 37.55426685,
        "convenience_store_lon": 127.0114474,
        "convenience_store_type": "편의점",
        "convenience_store_name": "CU 약수역점",
        "distance": 161.30020970036492,
        "walking_time": "약 3분"
      },
      {
        "convenience_store_lat": 37.55496059,
        "convenience_store_lon": 127.0117834,
        "convenience_store_type": "편의점",
        "convenience_store_name": "미니스톱 신당점",
        "distance": 199.0365898576729,
        "walking_time": "약 3분"
      },
      {
        "convenience_store_lat": 37.55268551,
        "convenience_store_lon": 127.0104893,
        "convenience_store_type": "편의점",
        "convenience_store_name": "세븐일레븐 약수시장점",
        "distance": 230.3844832139173,
        "walking_time": "약 4분"
      },
      {
        "convenience_store_lat": 37.55354752,
        "convenience_store_lon": 127.0102082,
        "convenience_store_type": "편의점",
        "convenience_store_name": "미니스톱 약수점",
        "distance": 240.61920095392543,
        "walking_time": "약 4분"
      },
      {
        "convenience_store_lat": 37.55389144,
        "convenience_store_lon": 127.0101205,
        "convenience_store_type": "편의점",
        "convenience_store_name": "세븐일레븐 S약수역점",
        "distance": 253.41288025806364,
        "walking_time": "약 4분"
      },
      {
        "convenience_store_lat": 37.55389144,
        "convenience_store_lon": 127.0101205,
        "convenience_store_type": "편의점",
        "convenience_store_name": "GS25 S6약수역점",
        "distance": 253.41288025806364,
        "walking_time": "약 4분"
      }
    ],
    "daycare": [
      {
        "daycare_lat": 37.55235768,
        "daycare_lon": 127.011203,
        "daycare_type": "어린이집",
        "daycare_name": "약수교회어린이집",
        "distance": 192.9036277481107,
        "walking_time": "약 3분"
      },
      {
        "daycare_lat": 37.55472522,
        "daycare_lon": 127.0146044,
        "daycare_type": "어린이집",
        "daycare_name": "다솜어린이집",
        "distance": 206.8152874633112,
        "walking_time": "약 4분"
      },
      {
        "daycare_lat": 37.55500747,
        "daycare_lon": 127.0115053,
        "daycare_type": "어린이집",
        "daycare_name": "신일교회어린이집",
        "distance": 216.79133273083315,
        "walking_time": "약 4분"
      },
      {
        "daycare_lat": 37.55133633029728,
        "daycare_lon": 127.0112530577143,
        "daycare_type": "어린이집",
        "daycare_name": "한솔어린이집",
        "distance": 274.9801330562201,
        "walking_time": "약 5분"
      },
      {
        "daycare_lat": 37.55230956,
        "daycare_lon": 127.0092242,
        "daycare_type": "어린이집",
        "daycare_name": "약수어린이집",
        "distance": 349.48597708437325,
        "walking_time": "약 6분"
      },
      {
        "daycare_lat": 37.55319537,
        "daycare_lon": 127.0089126,
        "daycare_type": "어린이집",
        "daycare_name": "사랑아이어린이집",
        "distance": 355.2928101162587,
        "walking_time": "약 6분"
      },
      {
        "daycare_lat": 37.55690963,
        "daycare_lon": 127.0139916,
        "daycare_type": "어린이집",
        "daycare_name": "이레어린이집",
        "distance": 399.0924058590355,
        "walking_time": "약 6분"
      },
      {
        "daycare_lat": 37.55653529,
        "daycare_lon": 127.010497,
        "daycare_type": "어린이집",
        "daycare_name": "햇살어린이집",
        "distance": 407.5640209135991,
        "walking_time": "약 7분"
      },
      {
        "daycare_lat": 37.55576832,
        "daycare_lon": 127.0092927,
        "daycare_type": "어린이집",
        "daycare_name": "신당삼성어린이집",
        "distance": 413.716951115887,
        "walking_time": "약 7분"
      },
      {
        "daycare_lat": 37.55705535,
        "daycare_lon": 127.0140701,
        "daycare_type": "어린이집",
        "daycare_name": "새이레어린이집",
        "distance": 416.4749457616249,
        "walking_time": "약 7분"
      }
    ],
    "education": [
      {
        "education_lat": 37.55604739,
        "education_lon": 127.0116293,
        "education_type": "미술관/갤러리",
        "education_name": "RNL 로즈앤라임 갤러리",
        "distance": 313.94357281458457,
        "walking_time": "약 5분"
      },
      {
        "education_lat": 37.55128171,
        "education_lon": 127.0076057,
        "education_type": "도서관",
        "education_name": "느티나무어린이도서관",
        "distance": 526.3873390839373,
        "walking_time": "약 8분"
      },
      {
        "education_lat": 37.54589421,
        "education_lon": 127.0108024,
        "education_type": "도서관",
        "education_name": "성동구립매봉산숲속도서관",
        "distance": 857.6502325927053,
        "walking_time": "약 13분"
      },
      {
        "education_lat": 37.55968044,
        "education_lon": 127.0062029,
        "education_type": "박물관/기념관",
        "education_name": "종이나라박물관",
        "distance": 914.631810552227,
        "walking_time": "약 14분"
      },
      {
        "education_lat": 37.55962115,
        "education_lon": 127.0041031,
        "education_type": "박물관/기념관",
        "education_name": "한국현대문학관",
        "distance": 1039.8551374764695,
        "walking_time": "약 16분"
      },
      {
        "education_lat": 37.55821033013079,
        "education_lon": 127.00232862783749,
        "education_type": "박물관/기념관",
        "education_name": "동국대학교 박물관",
        "distance": 1075.894821603752,
        "walking_time": "약 17분"
      },
      {
        "education_lat": 37.56146912,
        "education_lon": 127.0198549,
        "education_type": "박물관/기념관",
        "education_name": "박정희 가옥",
        "distance": 1083.215691112105,
        "walking_time": "약 17분"
      },
      {
        "education_lat": 37.56594097,
        "education_lon": 127.0147909,
        "education_type": "문화예술회관",
        "education_name": "충무아트센터",
        "distance": 1401.866888145879,
        "walking_time": "약 21분"
      },
      {
        "education_lat": 37.54288685,
        "education_lon": 127.0032009,
        "education_type": "미술관/갤러리",
        "education_name": "BHAK",
        "distance": 1451.867229029139,
        "walking_time": "약 22분"
      },
      {
        "education_lat": 37.56710262553757,
        "education_lon": 127.01153416188669,
        "education_type": "박물관/기념관",
        "education_name": "동대문역사관",
        "distance": 1526.4267060873406,
        "walking_time": "약 23분"
      }
    ],
    "electric_gas_station": [
      {
        "electric_gas_station_lat": 37.56059897,
        "electric_gas_station_lon": 127.002136,
        "electric_gas_station_type": "전기차 충전소",
        "electric_gas_station_name": "그랜드앰배서더 서울",
        "distance": 1242.1975710804943,
        "walking_time": "약 19분"
      }
    ],
    "fitness": [
      {
        "fitness_lat": 37.55410771,
        "fitness_lon": 127.0117476,
        "fitness_type": "운동시설",
        "fitness_name": "스포니스 약수점",
        "distance": 129.4884122088757,
        "walking_time": "약 2분"
      },
      {
        "fitness_lat": 37.55320546,
        "fitness_lon": 127.0107186,
        "fitness_type": "운동시설",
        "fitness_name": "관리의 기술 PT 약수점",
        "distance": 196.6601372846297,
        "walking_time": "약 3분"
      },
      {
        "fitness_lat": 37.55317661,
        "fitness_lon": 127.0098727,
        "fitness_type": "운동시설",
        "fitness_name": "파크짐 약수점",
        "distance": 271.1313597978984,
        "walking_time": "약 5분"
      },
      {
        "fitness_lat": 37.55405094,
        "fitness_lon": 127.0098802,
        "fitness_type": "운동시설",
        "fitness_name": "베네짐",
        "distance": 278.1091116838734,
        "walking_time": "약 5분"
      },
      {
        "fitness_lat": 37.55366191,
        "fitness_lon": 127.0096223,
        "fitness_type": "운동시설",
        "fitness_name": "제이현핏 PT 스튜디오",
        "distance": 293.08703009959567,
        "walking_time": "약 5분"
      },
      {
        "fitness_lat": 37.55613618,
        "fitness_lon": 127.0111327,
        "fitness_type": "운동시설",
        "fitness_name": "델피 운동센터",
        "distance": 341.18196159235185,
        "walking_time": "약 6분"
      },
      {
        "fitness_lat": 37.55669827,
        "fitness_lon": 127.0133044,
        "fitness_type": "운동시설",
        "fitness_name": "one shop",
        "distance": 365.9942724452237,
        "walking_time": "약 6분"
      },
      {
        "fitness_lat": 37.55701848,
        "fitness_lon": 127.0096605,
        "fitness_type": "운동시설",
        "fitness_name": "키네틱 피티 스튜디오",
        "distance": 493.27947098764014,
        "walking_time": "약 8분"
      },
      {
        "fitness_lat": 37.55731485,
        "fitness_lon": 127.0093,
        "fitness_type": "운동시설",
        "fitness_name": "핏앤힐 (Fit and Hill)",
        "distance": 538.6348586518968,
        "walking_time": "약 9분"
      },
      {
        "fitness_lat": 37.55844227,
        "fitness_lon": 127.0130234,
        "fitness_type": "운동시설",
        "fitness_name": "Medi & Fit (메디 앤 핏)",
        "distance": 558.507797018833,
        "walking_time": "약 9분"
      }
    ],
    "gas_station": [
      {
        "gas_station_lat": 37.55603768,
        "gas_station_lon": 127.0092769,
        "gas_station_type": "주유소",
        "gas_station_name": "현대오일뱅크(주) 직영장원주유소",
        "distance": 434.2766465118584,
        "walking_time": "약 7분"
      },
      {
        "gas_station_lat": 37.55903679,
        "gas_station_lon": 127.012668,
        "gas_station_type": "주유소",
        "gas_station_name": "약수주유소",
        "distance": 624.9952541471039,
        "walking_time": "약 10분"
      },
      {
        "gas_station_lat": 37.56275432,
        "gas_station_lon": 127.0070337,
        "gas_station_type": "주유소",
        "gas_station_name": "서울석유(주) 장충주유소",
        "distance": 1160.9090479383929,
        "walking_time": "약 18분"
      },
      {
        "gas_station_lat": 37.56084671,
        "gas_station_lon": 127.0034149,
        "gas_station_type": "주유소",
        "gas_station_name": "씨앤에스유통(주) 장충드림주유소",
        "distance": 1177.24715141285,
        "walking_time": "약 18분"
      },
      {
        "gas_station_lat": 37.56396821,
        "gas_station_lon": 127.0157064,
        "gas_station_type": "주유소",
        "gas_station_name": "주식회사 타이거통상 다산주유소",
        "distance": 1198.1137520007169,
        "walking_time": "약 18분"
      },
      {
        "gas_station_lat": 37.54607279,
        "gas_station_lon": 127.0028964,
        "gas_station_type": "주유소",
        "gas_station_name": "현대오일뱅크㈜ 직영한남동주유소",
        "distance": 1204.2955615241874,
        "walking_time": "약 18분"
      },
      {
        "gas_station_lat": 37.547041,
        "gas_station_lon": 127.0250322,
        "gas_station_type": "주유소",
        "gas_station_name": "금호주유소",
        "distance": 1280.9506369944888,
        "walking_time": "약 20분"
      },
      {
        "gas_station_lat": 37.56460799,
        "gas_station_lon": 127.016496,
        "gas_station_type": "주유소",
        "gas_station_name": "신당동주유소",
        "distance": 1283.0797037254154,
        "walking_time": "약 20분"
      },
      {
        "gas_station_lat": 37.54084963,
        "gas_station_lon": 127.0113829,
        "gas_station_type": "주유소",
        "gas_station_name": "옥수주유소",
        "distance": 1404.4260108466697,
        "walking_time": "약 21분"
      },
      {
        "gas_station_lat": 37.5646782,
        "gas_station_lon": 127.0254832,
        "gas_station_type": "주유소",
        "gas_station_name": "세화주유소",
        "distance": 1670.6162012599984,
        "walking_time": "약 25분"
      }
    ],
    "hospital": [
      {
        "hospital_lat": 37.55295209,
        "hospital_lon": 127.0117204,
        "hospital_type": "병원",
        "hospital_name": "미라벨의원",
        "distance": 118.88521437558391,
        "walking_time": "약 2분"
      },
      {
        "hospital_lat": 37.55295209,
        "hospital_lon": 127.0117204,
        "hospital_type": "병원",
        "hospital_name": "민플란트치과의원",
        "distance": 118.88521437558391,
        "walking_time": "약 2분"
      },
      {
        "hospital_lat": 37.55295209,
        "hospital_lon": 127.0117204,
        "hospital_type": "병원",
        "hospital_name": "월오한의원",
        "distance": 118.88521437558391,
        "walking_time": "약 2분"
      },
      {
        "hospital_lat": 37.5534784,
        "hospital_lon": 127.0113052,
        "hospital_type": "병원",
        "hospital_name": "365올케어치과의원",
        "distance": 143.643422052812,
        "walking_time": "약 3분"
      },
      {
        "hospital_lat": 37.5534784,
        "hospital_lon": 127.0113052,
        "hospital_type": "병원",
        "hospital_name": "신세계신경외과의원",
        "distance": 143.643422052812,
        "walking_time": "약 3분"
      },
      {
        "hospital_lat": 37.5534784,
        "hospital_lon": 127.0113052,
        "hospital_type": "병원",
        "hospital_name": "약수내과의원",
        "distance": 143.643422052812,
        "walking_time": "약 3분"
      },
      {
        "hospital_lat": 37.55441922,
        "hospital_lon": 127.0113127,
        "hospital_type": "병원",
        "hospital_name": "김영민치과의원",
        "distance": 180.96056943145672,
        "walking_time": "약 3분"
      },
      {
        "hospital_lat": 37.55441922,
        "hospital_lon": 127.0113127,
        "hospital_type": "병원",
        "hospital_name": "수정신건강의학과의원",
        "distance": 180.96056943145672,
        "walking_time": "약 3분"
      },
      {
        "hospital_lat": 37.55441922,
        "hospital_lon": 127.0113127,
        "hospital_type": "병원",
        "hospital_name": "유태석내과의원",
        "distance": 180.96056943145672,
        "walking_time": "약 3분"
      },
      {
        "hospital_lat": 37.55441922,
        "hospital_lon": 127.0113127,
        "hospital_type": "병원",
        "hospital_name": "참다인한의원",
        "distance": 180.96056943145672,
        "walking_time": "약 3분"
      }
    ],
    "music_room": [
      {
        "music_room_lat": 37.55332531,
        "music_room_lon": 127.0114919,
        "music_room_type": "노래방",
        "music_room_name": "엄지노래연습장",
        "distance": 127.47398208026728,
        "walking_time": "약 2분"
      },
      {
        "music_room_lat": 37.55302419,
        "music_room_lon": 127.0114737,
        "music_room_type": "노래방",
        "music_room_name": "신안",
        "distance": 135.96359244963938,
        "walking_time": "약 3분"
      },
      {
        "music_room_lat": 37.55384517,
        "music_room_lon": 127.0106918,
        "music_room_type": "노래방",
        "music_room_name": "세븐노래연습장",
        "distance": 203.14727600794507,
        "walking_time": "약 4분"
      },
      {
        "music_room_lat": 37.55475657,
        "music_room_lon": 127.0111656,
        "music_room_type": "노래방",
        "music_room_name": "플로렌스노래연습장",
        "distance": 215.31824626057409,
        "walking_time": "약 4분"
      },
      {
        "music_room_lat": 37.55460538,
        "music_room_lon": 127.0102448,
        "music_room_type": "노래방",
        "music_room_name": "용가리 노래연습장",
        "distance": 271.1633905879451,
        "walking_time": "약 5분"
      },
      {
        "music_room_lat": 37.55487847,
        "music_room_lon": 127.0102327,
        "music_room_type": "노래방",
        "music_room_name": "베스타코인 노래연습장",
        "distance": 288.0333207316844,
        "walking_time": "약 5분"
      },
      {
        "music_room_lat": 37.5554222,
        "music_room_lon": 127.0105016,
        "music_room_type": "노래방",
        "music_room_name": "가요톱10 노래연습장",
        "distance": 309.03916311748907,
        "walking_time": "약 5분"
      },
      {
        "music_room_lat": 37.55461255,
        "music_room_lon": 127.0096332,
        "music_room_type": "노래방",
        "music_room_name": "썸뮤직 노래연습장",
        "distance": 319.6867921699833,
        "walking_time": "약 5분"
      },
      {
        "music_room_lat": 37.55589121,
        "music_room_lon": 127.010991,
        "music_room_type": "노래방",
        "music_room_name": "놀이터노래연습장",
        "distance": 323.74981768431525,
        "walking_time": "약 5분"
      },
      {
        "music_room_lat": 37.5551533,
        "music_room_lon": 127.0099803,
        "music_room_type": "노래방",
        "music_room_name": "티파니 노래연습장",
        "distance": 323.8773473410657,
        "walking_time": "약 5분"
      }
    ],
    "outdoor_sports": [
      {
        "outdoor_sports_lat": 37.5516395461676,
        "outdoor_sports_lon": 127.014673197932,
        "outdoor_sports_type": "야외 체육시설",
        "outdoor_sports_name": "응봉근린공원신당동 309-61",
        "distance": 250.45697034450853,
        "walking_time": "약 4분"
      },
      {
        "outdoor_sports_lat": 37.549903813208,
        "outdoor_sports_lon": 127.01277553368,
        "outdoor_sports_type": "야외 체육시설",
        "outdoor_sports_name": "응봉근린공원황톳길",
        "distance": 391.2284828717712,
        "walking_time": "약 6분"
      },
      {
        "outdoor_sports_lat": 37.5486322984133,
        "outdoor_sports_lon": 127.010267623394,
        "outdoor_sports_type": "야외 체육시설",
        "outdoor_sports_name": "쌈지공원",
        "distance": 581.916584067321,
        "walking_time": "약 9분"
      },
      {
        "outdoor_sports_lat": 37.5577182811759,
        "outdoor_sports_lon": 127.016893786719,
        "outdoor_sports_type": "야외 체육시설",
        "outdoor_sports_name": "응봉근린공원 삼성아파트 데크운동기구",
        "distance": 591.8933321543891,
        "walking_time": "약 9분"
      },
      {
        "outdoor_sports_lat": 37.5511796049381,
        "outdoor_sports_lon": 127.004411924978,
        "outdoor_sports_type": "야외 체육시설",
        "outdoor_sports_name": "마루소공원",
        "distance": 791.4076155228228,
        "walking_time": "약 12분"
      },
      {
        "outdoor_sports_lat": 37.5470262871571,
        "outdoor_sports_lon": 127.008923620673,
        "outdoor_sports_type": "야외 체육시설",
        "outdoor_sports_name": "응봉근린공원남산실버데이케어",
        "distance": 793.9643652282219,
        "walking_time": "약 12분"
      },
      {
        "outdoor_sports_lat": 37.5602724243742,
        "outdoor_sports_lon": 127.018131314772,
        "outdoor_sports_type": "야외 체육시설",
        "outdoor_sports_name": "동화어린이공원",
        "distance": 889.1285673728653,
        "walking_time": "약 14분"
      },
      {
        "outdoor_sports_lat": 37.5456388047319,
        "outdoor_sports_lon": 127.008147640408,
        "outdoor_sports_type": "야외 체육시설",
        "outdoor_sports_name": "매봉산황톳길",
        "distance": 962.598381190172,
        "walking_time": "약 15분"
      },
      {
        "outdoor_sports_lat": 37.5606345044677,
        "outdoor_sports_lon": 127.020519752255,
        "outdoor_sports_type": "야외 체육시설",
        "outdoor_sports_name": "꿈누리어린이공원",
        "distance": 1044.414505829224,
        "walking_time": "약 16분"
      },
      {
        "outdoor_sports_lat": 37.545620718015,
        "outdoor_sports_lon": 127.006291839014,
        "outdoor_sports_type": "야외 체육시설",
        "outdoor_sports_name": "유아숲동네숲터 인근",
        "distance": 1046.367828819838,
        "walking_time": "약 16분"
      }
    ],
    "park": [
      {
        "park_lat": 37.5494726,
        "park_lon": 127.0189457,
        "park_type": "공원",
        "park_name": "금호근린공원",
        "distance": 688.2002142132242,
        "walking_time": "약 11분"
      },
      {
        "park_lat": 37.5572281,
        "park_lon": 127.0217653,
        "park_type": "공원",
        "park_name": "응봉공원(대현산배수지공원)",
        "distance": 886.278569707369,
        "walking_time": "약 14분"
      },
      {
        "park_lat": 37.543564,
        "park_lon": 127.0212054,
        "park_type": "공원",
        "park_name": "달맞이근린공원",
        "distance": 1316.413204591843,
        "walking_time": "약 20분"
      },
      {
        "park_lat": 37.5675245,
        "park_lon": 127.0038188,
        "park_type": "공원",
        "park_name": "훈련원근린공원",
        "distance": 1762.1375571591957,
        "walking_time": "약 27분"
      }
    ],
    "park_station": [
      {
        "park_station_lat": 37.55223527,
        "park_station_lon": 127.0133311,
        "park_station_type": "주차장",
        "park_station_name": "약수동 공영주차장",
        "distance": 136.3303803519641,
        "walking_time": "약 3분"
      },
      {
        "park_station_lat": 37.55654021,
        "park_station_lon": 127.010953,
        "park_station_type": "주차장",
        "park_station_name": "문화공영주차장",
        "distance": 388.3810189171602,
        "walking_time": "약 6분"
      },
      {
        "park_station_lat": 37.55454227,
        "park_station_lon": 127.008499,
        "park_station_type": "주차장",
        "park_station_name": "다산동 공영주차장",
        "distance": 410.3079067952897,
        "walking_time": "약 7분"
      },
      {
        "park_station_lat": 37.55636106,
        "park_station_lon": 127.0159511,
        "park_station_type": "주차장",
        "park_station_name": "동산 공영주차장",
        "distance": 421.5834827582226,
        "walking_time": "약 7분"
      },
      {
        "park_station_lat": 37.55149433,
        "park_station_lon": 127.0171305,
        "park_station_type": "주차장",
        "park_station_name": "공유) 10-02",
        "distance": 427.5179587592415,
        "walking_time": "약 7분"
      },
      {
        "park_station_lat": 37.5533764,
        "park_station_lon": 127.0179385,
        "park_station_type": "주차장",
        "park_station_name": "공유) 10-05",
        "distance": 441.2801866308191,
        "walking_time": "약 7분"
      },
      {
        "park_station_lat": 37.5547745,
        "park_station_lon": 127.0078911,
        "park_station_type": "주차장",
        "park_station_name": "거주자우선주차장",
        "distance": 469.28403948390246,
        "walking_time": "약 8분"
      },
      {
        "park_station_lat": 37.55003827,
        "park_station_lon": 127.0162174,
        "park_station_type": "주차장",
        "park_station_name": "공유) 11-05",
        "distance": 474.5862388544645,
        "walking_time": "약 8분"
      },
      {
        "park_station_lat": 37.55088388,
        "park_station_lon": 127.0191035,
        "park_station_type": "주차장",
        "park_station_name": "공유) 11-10",
        "distance": 612.7156515074772,
        "walking_time": "약 10분"
      },
      {
        "park_station_lat": 37.55896481,
        "park_station_lon": 127.0133931,
        "park_station_type": "주차장",
        "park_station_name": "청구 공영주차장",
        "distance": 617.8872887090921,
        "walking_time": "약 10분"
      }
    ],
    "pc_room": [
      {
        "pc_room_lat": 37.5537867198009,
        "pc_room_lon": 127.010377766718,
        "pc_room_type": "PC방",
        "pc_room_name": "콤마PC카페약수점",
        "distance": 228.91395397151865,
        "walking_time": "약 4분"
      },
      {
        "pc_room_lat": 37.5518020452993,
        "pc_room_lon": 127.010889689197,
        "pc_room_type": "PC방",
        "pc_room_name": "PC토랑",
        "distance": 254.5837671242301,
        "walking_time": "약 4분"
      },
      {
        "pc_room_lat": 37.5555099656473,
        "pc_room_lon": 127.01138242008,
        "pc_room_type": "PC방",
        "pc_room_name": "1프로 pc 아레나",
        "distance": 269.61127142471537,
        "walking_time": "약 5분"
      },
      {
        "pc_room_lat": 37.5556464697381,
        "pc_room_lon": 127.010372365931,
        "pc_room_type": "PC방",
        "pc_room_name": "THE RED'S PC방",
        "distance": 335.02866684792366,
        "walking_time": "약 6분"
      },
      {
        "pc_room_lat": 37.557547102304,
        "pc_room_lon": 127.012459378311,
        "pc_room_type": "PC방",
        "pc_room_name": "W 피씨방",
        "distance": 460.80807830926784,
        "walking_time": "약 7분"
      },
      {
        "pc_room_lat": 37.5545554514075,
        "pc_room_lon": 127.019601957921,
        "pc_room_type": "PC방",
        "pc_room_name": "검프인터넷게임방",
        "distance": 601.2936865606173,
        "walking_time": "약 9분"
      },
      {
        "pc_room_lat": 37.5548124720494,
        "pc_room_lon": 127.020335835064,
        "pc_room_type": "PC방",
        "pc_room_name": "긱스타 Cafe pc방",
        "distance": 670.6985283027147,
        "walking_time": "약 11분"
      },
      {
        "pc_room_lat": 37.5484801801775,
        "pc_room_lon": 127.018033514449,
        "pc_room_type": "PC방",
        "pc_room_name": "인디고PC방 금호본점",
        "distance": 709.8532356920717,
        "walking_time": "약 11분"
      },
      {
        "pc_room_lat": 37.5464825265845,
        "pc_room_lon": 127.014460917697,
        "pc_room_type": "PC방",
        "pc_room_name": "제노PC방",
        "distance": 783.0834951902706,
        "walking_time": "약 12분"
      },
      {
        "pc_room_lat": 37.5481743997868,
        "pc_room_lon": 127.019612621523,
        "pc_room_type": "PC방",
        "pc_room_name": "래드포스PC",
        "distance": 828.8363063624918,
        "walking_time": "약 13분"
      }
    ],
    "police_office": [
      {
        "police_office_lat": 37.55214428,
        "police_office_lon": 127.0123821,
        "police_office_type": "경찰소",
        "police_office_name": "약수지구대",
        "distance": 149.9364282929912,
        "walking_time": "약 3분"
      },
      {
        "police_office_lat": 37.5547388,
        "police_office_lon": 127.0196183,
        "police_office_type": "경찰소",
        "police_office_name": "금호파출소",
        "distance": 607.2996669392836,
        "walking_time": "약 10분"
      },
      {
        "police_office_lat": 37.55876338,
        "police_office_lon": 127.004802,
        "police_office_type": "경찰소",
        "police_office_name": "장충파출소",
        "distance": 930.9972654925908,
        "walking_time": "약 14분"
      },
      {
        "police_office_lat": 37.54383892,
        "police_office_lon": 127.0143489,
        "police_office_type": "경찰소",
        "police_office_name": "옥수파출소",
        "distance": 1072.65517847016,
        "walking_time": "약 17분"
      },
      {
        "police_office_lat": 37.56526845,
        "police_office_lon": 127.0133764,
        "police_office_type": "경찰소",
        "police_office_name": "광희지구대",
        "distance": 1318.067132821324,
        "walking_time": "약 20분"
      },
      {
        "police_office_lat": 37.56504427,
        "police_office_lon": 127.016385,
        "police_office_type": "경찰소",
        "police_office_name": "신당파출소",
        "distance": 1327.8927080156195,
        "walking_time": "약 20분"
      },
      {
        "police_office_lat": 37.55742891,
        "police_office_lon": 127.0288559,
        "police_office_type": "경찰소",
        "police_office_name": "행당파출소",
        "distance": 1472.7099406506134,
        "walking_time": "약 22분"
      },
      {
        "police_office_lat": 37.56647342,
        "police_office_lon": 127.0039437,
        "police_office_type": "경찰소",
        "police_office_name": "을지지구대",
        "distance": 1653.6712098153348,
        "walking_time": "약 25분"
      }
    ],
    "post_office": [
      {
        "post_office_lat": 37.55489649,
        "post_office_lon": 127.0112731,
        "post_office_type": "우체국",
        "post_office_name": "서울신당동우체국",
        "distance": 219.9214811027864,
        "walking_time": "약 4분"
      },
      {
        "post_office_lat": 37.5548197,
        "post_office_lon": 127.0196923,
        "post_office_type": "우체국",
        "post_office_name": "서울금호동우체국",
        "distance": 615.8433673584951,
        "walking_time": "약 10분"
      },
      {
        "post_office_lat": 37.56122837,
        "post_office_lon": 127.0126796,
        "post_office_type": "우체국",
        "post_office_name": "서울신당1동우편취급국",
        "distance": 868.5384069650283,
        "walking_time": "약 13분"
      },
      {
        "post_office_lat": 37.56052979,
        "post_office_lon": 127.0195396,
        "post_office_type": "우체국",
        "post_office_name": "서울신당현대우편취급국",
        "distance": 981.915544391851,
        "walking_time": "약 15분"
      },
      {
        "post_office_lat": 37.54156255,
        "post_office_lon": 127.0109009,
        "post_office_type": "우체국",
        "post_office_name": "서울옥수동우편취급국",
        "distance": 1330.6038410572532,
        "walking_time": "약 20분"
      },
      {
        "post_office_lat": 37.56565287,
        "post_office_lon": 127.0159078,
        "post_office_type": "우체국",
        "post_office_name": "서울흥인동우체국",
        "distance": 1385.277010471263,
        "walking_time": "약 21분"
      },
      {
        "post_office_lat": 37.5627438,
        "post_office_lon": 127.0016523,
        "post_office_type": "우체국",
        "post_office_name": "서울퇴계로5가우체국",
        "distance": 1436.5403703110742,
        "walking_time": "약 22분"
      }
    ],
    "public_health_center": [
      {
        "public_health_center_lat": 37.55247345,
        "public_health_center_lon": 127.0089948,
        "public_health_center_type": "보건소",
        "public_health_center_name": "약수동주민센터",
        "distance": 362.7731001005559,
        "walking_time": "약 6분"
      },
      {
        "public_health_center_lat": 37.55433289,
        "public_health_center_lon": 127.0082945,
        "public_health_center_type": "보건소",
        "public_health_center_name": "다산동 주민센터",
        "distance": 421.3098771271939,
        "walking_time": "약 7분"
      },
      {
        "public_health_center_lat": 37.56458574,
        "public_health_center_lon": 127.0150951,
        "public_health_center_type": "보건소",
        "public_health_center_name": "중구보건소",
        "distance": 1256.1158124262245,
        "walking_time": "약 19분"
      },
      {
        "public_health_center_lat": 37.56748579,
        "public_health_center_lon": 127.0214192,
        "public_health_center_type": "보건소",
        "public_health_center_name": "황학동주민센터",
        "distance": 1733.715162684154,
        "walking_time": "약 26분"
      }
    ],
    "school": [
      {
        "school_lat": 37.5562046295135,
        "school_lon": 127.016725380867,
        "school_type": "초등학교",
        "school_name": "동산초등학교",
        "distance": 455.6704057919281,
        "walking_time": "약 7분"
      },
      {
        "school_lat": 37.5563732600255,
        "school_lon": 127.016979156363,
        "school_type": "고등학교",
        "school_name": "대경생활과학고등학교",
        "distance": 484.8263653964896,
        "walking_time": "약 8분"
      },
      {
        "school_lat": 37.5563732600255,
        "school_lon": 127.016979156363,
        "school_type": "중학교",
        "school_name": "대경중학교",
        "distance": 484.8263653964896,
        "walking_time": "약 8분"
      },
      {
        "school_lat": 37.5535149002283,
        "school_lon": 127.006414953028,
        "school_type": "고등학교",
        "school_name": "장충고등학교",
        "distance": 574.6865855248831,
        "walking_time": "약 9분"
      },
      {
        "school_lat": 37.5535149002283,
        "school_lon": 127.006414953028,
        "school_type": "중학교",
        "school_name": "장충중학교",
        "distance": 574.6865855248831,
        "walking_time": "약 9분"
      },
      {
        "school_lat": 37.5539645178112,
        "school_lon": 127.006042884936,
        "school_type": "중학교",
        "school_name": "장원중학교",
        "distance": 610.397423554417,
        "walking_time": "약 10분"
      },
      {
        "school_lat": 37.5591166793514,
        "school_lon": 127.013724413955,
        "school_type": "초등학교",
        "school_name": "서울청구초등학교",
        "distance": 637.2719215028256,
        "walking_time": "약 10분"
      },
      {
        "school_lat": 37.5477744781642,
        "school_lon": 127.011037345163,
        "school_type": "고등학교",
        "school_name": "서울방송고등학교",
        "distance": 649.6166972818522,
        "walking_time": "약 10분"
      },
      {
        "school_lat": 37.5518979414195,
        "school_lon": 127.020752859362,
        "school_type": "초등학교",
        "school_name": "서울금호초등학교",
        "distance": 709.8285672593668,
        "walking_time": "약 11분"
      },
      {
        "school_lat": 37.559971222213,
        "school_lon": 127.01170475684,
        "school_type": "초등학교",
        "school_name": "서울장충초등학교",
        "distance": 736.4646210345786,
        "walking_time": "약 11분"
      }
    ],
    "self_laundromat": [
      {
        "self_laundromat_lat": 37.55404481,
        "self_laundromat_lon": 127.0118368,
        "self_laundromat_type": "셀프 빨래방",
        "self_laundromat_name": "크린토피아 코인워시 신당약수점",
        "distance": 119.01657378954806,
        "walking_time": "약 2분"
      },
      {
        "self_laundromat_lat": 37.55404481,
        "self_laundromat_lon": 127.0118368,
        "self_laundromat_type": "셀프 빨래방",
        "self_laundromat_name": "크린토피아 코인워시 신당약수점",
        "distance": 119.01657378954806,
        "walking_time": "약 2분"
      },
      {
        "self_laundromat_lat": 37.55504559,
        "self_laundromat_lon": 127.0196502,
        "self_laundromat_type": "셀프 빨래방",
        "self_laundromat_name": "에코런드렛셀프빨래방&amp;아이스크림 신금호역점",
        "distance": 619.1143891800018,
        "walking_time": "약 10분"
      },
      {
        "self_laundromat_lat": 37.55504559,
        "self_laundromat_lon": 127.0196502,
        "self_laundromat_type": "셀프 빨래방",
        "self_laundromat_name": "에코런드렛셀프빨래방&amp;아이스크림 신금호역점",
        "distance": 619.1143891800018,
        "walking_time": "약 10분"
      },
      {
        "self_laundromat_lat": 37.54808507,
        "self_laundromat_lon": 127.0187753,
        "self_laundromat_type": "셀프 빨래방",
        "self_laundromat_name": "금호셀프빨래방",
        "distance": 785.602725714799,
        "walking_time": "약 12분"
      },
      {
        "self_laundromat_lat": 37.54808507,
        "self_laundromat_lon": 127.0187753,
        "self_laundromat_type": "셀프 빨래방",
        "self_laundromat_name": "금호셀프빨래방",
        "distance": 785.602725714799,
        "walking_time": "약 12분"
      },
      {
        "self_laundromat_lat": 37.56138472,
        "self_laundromat_lon": 127.0180287,
        "self_laundromat_type": "셀프 빨래방",
        "self_laundromat_name": "화이트365 신당점",
        "distance": 993.033433112503,
        "walking_time": "약 15분"
      },
      {
        "self_laundromat_lat": 37.56138472,
        "self_laundromat_lon": 127.0180287,
        "self_laundromat_type": "셀프 빨래방",
        "self_laundromat_name": "화이트365 신당점",
        "distance": 993.033433112503,
        "walking_time": "약 15분"
      },
      {
        "self_laundromat_lat": 37.56242386,
        "self_laundromat_lon": 127.0172987,
        "self_laundromat_type": "셀프 빨래방",
        "self_laundromat_name": "크린토피아 코인워시365 신당6동점",
        "distance": 1072.5960065347997,
        "walking_time": "약 17분"
      },
      {
        "self_laundromat_lat": 37.56242386,
        "self_laundromat_lon": 127.0172987,
        "self_laundromat_type": "셀프 빨래방",
        "self_laundromat_name": "크린토피아 코인워시365 신당6동점",
        "distance": 1072.5960065347997,
        "walking_time": "약 17분"
      }
    ],
    "subway": [
      {
        "subway_lat": 37.5545595558163,
        "subway_lon": 127.010822526737,
        "subway_type": "지하철",
        "subway_name": "3호선-약수역",
        "distance": 225.09719564303856,
        "walking_time": "약 4분"
      },
      {
        "subway_lat": 37.5538914380831,
        "subway_lon": 127.010120543543,
        "subway_type": "지하철",
        "subway_name": "6호선-약수역",
        "distance": 253.40908072881044,
        "walking_time": "약 4분"
      },
      {
        "subway_lat": 37.5545324884294,
        "subway_lon": 127.020064146247,
        "subway_type": "지하철",
        "subway_name": "5호선-신금호역",
        "distance": 640.68797297803,
        "walking_time": "약 10분"
      },
      {
        "subway_lat": 37.5481125196986,
        "subway_lon": 127.015893753726,
        "subway_type": "지하철",
        "subway_name": "3호선-금호역",
        "distance": 645.3070535126357,
        "walking_time": "약 10분"
      },
      {
        "subway_lat": 37.5602939125022,
        "subway_lon": 127.013806006802,
        "subway_type": "지하철",
        "subway_name": "5호선-청구역",
        "distance": 768.2084093816283,
        "walking_time": "약 12분"
      },
      {
        "subway_lat": 37.5602939125022,
        "subway_lon": 127.013806006802,
        "subway_type": "지하철",
        "subway_name": "6호선-청구역",
        "distance": 768.2084093816283,
        "walking_time": "약 12분"
      },
      {
        "subway_lat": 37.5480418375007,
        "subway_lon": 127.007084969776,
        "subway_type": "지하철",
        "subway_name": "6호선-버티고개역",
        "distance": 789.568858409061,
        "walking_time": "약 12분"
      },
      {
        "subway_lat": 37.559030224347,
        "subway_lon": 127.005460196954,
        "subway_type": "지하철",
        "subway_name": "3호선-동대입구역",
        "distance": 907.241935172179,
        "walking_time": "약 14분"
      },
      {
        "subway_lat": 37.5650787698586,
        "subway_lon": 127.007550653481,
        "subway_type": "지하철",
        "subway_name": "4호선-동대문역사문화공원(DDP)역",
        "distance": 1380.482868808154,
        "walking_time": "약 21분"
      },
      {
        "subway_lat": 37.5645770081888,
        "subway_lon": 127.005916180124,
        "subway_type": "지하철",
        "subway_name": "5호선-동대문역사문화공원(DDP)역",
        "distance": 1386.2368895645586,
        "walking_time": "약 21분"
      }
    ],
    "supermarket": [
      {
        "supermarket_lat": 37.55132847,
        "supermarket_lon": 127.0164165,
        "supermarket_type": "마트",
        "supermarket_name": "홈플러스(주) 익프스레스 금호2점",
        "distance": 385.2149495107147,
        "walking_time": "약 6분"
      },
      {
        "supermarket_lat": 37.55447642,
        "supermarket_lon": 127.0207462,
        "supermarket_type": "마트",
        "supermarket_name": "홈플러스(주) 익스프레스 금호점",
        "distance": 698.7031354534973,
        "walking_time": "약 11분"
      },
      {
        "supermarket_lat": 37.54715055,
        "supermarket_lon": 127.0057062,
        "supermarket_type": "마트",
        "supermarket_name": "남산타운5상가",
        "distance": 944.3956153191908,
        "walking_time": "약 15분"
      },
      {
        "supermarket_lat": 37.54715055,
        "supermarket_lon": 127.0057062,
        "supermarket_type": "마트",
        "supermarket_name": "남산타운2상가",
        "distance": 944.3956153191908,
        "walking_time": "약 15분"
      },
      {
        "supermarket_lat": 37.54715055,
        "supermarket_lon": 127.0057062,
        "supermarket_type": "마트",
        "supermarket_name": "(주)지에스리테일 남산타운점",
        "distance": 944.3956153191908,
        "walking_time": "약 15분"
      },
      {
        "supermarket_lat": 37.54855442,
        "supermarket_lon": 127.0227297,
        "supermarket_type": "마트",
        "supermarket_name": "금남시장",
        "distance": 1019.113109932607,
        "walking_time": "약 16분"
      },
      {
        "supermarket_lat": 37.56285252,
        "supermarket_lon": 127.0155914,
        "supermarket_type": "마트",
        "supermarket_name": "홈플러스익스프레스 신당점",
        "distance": 1074.706871690359,
        "walking_time": "약 17분"
      },
      {
        "supermarket_lat": 37.56531919,
        "supermarket_lon": 127.0084303,
        "supermarket_type": "마트",
        "supermarket_name": "에이피엠플레이스",
        "distance": 1381.3760849418718,
        "walking_time": "약 21분"
      },
      {
        "supermarket_lat": 37.55656776,
        "supermarket_lon": 127.0287459,
        "supermarket_type": "마트",
        "supermarket_name": "한진종합상가",
        "distance": 1437.208855995226,
        "walking_time": "약 22분"
      },
      {
        "supermarket_lat": 37.55729212,
        "supermarket_lon": 127.0285443,
        "supermarket_type": "마트",
        "supermarket_name": "대림리빙프라자",
        "distance": 1441.9409856945722,
        "walking_time": "약 22분"
      }
    ],
    "theater": [
      {
        "theater_lat": 37.5516383586201,
        "theater_lon": 127.002523184791,
        "theater_type": "영화관",
        "theater_name": "씨너스 이오이(EOE)4 남산자동차극장",
        "distance": 938.8154867349584,
        "walking_time": "약 15분"
      },
      {
        "theater_lat": 37.5668021171335,
        "theater_lon": 127.007358177138,
        "theater_type": "영화관",
        "theater_name": "(주)지원엠엠시네마 동대문지점",
        "distance": 1567.0626229645366,
        "walking_time": "약 24분"
      },
      {
        "theater_lat": 37.568734553218,
        "theater_lon": 127.007666479829,
        "theater_type": "영화관",
        "theater_name": "CGV 동대문",
        "distance": 1765.0401306809786,
        "walking_time": "약 27분"
      }
    ]
  }
}