{
  "클러스터_위도": 37.56743,
  "클러스터_경도": 127.056235,
  "클러스터_level": 4.0,
  "facilities": {
    "bus": [
      {
        "bus_lat": 37.56654189,
        "bus_lon": 127.055992,
        "bus_type": "버스정류장",
        "bus_name": "황물로사거리",
        "distance": 101.0491303741675,
        "walking_time": "약 2분"
      },
      {
        "bus_lat": 37.56845386,
        "bus_lon": 127.0572013,
        "bus_type": "버스정류장",
        "bus_name": "답십리초등학교.현대시장",
        "distance": 142.17833929448392,
        "walking_time": "약 3분"
      },
      {
        "bus_lat": 37.56862657,
        "bus_lon": 127.0569309,
        "bus_type": "버스정류장",
        "bus_name": "답십리초등학교앞",
        "distance": 146.5088684488698,
        "walking_time": "약 3분"
      },
      {
        "bus_lat": 37.56618994,
        "bus_lon": 127.0552016,
        "bus_type": "버스정류장",
        "bus_name": "답십리쌍마사거리",
        "distance": 165.2545853149844,
        "walking_time": "약 3분"
      },
      {
        "bus_lat": 37.56550601,
        "bus_lon": 127.0552011,
        "bus_type": "버스정류장",
        "bus_name": "답십리역사거리",
        "distance": 232.53691089325773,
        "walking_time": "약 4분"
      },
      {
        "bus_lat": 37.56747388,
        "bus_lon": 127.0534864,
        "bus_type": "버스정류장",
        "bus_name": "답십리건축자재시장",
        "distance": 242.30280659675145,
        "walking_time": "약 4분"
      },
      {
        "bus_lat": 37.5651431,
        "bus_lon": 127.0566147,
        "bus_type": "버스정류장",
        "bus_name": "부속상가",
        "distance": 256.48439132398795,
        "walking_time": "약 4분"
      },
      {
        "bus_lat": 37.56518709,
        "bus_lon": 127.0550605,
        "bus_type": "버스정류장",
        "bus_name": "답십리역사거리",
        "distance": 270.0306892852898,
        "walking_time": "약 5분"
      },
      {
        "bus_lat": 37.56544961,
        "bus_lon": 127.0543962,
        "bus_type": "버스정류장",
        "bus_name": "답십리역사거리",
        "distance": 273.4198568840868,
        "walking_time": "약 5분"
      },
      {
        "bus_lat": 37.56676846,
        "bus_lon": 127.0531915,
        "bus_type": "버스정류장",
        "bus_name": "답십리역",
        "distance": 278.14975417494543,
        "walking_time": "약 5분"
      }
    ],
    "community_center": [
      {
        "community_center_lat": 37.56406781,
        "community_center_lon": 127.0555683,
        "community_center_type": "주민센터",
        "community_center_name": "용답동 자치회관",
        "distance": 378.4483724966195,
        "walking_time": "약 6분"
      },
      {
        "community_center_lat": 37.56739777,
        "community_center_lon": 127.0612821,
        "community_center_type": "주민센터",
        "community_center_name": "답십리2동 자치회관",
        "distance": 444.85149827114833,
        "walking_time": "약 7분"
      },
      {
        "community_center_lat": 37.57182309,
        "community_center_lon": 127.0512749,
        "community_center_type": "주민센터",
        "community_center_name": "답십리1동 자치회관",
        "distance": 655.5358944117631,
        "walking_time": "약 10분"
      },
      {
        "community_center_lat": 37.56781936,
        "community_center_lon": 127.0664131,
        "community_center_type": "주민센터",
        "community_center_name": "장안1동 자치회관",
        "distance": 898.1104489585147,
        "walking_time": "약 14분"
      },
      {
        "community_center_lat": 37.56631969,
        "community_center_lon": 127.0454073,
        "community_center_type": "주민센터",
        "community_center_name": "마장동 자치회관",
        "distance": 962.282512880626,
        "walking_time": "약 15분"
      },
      {
        "community_center_lat": 37.56149957,
        "community_center_lon": 127.045326,
        "community_center_type": "주민센터",
        "community_center_name": "사근동 자치회관",
        "distance": 1165.9269950830844,
        "walking_time": "약 18분"
      },
      {
        "community_center_lat": 37.57809107,
        "community_center_lon": 127.0600078,
        "community_center_type": "주민센터",
        "community_center_name": "전농2동 자치회관",
        "distance": 1231.204413890259,
        "walking_time": "약 19분"
      },
      {
        "community_center_lat": 37.57797071,
        "community_center_lon": 127.0477271,
        "community_center_type": "주민센터",
        "community_center_name": "전농1동 자치회관",
        "distance": 1391.39126440337,
        "walking_time": "약 21분"
      },
      {
        "community_center_lat": 37.55453307,
        "community_center_lon": 127.0695685,
        "community_center_type": "주민센터",
        "community_center_name": "송정동 자치회관",
        "distance": 1854.1426509860648,
        "walking_time": "약 28분"
      }
    ],
    "convenience_store": [
      {
        "convenience_store_lat": 37.56670169,
        "convenience_store_lon": 127.056713,
        "convenience_store_type": "편의점",
        "convenience_store_name": "GS25 시립대점",
        "distance": 91.2873811550271,
        "walking_time": "약 2분"
      },
      {
        "convenience_store_lat": 37.5660352,
        "convenience_store_lon": 127.0560116,
        "convenience_store_type": "편의점",
        "convenience_store_name": "세븐일레븐 답십리쌍마점",
        "distance": 156.33955949173955,
        "walking_time": "약 3분"
      },
      {
        "convenience_store_lat": 37.56912316,
        "convenience_store_lon": 127.057546,
        "convenience_store_type": "편의점",
        "convenience_store_name": "CU 답십리두산점",
        "distance": 220.90016679584903,
        "walking_time": "약 4분"
      },
      {
        "convenience_store_lat": 37.56593245,
        "convenience_store_lon": 127.0545369,
        "convenience_store_type": "편의점",
        "convenience_store_name": "세븐일레븐 답십리역점",
        "distance": 223.89543067856235,
        "walking_time": "약 4분"
      },
      {
        "convenience_store_lat": 37.56544384,
        "convenience_store_lon": 127.0553083,
        "convenience_store_type": "편의점",
        "convenience_store_name": "GS25 답십리사거리점",
        "distance": 235.47056346338928,
        "walking_time": "약 4분"
      },
      {
        "convenience_store_lat": 37.56745985,
        "convenience_store_lon": 127.0534875,
        "convenience_store_type": "편의점",
        "convenience_store_name": "GS25 답십리역점",
        "distance": 242.17949356287303,
        "walking_time": "약 4분"
      },
      {
        "convenience_store_lat": 37.56972912,
        "convenience_store_lon": 127.0569114,
        "convenience_store_type": "편의점",
        "convenience_store_name": "GS25 답십리타운점",
        "distance": 262.5092780542084,
        "walking_time": "약 4분"
      },
      {
        "convenience_store_lat": 37.56644583,
        "convenience_store_lon": 127.053181,
        "convenience_store_type": "편의점",
        "convenience_store_name": "세븐일레븐 답십리역점",
        "distance": 290.5681481501105,
        "walking_time": "약 5분"
      },
      {
        "convenience_store_lat": 37.56481549,
        "convenience_store_lon": 127.0560695,
        "convenience_store_type": "편의점",
        "convenience_store_name": "CU 청원에셋점",
        "distance": 291.0859694225556,
        "walking_time": "약 5분"
      },
      {
        "convenience_store_lat": 37.56567537,
        "convenience_store_lon": 127.0532204,
        "convenience_store_type": "편의점",
        "convenience_store_name": "세븐일레븐 성동용답점",
        "distance": 329.64153812792046,
        "walking_time": "약 5분"
      }
    ],
    "daycare": [
      {
        "daycare_lat": 37.56656181,
        "daycare_lon": 127.0571882,
        "daycare_type": "어린이집",
        "daycare_name": "위브어린이집",
        "distance": 127.97578120210252,
        "walking_time": "약 2분"
      },
      {
        "daycare_lat": 37.568068056576095,
        "daycare_lon": 127.05478797400336,
        "daycare_type": "어린이집",
        "daycare_name": "아름다운어린이집",
        "distance": 145.9424232597228,
        "walking_time": "약 3분"
      },
      {
        "daycare_lat": 37.5688905,
        "daycare_lon": 127.0562959,
        "daycare_type": "어린이집",
        "daycare_name": "예랑어린이집",
        "distance": 162.48886693830255,
        "walking_time": "약 3분"
      },
      {
        "daycare_lat": 37.56616803,
        "daycare_lon": 127.0577089,
        "daycare_type": "어린이집",
        "daycare_name": "위브어린이집",
        "distance": 191.22419297148843,
        "walking_time": "약 3분"
      },
      {
        "daycare_lat": 37.5681135,
        "daycare_lon": 127.0585568,
        "daycare_type": "어린이집",
        "daycare_name": "파크자이어린이집",
        "distance": 218.29362104113525,
        "walking_time": "약 4분"
      },
      {
        "daycare_lat": 37.56910669,
        "daycare_lon": 127.0575293,
        "daycare_type": "어린이집",
        "daycare_name": "꽃별어린이집",
        "distance": 218.56961453255164,
        "walking_time": "약 4분"
      },
      {
        "daycare_lat": 37.5683665,
        "daycare_lon": 127.0590142,
        "daycare_type": "어린이집",
        "daycare_name": "지니맘어린이집",
        "distance": 266.1653852453921,
        "walking_time": "약 4분"
      },
      {
        "daycare_lat": 37.57025774,
        "daycare_lon": 127.0575816,
        "daycare_type": "어린이집",
        "daycare_name": "예지안어린이집",
        "distance": 336.0835416696211,
        "walking_time": "약 6분"
      },
      {
        "daycare_lat": 37.56580617,
        "daycare_lon": 127.0524635,
        "daycare_type": "어린이집",
        "daycare_name": "삼성어린이집",
        "distance": 378.28668515359817,
        "walking_time": "약 6분"
      },
      {
        "daycare_lat": 37.56443411,
        "daycare_lon": 127.0538392,
        "daycare_type": "어린이집",
        "daycare_name": "피노키오어린이집",
        "distance": 394.4160383935565,
        "walking_time": "약 6분"
      }
    ],
    "education": [
      {
        "education_lat": 37.56669993,
        "education_lon": 127.0513042,
        "education_type": "도서관",
        "education_name": "성동구립용답도서관",
        "distance": 442.1058511113339,
        "walking_time": "약 7분"
      },
      {
        "education_lat": 37.573193,
        "education_lon": 127.0503603,
        "education_type": "도서관",
        "education_name": "동대문구답십리도서관",
        "distance": 823.8447871211282,
        "walking_time": "약 13분"
      },
      {
        "education_lat": 37.5604667,
        "education_lon": 127.0603649,
        "education_type": "박물관/기념관",
        "education_name": "서울하수도과학관",
        "distance": 855.5827062733857,
        "walking_time": "약 13분"
      },
      {
        "education_lat": 37.55791759,
        "education_lon": 127.0493219,
        "education_type": "미술관/갤러리",
        "education_name": "한양여자대학교 미술관",
        "distance": 1220.6929899657978,
        "walking_time": "약 19분"
      },
      {
        "education_lat": 37.57844311,
        "education_lon": 127.0627351,
        "education_type": "도서관",
        "education_name": "배봉산숲속도서관",
        "distance": 1351.9674928866216,
        "walking_time": "약 21분"
      },
      {
        "education_lat": 37.55450355,
        "education_lon": 127.0466112,
        "education_type": "박물관/기념관",
        "education_name": "한양대학교 박물관",
        "distance": 1669.0067399780378,
        "walking_time": "약 25분"
      },
      {
        "education_lat": 37.57927107,
        "education_lon": 127.0406269,
        "education_type": "미술관/갤러리",
        "education_name": "더 윌로",
        "distance": 1904.1357441091525,
        "walking_time": "약 29분"
      },
      {
        "education_lat": 37.55127807,
        "education_lon": 127.0670116,
        "education_type": "공연장",
        "education_name": "더라이트스튜디오",
        "distance": 2031.7511438069848,
        "walking_time": "약 31분"
      }
    ],
    "electric_gas_station": [
      {
        "electric_gas_station_lat": 37.56581702,
        "electric_gas_station_lon": 127.0461132,
        "electric_gas_station_type": "전기차 충전소",
        "electric_gas_station_name": "마장동사무소 앞(공중전화부스)",
        "distance": 909.966788059262,
        "walking_time": "약 14분"
      }
    ],
    "fitness": [
      {
        "fitness_lat": 37.5680105,
        "fitness_lon": 127.0574061,
        "fitness_type": "운동시설",
        "fitness_name": "베이스오브바디",
        "distance": 121.73856727835116,
        "walking_time": "약 2분"
      },
      {
        "fitness_lat": 37.56825403,
        "fitness_lon": 127.0572409,
        "fitness_type": "운동시설",
        "fitness_name": "답십리점 스포애니 (주)케이디헬스케어",
        "distance": 127.49778657522384,
        "walking_time": "약 2분"
      },
      {
        "fitness_lat": 37.5660352,
        "fitness_lon": 127.0560116,
        "fitness_type": "운동시설",
        "fitness_name": "버닝타임짐",
        "distance": 156.33955949173955,
        "walking_time": "약 3분"
      },
      {
        "fitness_lat": 37.56517853,
        "fitness_lon": 127.0556347,
        "fitness_type": "운동시설",
        "fitness_name": "하늘스포츠재활센터",
        "distance": 255.881930917626,
        "walking_time": "약 4분"
      },
      {
        "fitness_lat": 37.56522486,
        "fitness_lon": 127.0542338,
        "fitness_type": "운동시설",
        "fitness_name": "시티짐 답십리점",
        "distance": 302.04977839349453,
        "walking_time": "약 5분"
      },
      {
        "fitness_lat": 37.56601265,
        "fitness_lon": 127.0531387,
        "fitness_type": "운동시설",
        "fitness_name": "주식회사 아이앤지짐",
        "distance": 315.140808433611,
        "walking_time": "약 5분"
      },
      {
        "fitness_lat": 37.56757575,
        "fitness_lon": 127.0522092,
        "fitness_type": "운동시설",
        "fitness_name": "A True Gym 답십리점",
        "distance": 355.1920867035184,
        "walking_time": "약 6분"
      },
      {
        "fitness_lat": 37.56735755,
        "fitness_lon": 127.0615172,
        "fitness_type": "운동시설",
        "fitness_name": "원오원짐",
        "distance": 465.6279305461463,
        "walking_time": "약 7분"
      },
      {
        "fitness_lat": 37.56961978,
        "fitness_lon": 127.0515122,
        "fitness_type": "운동시설",
        "fitness_name": "쿠타짐 동대문",
        "distance": 482.23535351243584,
        "walking_time": "약 8분"
      },
      {
        "fitness_lat": 37.56771233,
        "fitness_lon": 127.0617436,
        "fitness_type": "운동시설",
        "fitness_name": "헬스데이 답십리점",
        "distance": 486.5252510504118,
        "walking_time": "약 8분"
      }
    ],
    "gas_station": [
      {
        "gas_station_lat": 37.56423394,
        "gas_station_lon": 127.0555933,
        "gas_station_type": "주유소",
        "gas_station_name": "㈜ 서울에너지",
        "distance": 359.8581180815325,
        "walking_time": "약 6분"
      },
      {
        "gas_station_lat": 37.56894475,
        "gas_station_lon": 127.0633763,
        "gas_station_type": "주유소",
        "gas_station_name": "오동나무주유소",
        "distance": 651.5544075989632,
        "walking_time": "약 10분"
      },
      {
        "gas_station_lat": 37.57016688,
        "gas_station_lon": 127.0649947,
        "gas_station_type": "주유소",
        "gas_station_name": "삼미상사㈜ 장안킹셀프주유소",
        "distance": 829.8565654681801,
        "walking_time": "약 13분"
      },
      {
        "gas_station_lat": 37.56141506,
        "gas_station_lon": 127.0623105,
        "gas_station_type": "주유소",
        "gas_station_name": "삼우주유소",
        "distance": 856.7926482326075,
        "walking_time": "약 13분"
      },
      {
        "gas_station_lat": 37.57577532,
        "gas_station_lon": 127.0574925,
        "gas_station_type": "주유소",
        "gas_station_name": "재정주유소",
        "distance": 934.5518208038576,
        "walking_time": "약 14분"
      },
      {
        "gas_station_lat": 37.5759083,
        "gas_station_lon": 127.0556315,
        "gas_station_type": "주유소",
        "gas_station_name": "㈜재건에너지 재정제2주유소",
        "distance": 944.2431276964276,
        "walking_time": "약 15분"
      },
      {
        "gas_station_lat": 37.57301206,
        "gas_station_lon": 127.0649712,
        "gas_station_type": "주유소",
        "gas_station_name": "㈜자연에너지 국민주유소",
        "distance": 988.9868123951408,
        "walking_time": "약 15분"
      },
      {
        "gas_station_lat": 37.56701689,
        "gas_station_lon": 127.0437206,
        "gas_station_type": "주유소",
        "gas_station_name": "현대오일뱅크㈜ 성동셀프주유소",
        "distance": 1103.9426202081245,
        "walking_time": "약 17분"
      },
      {
        "gas_station_lat": 37.57754919,
        "gas_station_lon": 127.059335,
        "gas_station_type": "주유소",
        "gas_station_name": "동일석유㈜강남주유소",
        "distance": 1157.895807813719,
        "walking_time": "약 18분"
      },
      {
        "gas_station_lat": 37.57222701,
        "gas_station_lon": 127.0688157,
        "gas_station_type": "주유소",
        "gas_station_name": "삼영주유소",
        "distance": 1230.4214446880414,
        "walking_time": "약 19분"
      }
    ],
    "hospital": [
      {
        "hospital_lat": 37.56710708,
        "hospital_lon": 127.0562602,
        "hospital_type": "병원",
        "hospital_name": "이석한의원",
        "distance": 35.97569289169701,
        "walking_time": "약 1분"
      },
      {
        "hospital_lat": 37.56694084,
        "hospital_lon": 127.0562728,
        "hospital_type": "병원",
        "hospital_name": "해담한의원",
        "distance": 54.49404728230686,
        "walking_time": "약 1분"
      },
      {
        "hospital_lat": 37.56701623,
        "hospital_lon": 127.0568869,
        "hospital_type": "병원",
        "hospital_name": "답십리연세정형외과의원",
        "distance": 73.60787365517334,
        "walking_time": "약 2분"
      },
      {
        "hospital_lat": 37.56701623,
        "hospital_lon": 127.0568869,
        "hospital_type": "병원",
        "hospital_name": "서울완수치과의원",
        "distance": 73.60787365517334,
        "walking_time": "약 2분"
      },
      {
        "hospital_lat": 37.56670169,
        "hospital_lon": 127.056713,
        "hospital_type": "병원",
        "hospital_name": "김영화정신과의원",
        "distance": 91.2873811550271,
        "walking_time": "약 2분"
      },
      {
        "hospital_lat": 37.56670169,
        "hospital_lon": 127.056713,
        "hospital_type": "병원",
        "hospital_name": "예일치과의원",
        "distance": 91.2873811550271,
        "walking_time": "약 2분"
      },
      {
        "hospital_lat": 37.5680105,
        "hospital_lon": 127.0574061,
        "hospital_type": "병원",
        "hospital_name": "그레이스미의원",
        "distance": 121.73856727835116,
        "walking_time": "약 2분"
      },
      {
        "hospital_lat": 37.5680105,
        "hospital_lon": 127.0574061,
        "hospital_type": "병원",
        "hospital_name": "다나성모소아청소년과의원",
        "distance": 121.73856727835116,
        "walking_time": "약 2분"
      },
      {
        "hospital_lat": 37.5680105,
        "hospital_lon": 127.0574061,
        "hospital_type": "병원",
        "hospital_name": "답십리설정형외과의원",
        "distance": 121.73856727835116,
        "walking_time": "약 2분"
      },
      {
        "hospital_lat": 37.5680105,
        "hospital_lon": 127.0574061,
        "hospital_type": "병원",
        "hospital_name": "답십리우리한의원",
        "distance": 121.73856727835116,
        "walking_time": "약 2분"
      }
    ],
    "music_room": [
      {
        "music_room_lat": 37.56727894,
        "music_room_lon": 127.0563743,
        "music_room_type": "노래방",
        "music_room_name": "차차차",
        "distance": 20.80577232402066,
        "walking_time": "약 1분"
      },
      {
        "music_room_lat": 37.56686616,
        "music_room_lon": 127.0570017,
        "music_room_type": "노래방",
        "music_room_name": "종달새",
        "distance": 92.18019200637792,
        "walking_time": "약 2분"
      },
      {
        "music_room_lat": 37.5660352,
        "music_room_lon": 127.0560116,
        "music_room_type": "노래방",
        "music_room_name": "하오",
        "distance": 156.33955949173955,
        "walking_time": "약 3분"
      },
      {
        "music_room_lat": 37.56593245,
        "music_room_lon": 127.0545369,
        "music_room_type": "노래방",
        "music_room_name": "퀸덤코인노래연습장",
        "distance": 223.89543067856235,
        "walking_time": "약 4분"
      },
      {
        "music_room_lat": 37.56496041,
        "music_room_lon": 127.0574839,
        "music_room_type": "노래방",
        "music_room_name": "신선",
        "distance": 295.8465491494503,
        "walking_time": "약 5분"
      },
      {
        "music_room_lat": 37.56615683,
        "music_room_lon": 127.0530816,
        "music_room_type": "노래방",
        "music_room_name": "쟁반 노래연습장",
        "distance": 311.91249779334083,
        "walking_time": "약 5분"
      },
      {
        "music_room_lat": 37.56643792,
        "music_room_lon": 127.0527371,
        "music_room_type": "노래방",
        "music_room_name": "짱노래연습장",
        "distance": 327.4389284648669,
        "walking_time": "약 5분"
      },
      {
        "music_room_lat": 37.56469367,
        "music_room_lon": 127.0541442,
        "music_room_type": "노래방",
        "music_room_name": "마돈나 노래연습장",
        "distance": 355.72056024810905,
        "walking_time": "약 6분"
      },
      {
        "music_room_lat": 37.56475366,
        "music_room_lon": 127.0537827,
        "music_room_type": "노래방",
        "music_room_name": "악쓰는하마노래연습장",
        "distance": 367.80519446340713,
        "walking_time": "약 6분"
      },
      {
        "music_room_lat": 37.56459345,
        "music_room_lon": 127.0540197,
        "music_room_type": "노래방",
        "music_room_name": "게임 노래방",
        "distance": 370.9549090284577,
        "walking_time": "약 6분"
      }
    ],
    "park": [
      {
        "park_lat": 37.5732438,
        "park_lon": 127.0488644,
        "park_type": "공원",
        "park_name": "간데메근린공원",
        "distance": 916.4578437266056,
        "walking_time": "약 14분"
      },
      {
        "park_lat": 37.5750896,
        "park_lon": 127.0626512,
        "park_type": "공원",
        "park_name": "답십리근린공원",
        "distance": 1022.336175082978,
        "walking_time": "약 16분"
      }
    ],
    "park_station": [
      {
        "park_station_lat": 37.56871832,
        "park_station_lon": 127.0588799,
        "park_station_type": "주차장",
        "park_station_name": "중산공영주차장",
        "distance": 273.6111406588006,
        "walking_time": "약 5분"
      },
      {
        "park_station_lat": 37.56864364,
        "park_station_lon": 127.0531454,
        "park_station_type": "주차장",
        "park_station_name": "장영당길 공영주차장",
        "distance": 303.9118042325439,
        "walking_time": "약 5분"
      },
      {
        "park_station_lat": 37.56457115,
        "park_station_lon": 127.0543101,
        "park_station_type": "주차장",
        "park_station_name": "용답동 공영주차장",
        "distance": 360.3301179125004,
        "walking_time": "약 6분"
      },
      {
        "park_station_lat": 37.56380327,
        "park_station_lon": 127.0559692,
        "park_station_type": "주차장",
        "park_station_name": "공유) 20-13",
        "distance": 403.9538885705816,
        "walking_time": "약 7분"
      },
      {
        "park_station_lat": 37.57111667,
        "park_station_lon": 127.0581633,
        "park_station_type": "주차장",
        "park_station_name": "답십리2동 노외주차장",
        "distance": 443.7715686518301,
        "walking_time": "약 7분"
      },
      {
        "park_station_lat": 37.56337586,
        "park_station_lon": 127.0549518,
        "park_station_type": "주차장",
        "park_station_name": "공유) 20-11",
        "distance": 464.77114615062,
        "walking_time": "약 7분"
      },
      {
        "park_station_lat": 37.56321164,
        "park_station_lon": 127.0562314,
        "park_station_type": "주차장",
        "park_station_name": "용답제2 공영주차장",
        "distance": 469.0603380822602,
        "walking_time": "약 8분"
      },
      {
        "park_station_lat": 37.56922273,
        "park_station_lon": 127.0510644,
        "park_station_type": "주차장",
        "park_station_name": "신답고가 주변",
        "distance": 497.4081612628154,
        "walking_time": "약 8분"
      },
      {
        "park_station_lat": 37.56370303,
        "park_station_lon": 127.0513239,
        "park_station_type": "주차장",
        "park_station_name": "용답 어울림 공영주차장",
        "distance": 599.2602394520542,
        "walking_time": "약 9분"
      },
      {
        "park_station_lat": 37.56501261,
        "park_station_lon": 127.0500903,
        "park_station_type": "주차장",
        "park_station_name": "공유) 20-21",
        "distance": 604.6227312850305,
        "walking_time": "약 10분"
      }
    ],
    "pc_room": [
      {
        "pc_room_lat": 37.5657983700541,
        "pc_room_lon": 127.054762202414,
        "pc_room_type": "PC방",
        "pc_room_name": "명성PC",
        "distance": 223.0851894560769,
        "walking_time": "약 4분"
      },
      {
        "pc_room_lat": 37.5654468726963,
        "pc_room_lon": 127.054020786993,
        "pc_room_type": "PC방",
        "pc_room_name": "테크노pc방",
        "distance": 294.46993959763586,
        "walking_time": "약 5분"
      },
      {
        "pc_room_lat": 37.5649822509522,
        "pc_room_lon": 127.054560923079,
        "pc_room_type": "PC방",
        "pc_room_name": "하투PC",
        "distance": 309.5992598051197,
        "walking_time": "약 5분"
      },
      {
        "pc_room_lat": 37.5716000499341,
        "pc_room_lon": 127.057066968632,
        "pc_room_type": "PC방",
        "pc_room_name": "볼트PC",
        "distance": 469.45023845167145,
        "walking_time": "약 8분"
      },
      {
        "pc_room_lat": 37.5669101962131,
        "pc_room_lon": 127.061880899304,
        "pc_room_type": "PC방",
        "pc_room_name": "세븐PC방",
        "distance": 500.9607127249737,
        "walking_time": "약 8분"
      },
      {
        "pc_room_lat": 37.5642917351454,
        "pc_room_lon": 127.051947277565,
        "pc_room_type": "PC방",
        "pc_room_name": "코아인PC방",
        "distance": 514.3856958936341,
        "walking_time": "약 8분"
      },
      {
        "pc_room_lat": 37.5638156826095,
        "pc_room_lon": 127.052481864068,
        "pc_room_type": "PC방",
        "pc_room_name": "탑클래스PC 용답점",
        "distance": 520.5250906100011,
        "walking_time": "약 8분"
      },
      {
        "pc_room_lat": 37.5731833863445,
        "pc_room_lon": 127.057770923489,
        "pc_room_type": "PC방",
        "pc_room_name": "행운피씨방",
        "distance": 653.9119497071384,
        "walking_time": "약 10분"
      },
      {
        "pc_room_lat": 37.5731833863445,
        "pc_room_lon": 127.057770923489,
        "pc_room_type": "PC방",
        "pc_room_name": "에스PC",
        "distance": 653.9119497071384,
        "walking_time": "약 10분"
      },
      {
        "pc_room_lat": 37.5731833863445,
        "pc_room_lon": 127.057770923489,
        "pc_room_type": "PC방",
        "pc_room_name": "세븐티PC방",
        "distance": 653.9119497071384,
        "walking_time": "약 10분"
      }
    ],
    "police_office": [
      {
        "police_office_lat": 37.56478214,
        "police_office_lon": 127.0517587,
        "police_office_type": "경찰소",
        "police_office_name": "용답파출소",
        "distance": 492.2868073648793,
        "walking_time": "약 8분"
      },
      {
        "police_office_lat": 37.5712943,
        "police_office_lon": 127.0510676,
        "police_office_type": "경찰소",
        "police_office_name": "답십리지구대",
        "distance": 626.1379093564044,
        "walking_time": "약 10분"
      },
      {
        "police_office_lat": 37.5696343,
        "police_office_lon": 127.0650047,
        "police_office_type": "경찰소",
        "police_office_name": "장안1파출소",
        "distance": 810.8577280888358,
        "walking_time": "약 13분"
      },
      {
        "police_office_lat": 37.57612945,
        "police_office_lon": 127.0479381,
        "police_office_type": "경찰소",
        "police_office_name": "전농1파출소",
        "distance": 1212.609806459422,
        "walking_time": "약 19분"
      },
      {
        "police_office_lat": 37.56030192,
        "police_office_lon": 127.0417943,
        "police_office_type": "경찰소",
        "police_office_name": "한양지구대",
        "distance": 1499.4342119515295,
        "walking_time": "약 23분"
      }
    ],
    "post_office": [
      {
        "post_office_lat": 37.56961978,
        "post_office_lon": 127.0515122,
        "post_office_type": "우체국",
        "post_office_name": "서울답십리우편취급국",
        "distance": 482.23535351243584,
        "walking_time": "약 8분"
      },
      {
        "post_office_lat": 37.56168108,
        "post_office_lon": 127.0608549,
        "post_office_type": "우체국",
        "post_office_name": "서울용답동우체국",
        "distance": 757.9272694119871,
        "walking_time": "약 12분"
      },
      {
        "post_office_lat": 37.56712179,
        "post_office_lon": 127.0658005,
        "post_office_type": "우체국",
        "post_office_name": "서울장안동우체국",
        "distance": 843.7738532656703,
        "walking_time": "약 13분"
      },
      {
        "post_office_lat": 37.5767537,
        "post_office_lon": 127.0575286,
        "post_office_type": "우체국",
        "post_office_name": "서울전농동우체국",
        "distance": 1042.9977529457178,
        "walking_time": "약 16분"
      },
      {
        "post_office_lat": 37.55450355,
        "post_office_lon": 127.0466112,
        "post_office_type": "우체국",
        "post_office_name": "서울한양대학교우체국",
        "distance": 1669.0067399780378,
        "walking_time": "약 25분"
      }
    ],
    "school": [
      {
        "school_lat": 37.5688043221289,
        "school_lon": 127.055427038114,
        "school_type": "초등학교",
        "school_name": "서울답십리초등학교",
        "distance": 168.594812531827,
        "walking_time": "약 3분"
      },
      {
        "school_lat": 37.5641223174494,
        "school_lon": 127.060523298508,
        "school_type": "초등학교",
        "school_name": "서울군자초등학교",
        "distance": 527.3840048846854,
        "walking_time": "약 8분"
      },
      {
        "school_lat": 37.5728706947252,
        "school_lon": 127.058958260045,
        "school_type": "초등학교",
        "school_name": "서울장평초등학교",
        "distance": 650.8483087233076,
        "walking_time": "약 10분"
      },
      {
        "school_lat": 37.5607271218686,
        "school_lon": 127.053760797077,
        "school_type": "초등학교",
        "school_name": "서울용답초등학교",
        "distance": 776.575400167651,
        "walking_time": "약 12분"
      },
      {
        "school_lat": 37.5746852353644,
        "school_lon": 127.054397292161,
        "school_type": "초등학교",
        "school_name": "서울전농초등학교",
        "distance": 822.8425792524229,
        "walking_time": "약 13분"
      },
      {
        "school_lat": 37.5715014215127,
        "school_lon": 127.06403409435,
        "school_type": "초등학교",
        "school_name": "서울동답초등학교",
        "distance": 823.0648221246333,
        "walking_time": "약 13분"
      },
      {
        "school_lat": 37.5745220668493,
        "school_lon": 127.051994343436,
        "school_type": "중학교",
        "school_name": "동대문중학교",
        "distance": 872.6830069461705,
        "walking_time": "약 14분"
      },
      {
        "school_lat": 37.5626797138007,
        "school_lon": 127.047573849243,
        "school_type": "초등학교",
        "school_name": "서울사근초등학교",
        "distance": 928.3172389922256,
        "walking_time": "약 14분"
      },
      {
        "school_lat": 37.5576210338606,
        "school_lon": 127.050263444631,
        "school_type": "초등학교",
        "school_name": "한양초등학교",
        "distance": 1211.068605225273,
        "walking_time": "약 19분"
      },
      {
        "school_lat": 37.5683388716972,
        "school_lon": 127.041605053834,
        "school_type": "중학교",
        "school_name": "마장중학교",
        "distance": 1293.388164910791,
        "walking_time": "약 20분"
      }
    ],
    "self_laundromat": [
      {
        "self_laundromat_lat": 37.5662759,
        "self_laundromat_lon": 127.0523809,
        "self_laundromat_type": "셀프 빨래방",
        "self_laundromat_name": "AMPM워시큐 답십리점",
        "distance": 363.12429293815535,
        "walking_time": "약 6분"
      },
      {
        "self_laundromat_lat": 37.5662759,
        "self_laundromat_lon": 127.0523809,
        "self_laundromat_type": "셀프 빨래방",
        "self_laundromat_name": "AMPM워시큐 답십리점",
        "distance": 363.12429293815535,
        "walking_time": "약 6분"
      },
      {
        "self_laundromat_lat": 37.56490362,
        "self_laundromat_lon": 127.052308,
        "self_laundromat_type": "셀프 빨래방",
        "self_laundromat_name": "코인워시24 셀프빨래방 용답점",
        "distance": 445.7754509820695,
        "walking_time": "약 7분"
      },
      {
        "self_laundromat_lat": 37.56490362,
        "self_laundromat_lon": 127.052308,
        "self_laundromat_type": "셀프 빨래방",
        "self_laundromat_name": "코인워시24 셀프빨래방 용답점",
        "distance": 445.7754509820695,
        "walking_time": "약 7분"
      },
      {
        "self_laundromat_lat": 37.56307826,
        "self_laundromat_lon": 127.0535882,
        "self_laundromat_type": "셀프 빨래방",
        "self_laundromat_name": "우리셀프빨래방협동조합 용답점",
        "distance": 537.1911027436461,
        "walking_time": "약 9분"
      },
      {
        "self_laundromat_lat": 37.56307826,
        "self_laundromat_lon": 127.0535882,
        "self_laundromat_type": "셀프 빨래방",
        "self_laundromat_name": "우리셀프빨래방협동조합 용답점",
        "distance": 537.1911027436461,
        "walking_time": "약 9분"
      },
      {
        "self_laundromat_lat": 37.56110966,
        "self_laundromat_lon": 127.0477285,
        "self_laundromat_type": "셀프 빨래방",
        "self_laundromat_name": "화이트365 사근점",
        "distance": 1027.6522136514575,
        "walking_time": "약 16분"
      },
      {
        "self_laundromat_lat": 37.56110966,
        "self_laundromat_lon": 127.0477285,
        "self_laundromat_type": "셀프 빨래방",
        "self_laundromat_name": "화이트365 사근점",
        "distance": 1027.6522136514575,
        "walking_time": "약 16분"
      },
      {
        "self_laundromat_lat": 37.56106073,
        "self_laundromat_lon": 127.0475318,
        "self_laundromat_type": "셀프 빨래방",
        "self_laundromat_name": "런드리익스프레스샵 한양여대점",
        "distance": 1044.0522400278269,
        "walking_time": "약 16분"
      },
      {
        "self_laundromat_lat": 37.56106073,
        "self_laundromat_lon": 127.0475318,
        "self_laundromat_type": "셀프 빨래방",
        "self_laundromat_name": "런드리익스프레스샵 한양여대점",
        "distance": 1044.0522400278269,
        "walking_time": "약 16분"
      }
    ],
    "subway": [
      {
        "subway_lat": 37.5664458277827,
        "subway_lon": 127.05318095956,
        "subway_type": "지하철",
        "subway_name": "5호선-답십리역",
        "distance": 290.5715428509627,
        "walking_time": "약 5분"
      },
      {
        "subway_lat": 37.5620049052662,
        "subway_lon": 127.050729309179,
        "subway_type": "지하철",
        "subway_name": "2호선-용답역",
        "distance": 774.204442883799,
        "walking_time": "약 12분"
      },
      {
        "subway_lat": 37.5699910562183,
        "subway_lon": 127.046820203556,
        "subway_type": "지하철",
        "subway_name": "2호선-신답역",
        "distance": 877.286033605999,
        "walking_time": "약 14분"
      },
      {
        "subway_lat": 37.5620134073184,
        "subway_lon": 127.064178204478,
        "subway_type": "지하철",
        "subway_name": "5호선-장한평역",
        "distance": 923.5399003809034,
        "walking_time": "약 14분"
      },
      {
        "subway_lat": 37.5657022363224,
        "subway_lon": 127.042757434672,
        "subway_type": "지하철",
        "subway_name": "5호선-마장역",
        "distance": 1203.3233545370776,
        "walking_time": "약 18분"
      },
      {
        "subway_lat": 37.55557788354,
        "subway_lon": 127.043584493543,
        "subway_type": "지하철",
        "subway_name": "2호선-한양대역",
        "distance": 1726.3327695192447,
        "walking_time": "약 26분"
      }
    ],
    "supermarket": [
      {
        "supermarket_lat": 37.56745985,
        "supermarket_lon": 127.0534875,
        "supermarket_type": "마트",
        "supermarket_name": "이마트에브리데이 답십리점",
        "distance": 242.17949356287303,
        "walking_time": "약 4분"
      },
      {
        "supermarket_lat": 37.56757575,
        "supermarket_lon": 127.0522092,
        "supermarket_type": "마트",
        "supermarket_name": "동부시장",
        "distance": 355.1920867035184,
        "walking_time": "약 6분"
      },
      {
        "supermarket_lat": 37.565949,
        "supermarket_lon": 127.0617272,
        "supermarket_type": "마트",
        "supermarket_name": "노브랜드 동대문 장안점",
        "distance": 511.3166650696055,
        "walking_time": "약 8분"
      },
      {
        "supermarket_lat": 37.565949,
        "supermarket_lon": 127.0617272,
        "supermarket_type": "마트",
        "supermarket_name": "장안위더스빌",
        "distance": 511.3166650696055,
        "walking_time": "약 8분"
      },
      {
        "supermarket_lat": 37.56036892,
        "supermarket_lon": 127.0651488,
        "supermarket_type": "마트",
        "supermarket_name": "자동차매매센타",
        "distance": 1110.7448578851422,
        "walking_time": "약 17분"
      },
      {
        "supermarket_lat": 37.57665904,
        "supermarket_lon": 127.0615677,
        "supermarket_type": "마트",
        "supermarket_name": "롯데쇼핑(주) 롯데슈퍼 전농점",
        "distance": 1128.7220615183412,
        "walking_time": "약 17분"
      },
      {
        "supermarket_lat": 37.57457267,
        "supermarket_lon": 127.0469013,
        "supermarket_type": "마트",
        "supermarket_name": "전농프라자",
        "distance": 1143.4509694228316,
        "walking_time": "약 18분"
      },
      {
        "supermarket_lat": 37.57798602,
        "supermarket_lon": 127.0572688,
        "supermarket_type": "마트",
        "supermarket_name": "전농로타리시장",
        "distance": 1177.306575610758,
        "walking_time": "약 18분"
      },
      {
        "supermarket_lat": 37.57789377,
        "supermarket_lon": 127.068569,
        "supermarket_type": "마트",
        "supermarket_name": "전곡시장",
        "distance": 1592.281059129354,
        "walking_time": "약 24분"
      },
      {
        "supermarket_lat": 37.57758804,
        "supermarket_lon": 127.0428414,
        "supermarket_type": "마트",
        "supermarket_name": "청량리역 한양수자인 그라시엘 판매시설",
        "distance": 1633.7530444481763,
        "walking_time": "약 25분"
      }
    ],
    "university": [
      {
        "university_lat": 37.5545035492027,
        "university_lon": 127.046611216789,
        "university_type": "대학교",
        "university_name": "한양대학교",
        "distance": 1669.0060641789726,
        "walking_time": "약 25분"
      },
      {
        "university_lat": 37.5545035492027,
        "university_lon": 127.046611216789,
        "university_type": "전문대학교(2년제)",
        "university_name": "한양여자대학교",
        "distance": 1669.0060641789726,
        "walking_time": "약 25분"
      }
    ]
  }
}