{
  "클러스터_위도": 37.503866,
  "클러스터_경도": 127.111546,
  "클러스터_level": 4.0,
  "facilities": {
    "bus": [
      {
        "bus_lat": 37.50257222,
        "bus_lon": 127.1120106,
        "bus_type": "버스정류장",
        "bus_name": "잠실여고후문",
        "distance": 149.58569608011635,
        "walking_time": "약 3분"
      },
      {
        "bus_lat": 37.50250109,
        "bus_lon": 127.111619,
        "bus_type": "버스정류장",
        "bus_name": "잠실여고후문",
        "distance": 151.90761918875214,
        "walking_time": "약 3분"
      },
      {
        "bus_lat": 37.503707,
        "bus_lon": 127.113797,
        "bus_type": "버스정류장",
        "bus_name": "한양공원",
        "distance": 199.3516408399064,
        "walking_time": "약 3분"
      },
      {
        "bus_lat": 37.50387311,
        "bus_lon": 127.1138832,
        "bus_type": "버스정류장",
        "bus_name": "한양공원",
        "distance": 206.1712908921672,
        "walking_time": "약 4분"
      },
      {
        "bus_lat": 37.5034083,
        "bus_lon": 127.1089443,
        "bus_type": "버스정류장",
        "bus_name": "석촌역",
        "distance": 235.0779727915689,
        "walking_time": "약 4분"
      },
      {
        "bus_lat": 37.50366286,
        "bus_lon": 127.1084538,
        "bus_type": "버스정류장",
        "bus_name": "석촌역",
        "distance": 273.70410620991424,
        "walking_time": "약 5분"
      },
      {
        "bus_lat": 37.50449715,
        "bus_lon": 127.1082078,
        "bus_type": "버스정류장",
        "bus_name": "석촌역4번출구",
        "distance": 302.71661622401285,
        "walking_time": "약 5분"
      },
      {
        "bus_lat": 37.5015446,
        "bus_lon": 127.109178,
        "bus_type": "버스정류장",
        "bus_name": "송파사거리.석촌시장",
        "distance": 332.0617927181957,
        "walking_time": "약 5분"
      },
      {
        "bus_lat": 37.50161118,
        "bus_lon": 127.1087521,
        "bus_type": "버스정류장",
        "bus_name": "송파사거리",
        "distance": 351.57553959588,
        "walking_time": "약 6분"
      },
      {
        "bus_lat": 37.50439186,
        "bus_lon": 127.1075771,
        "bus_type": "버스정류장",
        "bus_name": "석촌역5번출구",
        "distance": 354.95392714396826,
        "walking_time": "약 6분"
      }
    ],
    "community_center": [
      {
        "community_center_lat": 37.50626355,
        "community_center_lon": 127.1093124,
        "community_center_type": "주민센터",
        "community_center_name": "송파1동 자치회관",
        "distance": 331.5012367504399,
        "walking_time": "약 5분"
      },
      {
        "community_center_lat": 37.50233682,
        "community_center_lon": 127.1167171,
        "community_center_type": "주민센터",
        "community_center_name": "송파2동 자치회관",
        "distance": 486.82019156084647,
        "walking_time": "약 8분"
      },
      {
        "community_center_lat": 37.50356569,
        "community_center_lon": 127.1036892,
        "community_center_type": "주민센터",
        "community_center_name": "석촌동 자치회관",
        "distance": 693.871775821915,
        "walking_time": "약 11분"
      },
      {
        "community_center_lat": 37.49650407,
        "community_center_lon": 127.1098544,
        "community_center_type": "주민센터",
        "community_center_name": "가락1동 자치회관",
        "distance": 832.0997009746388,
        "walking_time": "약 13분"
      },
      {
        "community_center_lat": 37.49558031,
        "community_center_lon": 127.1217613,
        "community_center_type": "주민센터",
        "community_center_name": "가락본동 자치회관",
        "distance": 1288.7751552378174,
        "walking_time": "약 20분"
      },
      {
        "community_center_lat": 37.51097122,
        "community_center_lon": 127.1239058,
        "community_center_type": "주민센터",
        "community_center_name": "방이1동 자치회관",
        "distance": 1346.4074481492228,
        "walking_time": "약 21분"
      },
      {
        "community_center_lat": 37.5164187,
        "community_center_lon": 127.111305,
        "community_center_type": "주민센터",
        "community_center_name": "방이2동 자치회관",
        "distance": 1395.958416622149,
        "walking_time": "약 21분"
      },
      {
        "community_center_lat": 37.49867369,
        "community_center_lon": 127.1266091,
        "community_center_type": "주민센터",
        "community_center_name": "가락2동 자치회관",
        "distance": 1448.8077927946197,
        "walking_time": "약 22분"
      },
      {
        "community_center_lat": 37.50298784,
        "community_center_lon": 127.1280698,
        "community_center_type": "주민센터",
        "community_center_name": "오금동 자치회관",
        "distance": 1460.8780298352367,
        "walking_time": "약 22분"
      },
      {
        "community_center_lat": 37.51811865,
        "community_center_lon": 127.1006399,
        "community_center_type": "주민센터",
        "community_center_name": "잠실6동 자치회관",
        "distance": 1853.9227553108208,
        "walking_time": "약 28분"
      }
    ],
    "convenience_store": [
      {
        "convenience_store_lat": 37.50381402,
        "convenience_store_lon": 127.1118706,
        "convenience_store_type": "편의점",
        "convenience_store_name": "CU 송파부자점",
        "distance": 29.211255221848106,
        "walking_time": "약 1분"
      },
      {
        "convenience_store_lat": 37.50461197,
        "convenience_store_lon": 127.110702,
        "convenience_store_type": "편의점",
        "convenience_store_name": "GS25 송파세원점",
        "distance": 111.45988845573712,
        "walking_time": "약 2분"
      },
      {
        "convenience_store_lat": 37.50240656,
        "convenience_store_lon": 127.1118749,
        "convenience_store_type": "편의점",
        "convenience_store_name": "GS25 송파행운점",
        "distance": 164.8554660271194,
        "walking_time": "약 3분"
      },
      {
        "convenience_store_lat": 37.50373726,
        "convenience_store_lon": 127.1089791,
        "convenience_store_type": "편의점",
        "convenience_store_name": "CU 석촌역점",
        "distance": 226.8844042154149,
        "walking_time": "약 4분"
      },
      {
        "convenience_store_lat": 37.50269059,
        "convenience_store_lon": 127.1087523,
        "convenience_store_type": "편의점",
        "convenience_store_name": "세븐일레븐 석촌중앙점",
        "distance": 278.95408511195205,
        "walking_time": "약 5분"
      },
      {
        "convenience_store_lat": 37.50463332,
        "convenience_store_lon": 127.1084748,
        "convenience_store_type": "편의점",
        "convenience_store_name": "GS25 송파석촌점",
        "distance": 284.03425409132046,
        "walking_time": "약 5분"
      },
      {
        "convenience_store_lat": 37.50634621,
        "convenience_store_lon": 127.1133814,
        "convenience_store_type": "편의점",
        "convenience_store_name": "GS25 한양나누리점",
        "distance": 319.79783091005885,
        "walking_time": "약 5분"
      },
      {
        "convenience_store_lat": 37.50154003,
        "convenience_store_lon": 127.1093116,
        "convenience_store_type": "편의점",
        "convenience_store_name": "세븐일레븐 송파은혜점",
        "distance": 325.1812553562888,
        "walking_time": "약 5분"
      },
      {
        "convenience_store_lat": 37.50404116,
        "convenience_store_lon": 127.1075156,
        "convenience_store_type": "편의점",
        "convenience_store_name": "GS25 석촌타운점",
        "distance": 356.0635308321464,
        "walking_time": "약 6분"
      },
      {
        "convenience_store_lat": 37.50734135,
        "convenience_store_lon": 127.1116938,
        "convenience_store_type": "편의점",
        "convenience_store_name": "세븐일레븐 송파초교점",
        "distance": 386.6611501683638,
        "walking_time": "약 6분"
      }
    ],
    "daycare": [
      {
        "daycare_lat": 37.50341441,
        "daycare_lon": 127.1117528,
        "daycare_type": "어린이집",
        "daycare_name": "키즈어린이집",
        "distance": 53.42547478623542,
        "walking_time": "약 1분"
      },
      {
        "daycare_lat": 37.50357743,
        "daycare_lon": 127.1122225,
        "daycare_type": "어린이집",
        "daycare_name": "송파제일어린이집",
        "distance": 67.75545989921568,
        "walking_time": "약 2분"
      },
      {
        "daycare_lat": 37.50453955,
        "daycare_lon": 127.1105179,
        "daycare_type": "어린이집",
        "daycare_name": "피노키오그림나라어린이집",
        "distance": 117.61848216951137,
        "walking_time": "약 2분"
      },
      {
        "daycare_lat": 37.502934211607446,
        "daycare_lon": 127.11046194860867,
        "daycare_type": "어린이집",
        "daycare_name": "소리엘 어린이집",
        "distance": 140.9951586447044,
        "walking_time": "약 3분"
      },
      {
        "daycare_lat": 37.50297905,
        "daycare_lon": 127.1132916,
        "daycare_type": "어린이집",
        "daycare_name": "리나어린이집",
        "distance": 182.8604008817065,
        "walking_time": "약 3분"
      },
      {
        "daycare_lat": 37.50211924,
        "daycare_lon": 127.1117719,
        "daycare_type": "어린이집",
        "daycare_name": "명운어린이집",
        "distance": 195.25041369021167,
        "walking_time": "약 3분"
      },
      {
        "daycare_lat": 37.5061497,
        "daycare_lon": 127.11195,
        "daycare_type": "어린이집",
        "daycare_name": "피노키오친구들어린이집",
        "distance": 256.4243156302335,
        "walking_time": "약 4분"
      },
      {
        "daycare_lat": 37.50591833,
        "daycare_lon": 127.1097031,
        "daycare_type": "어린이집",
        "daycare_name": "행복한어린이집",
        "distance": 280.189803675935,
        "walking_time": "약 5분"
      },
      {
        "daycare_lat": 37.50591833,
        "daycare_lon": 127.1097031,
        "daycare_type": "어린이집",
        "daycare_name": "송파여성문화회관방과후어린이집",
        "distance": 280.189803675935,
        "walking_time": "약 5분"
      },
      {
        "daycare_lat": 37.50612872,
        "daycare_lon": 127.1131163,
        "daycare_type": "어린이집",
        "daycare_name": "라움어린이집",
        "distance": 287.21282650131684,
        "walking_time": "약 5분"
      }
    ],
    "education": [
      {
        "education_lat": 37.50272019,
        "education_lon": 127.1110266,
        "education_type": "미술관/갤러리",
        "education_name": "갤러리 무모",
        "distance": 135.396222359079,
        "walking_time": "약 3분"
      },
      {
        "education_lat": 37.5059055,
        "education_lon": 127.1097882,
        "education_type": "문화예술회관",
        "education_name": "송파문화여성회관",
        "distance": 274.7233439464617,
        "walking_time": "약 5분"
      },
      {
        "education_lat": 37.50221326,
        "education_lon": 127.1168433,
        "education_type": "도서관",
        "education_name": "소나무언덕4호작은도서관",
        "distance": 502.1311717539537,
        "walking_time": "약 8분"
      },
      {
        "education_lat": 37.50024473,
        "education_lon": 127.1066645,
        "education_type": "공연장",
        "education_name": "온쉼표",
        "distance": 589.5533283815205,
        "walking_time": "약 9분"
      },
      {
        "education_lat": 37.50945708,
        "education_lon": 127.1132204,
        "education_type": "미술관/갤러리",
        "education_name": "갤러리아리아",
        "distance": 639.003130421427,
        "walking_time": "약 10분"
      },
      {
        "education_lat": 37.50356569,
        "education_lon": 127.1036892,
        "education_type": "도서관",
        "education_name": "돌마리도서관",
        "distance": 693.871775821915,
        "walking_time": "약 11분"
      },
      {
        "education_lat": 37.51061468,
        "education_lon": 127.1082343,
        "education_type": "미술관/갤러리",
        "education_name": "언바운드",
        "distance": 805.2716461452626,
        "walking_time": "약 13분"
      },
      {
        "education_lat": 37.49888418,
        "education_lon": 127.1043834,
        "education_type": "박물관/기념관",
        "education_name": "송파책박물관",
        "distance": 840.297024941656,
        "walking_time": "약 13분"
      },
      {
        "education_lat": 37.51375196,
        "education_lon": 127.1044469,
        "education_type": "공연장",
        "education_name": "롯데콘서트홀",
        "distance": 1265.109061508703,
        "walking_time": "약 19분"
      },
      {
        "education_lat": 37.51659259,
        "education_lon": 127.1139562,
        "education_type": "미술관/갤러리",
        "education_name": "뮤지엄한미 방이",
        "distance": 1431.0116218381536,
        "walking_time": "약 22분"
      }
    ],
    "fitness": [
      {
        "fitness_lat": 37.50300081,
        "fitness_lon": 127.1121148,
        "fitness_type": "운동시설",
        "fitness_name": "앵글짐&프리모필라테스",
        "distance": 108.5031204094646,
        "walking_time": "약 2분"
      },
      {
        "fitness_lat": 37.50337775,
        "fitness_lon": 127.1130179,
        "fitness_type": "운동시설",
        "fitness_name": "크리스탈 짐",
        "distance": 140.73364118105837,
        "walking_time": "약 3분"
      },
      {
        "fitness_lat": 37.50240656,
        "fitness_lon": 127.1118749,
        "fitness_type": "운동시설",
        "fitness_name": "에스바디짐",
        "distance": 164.8554660271194,
        "walking_time": "약 3분"
      },
      {
        "fitness_lat": 37.50346979,
        "fitness_lon": 127.1092315,
        "fitness_type": "운동시설",
        "fitness_name": "단단",
        "distance": 208.867214542154,
        "walking_time": "약 4분"
      },
      {
        "fitness_lat": 37.50203771,
        "fitness_lon": 127.1108048,
        "fitness_type": "운동시설",
        "fitness_name": "아워피티스튜디오",
        "distance": 213.55217623117304,
        "walking_time": "약 4분"
      },
      {
        "fitness_lat": 37.50357936,
        "fitness_lon": 127.109122,
        "fitness_type": "운동시설",
        "fitness_name": "Dr.Line PT GYM",
        "distance": 216.1894501340975,
        "walking_time": "약 4분"
      },
      {
        "fitness_lat": 37.50424105,
        "fitness_lon": 127.1139939,
        "fitness_type": "운동시설",
        "fitness_name": "H휘트니스",
        "distance": 219.924614208619,
        "walking_time": "약 4분"
      },
      {
        "fitness_lat": 37.50378424,
        "fitness_lon": 127.1140872,
        "fitness_type": "운동시설",
        "fitness_name": "짐스휘트니스",
        "distance": 224.34949522709616,
        "walking_time": "약 4분"
      },
      {
        "fitness_lat": 37.50400579,
        "fitness_lon": 127.1087529,
        "fitness_type": "운동시설",
        "fitness_name": "케어바이아터스PT",
        "distance": 246.87537133462268,
        "walking_time": "약 4분"
      },
      {
        "fitness_lat": 37.50149057,
        "fitness_lon": 127.1122784,
        "fitness_type": "운동시설",
        "fitness_name": "피티찬스",
        "distance": 271.92252395914704,
        "walking_time": "약 5분"
      }
    ],
    "gas_station": [
      {
        "gas_station_lat": 37.50273441,
        "gas_station_lon": 127.1090104,
        "gas_station_type": "주유소",
        "gas_station_name": "잠실셀프주유소 (셀프)",
        "distance": 256.6358748609828,
        "walking_time": "약 4분"
      },
      {
        "gas_station_lat": 37.50255308,
        "gas_station_lon": 127.116428,
        "gas_station_type": "주유소",
        "gas_station_name": "송파주유소 (셀프)",
        "distance": 454.7283592595602,
        "walking_time": "약 7분"
      },
      {
        "gas_station_lat": 37.5063759,
        "gas_station_lon": 127.1066563,
        "gas_station_type": "주유소",
        "gas_station_name": "잠실주유소 (셀프)",
        "distance": 513.7421093357649,
        "walking_time": "약 8분"
      },
      {
        "gas_station_lat": 37.51106698,
        "gas_station_lon": 127.1110496,
        "gas_station_type": "주유소",
        "gas_station_name": "백제고분로주유소 (셀프)",
        "distance": 801.908767506554,
        "walking_time": "약 12분"
      },
      {
        "gas_station_lat": 37.49951845,
        "gas_station_lon": 127.1017358,
        "gas_station_type": "주유소",
        "gas_station_name": "가락로주유소 (셀프)",
        "distance": 991.275379421565,
        "walking_time": "약 15분"
      },
      {
        "gas_station_lat": 37.51261467,
        "gas_station_lon": 127.1140423,
        "gas_station_type": "주유소",
        "gas_station_name": "남성주유소",
        "distance": 997.4162302064814,
        "walking_time": "약 15분"
      },
      {
        "gas_station_lat": 37.5106973,
        "gas_station_lon": 127.1206916,
        "gas_station_type": "주유소",
        "gas_station_name": "방이주유소",
        "distance": 1108.0587677348003,
        "walking_time": "약 17분"
      },
      {
        "gas_station_lat": 37.49854598,
        "gas_station_lon": 127.1253716,
        "gas_station_type": "주유소",
        "gas_station_name": "제트라인디엠주유소",
        "distance": 1355.523182409567,
        "walking_time": "약 21분"
      },
      {
        "gas_station_lat": 37.49123101,
        "gas_station_lon": 127.1153536,
        "gas_station_type": "주유소",
        "gas_station_name": "훼미리주유소",
        "distance": 1444.544226268682,
        "walking_time": "약 22분"
      },
      {
        "gas_station_lat": 37.49577944,
        "gas_station_lon": 127.124781,
        "gas_station_type": "주유소",
        "gas_station_name": "서원주유소",
        "distance": 1473.673188604649,
        "walking_time": "약 22분"
      }
    ],
    "hospital": [
      {
        "hospital_lat": 37.50398406,
        "hospital_lon": 127.1099364,
        "hospital_type": "병원",
        "hospital_name": "엘피제이마음건강의원",
        "distance": 142.5919868411055,
        "walking_time": "약 3분"
      },
      {
        "hospital_lat": 37.50257768,
        "hospital_lon": 127.1115644,
        "hospital_type": "병원",
        "hospital_name": "서울탑치과의원",
        "distance": 143.26384283181372,
        "walking_time": "약 3분"
      },
      {
        "hospital_lat": 37.50262841,
        "hospital_lon": 127.1123236,
        "hospital_type": "병원",
        "hospital_name": "백삼한의원",
        "distance": 153.76195024174305,
        "walking_time": "약 3분"
      },
      {
        "hospital_lat": 37.50299021,
        "hospital_lon": 127.1130311,
        "hospital_type": "병원",
        "hospital_name": "선치과의원",
        "distance": 163.2354102015442,
        "walking_time": "약 3분"
      },
      {
        "hospital_lat": 37.503121,
        "hospital_lon": 127.1132577,
        "hospital_type": "병원",
        "hospital_name": "성모자애의원",
        "distance": 172.22547205782124,
        "walking_time": "약 3분"
      },
      {
        "hospital_lat": 37.50337615,
        "hospital_lon": 127.1136458,
        "hospital_type": "병원",
        "hospital_name": "잘봄경희한의원",
        "distance": 193.07138483124243,
        "walking_time": "약 3분"
      },
      {
        "hospital_lat": 37.50303325,
        "hospital_lon": 127.1096194,
        "hospital_type": "병원",
        "hospital_name": "민지영산부인과의원",
        "distance": 193.53958947379525,
        "walking_time": "약 3분"
      },
      {
        "hospital_lat": 37.50261807,
        "hospital_lon": 127.1100011,
        "hospital_type": "병원",
        "hospital_name": "송파서울정신과의원",
        "distance": 194.49326513427528,
        "walking_time": "약 3분"
      },
      {
        "hospital_lat": 37.50355447,
        "hospital_lon": 127.1138232,
        "hospital_type": "병원",
        "hospital_name": "송파본치과의원",
        "distance": 203.8424010061887,
        "walking_time": "약 4분"
      },
      {
        "hospital_lat": 37.50355447,
        "hospital_lon": 127.1138232,
        "hospital_type": "병원",
        "hospital_name": "시온정형외과의원",
        "distance": 203.8424010061887,
        "walking_time": "약 4분"
      }
    ],
    "music_room": [
      {
        "music_room_lat": 37.50230288,
        "music_room_lon": 127.1107956,
        "music_room_type": "노래방",
        "music_room_name": "준",
        "distance": 185.9894439576666,
        "walking_time": "약 3분"
      },
      {
        "music_room_lat": 37.50336753,
        "music_room_lon": 127.1093166,
        "music_room_type": "노래방",
        "music_room_name": "피그코인노래연습장",
        "distance": 204.3227828314145,
        "walking_time": "약 4분"
      },
      {
        "music_room_lat": 37.50551811,
        "music_room_lon": 127.1100337,
        "music_room_type": "노래방",
        "music_room_name": "테크노",
        "distance": 227.033203707574,
        "walking_time": "약 4분"
      },
      {
        "music_room_lat": 37.5043441,
        "music_room_lon": 127.1142071,
        "music_room_type": "노래방",
        "music_room_name": "신도깨비노래연습장",
        "distance": 240.6856147511906,
        "walking_time": "약 4분"
      },
      {
        "music_room_lat": 37.50192851,
        "music_room_lon": 127.109546,
        "music_room_type": "노래방",
        "music_room_name": "SBS 노래연습장",
        "distance": 278.4608308296754,
        "walking_time": "약 5분"
      },
      {
        "music_room_lat": 37.50463332,
        "music_room_lon": 127.1084748,
        "music_room_type": "노래방",
        "music_room_name": "만남노래연습장",
        "distance": 284.03425409132046,
        "walking_time": "약 5분"
      },
      {
        "music_room_lat": 37.50156404,
        "music_room_lon": 127.1100397,
        "music_room_type": "노래방",
        "music_room_name": "1,2,3 노래연습장",
        "distance": 288.4004623668818,
        "walking_time": "약 5분"
      },
      {
        "music_room_lat": 37.50141003,
        "music_room_lon": 127.1101699,
        "music_room_type": "노래방",
        "music_room_name": "뮤젠",
        "distance": 298.85560976802986,
        "walking_time": "약 5분"
      },
      {
        "music_room_lat": 37.50171811,
        "music_room_lon": 127.1088725,
        "music_room_type": "노래방",
        "music_room_name": "큐",
        "distance": 335.65149466094624,
        "walking_time": "약 6분"
      },
      {
        "music_room_lat": 37.50131408,
        "music_room_lon": 127.1086996,
        "music_room_type": "노래방",
        "music_room_name": "월드",
        "distance": 378.90254034068016,
        "walking_time": "약 6분"
      }
    ],
    "park_station": [
      {
        "park_station_lat": 37.50241635,
        "park_station_lon": 127.1127618,
        "park_station_type": "주차장",
        "park_station_name": "센틀주차장",
        "distance": 193.61271646346967,
        "walking_time": "약 3분"
      },
      {
        "park_station_lat": 37.50589821,
        "park_station_lon": 127.1097796,
        "park_station_type": "주차장",
        "park_station_name": "송파근린공원",
        "distance": 274.4845069670941,
        "walking_time": "약 5분"
      },
      {
        "park_station_lat": 37.50527031,
        "park_station_lon": 127.1085983,
        "park_station_type": "주차장",
        "park_station_name": "신 송파주차장",
        "distance": 303.30576394772714,
        "walking_time": "약 5분"
      },
      {
        "park_station_lat": 37.50702621,
        "park_station_lon": 127.1133659,
        "park_station_type": "주차장",
        "park_station_name": "송파동",
        "distance": 386.3323693185927,
        "walking_time": "약 6분"
      },
      {
        "park_station_lat": 37.50578773,
        "park_station_lon": 127.1078362,
        "park_station_type": "주차장",
        "park_station_name": "석촌역",
        "distance": 390.8347108245746,
        "walking_time": "약 6분"
      },
      {
        "park_station_lat": 37.50632775,
        "park_station_lon": 127.1178797,
        "park_station_type": "주차장",
        "park_station_name": "공유) 12-37",
        "distance": 622.155285581241,
        "walking_time": "약 10분"
      },
      {
        "park_station_lat": 37.50914917,
        "park_station_lon": 127.1077667,
        "park_station_type": "주차장",
        "park_station_name": "부영주차장",
        "distance": 675.4599195588918,
        "walking_time": "약 11분"
      },
      {
        "park_station_lat": 37.5079307,
        "park_station_lon": 127.1180913,
        "park_station_type": "주차장",
        "park_station_name": "방이고분",
        "distance": 733.2294060369159,
        "walking_time": "약 11분"
      },
      {
        "park_station_lat": 37.50751557,
        "park_station_lon": 127.1038374,
        "park_station_type": "주차장",
        "park_station_name": "금정유료주차장",
        "distance": 791.8668158842154,
        "walking_time": "약 12분"
      },
      {
        "park_station_lat": 37.50192799,
        "park_station_lon": 127.1022796,
        "park_station_type": "주차장",
        "park_station_name": "석촌고분",
        "distance": 845.3496826744096,
        "walking_time": "약 13분"
      }
    ],
    "pc_room": [
      {
        "pc_room_lat": 37.5043767828743,
        "pc_room_lon": 127.11092396566,
        "pc_room_type": "PC방",
        "pc_room_name": "딸기PC방",
        "distance": 78.97248300794399,
        "walking_time": "약 2분"
      },
      {
        "pc_room_lat": 37.5028451320194,
        "pc_room_lon": 127.109801165729,
        "pc_room_type": "PC방",
        "pc_room_name": "Play# PC",
        "distance": 191.24890290564645,
        "walking_time": "약 3분"
      },
      {
        "pc_room_lat": 37.5042410521594,
        "pc_room_lon": 127.113993867811,
        "pc_room_type": "PC방",
        "pc_room_name": "존앤존",
        "distance": 219.92187179972663,
        "walking_time": "약 4분"
      },
      {
        "pc_room_lat": 37.5043441013731,
        "pc_room_lon": 127.114207097572,
        "pc_room_type": "PC방",
        "pc_room_name": "몽키타운",
        "distance": 240.68543958568972,
        "walking_time": "약 4분"
      },
      {
        "pc_room_lat": 37.5022521743632,
        "pc_room_lon": 127.109419287195,
        "pc_room_type": "PC방",
        "pc_room_name": "B-ONE PC",
        "distance": 259.6100528135772,
        "walking_time": "약 4분"
      },
      {
        "pc_room_lat": 37.5054023594673,
        "pc_room_lon": 127.108244727875,
        "pc_room_type": "PC방",
        "pc_room_name": "메가웹스테이션",
        "distance": 337.6209088399876,
        "walking_time": "약 6분"
      },
      {
        "pc_room_lat": 37.5068260721295,
        "pc_room_lon": 127.115624287487,
        "pc_room_type": "PC방",
        "pc_room_name": "봉봉PC게임",
        "distance": 487.601316816799,
        "walking_time": "약 8분"
      },
      {
        "pc_room_lat": 37.505623046794,
        "pc_room_lon": 127.106325433287,
        "pc_room_type": "PC방",
        "pc_room_name": "탑스타PC방 석촌역점",
        "distance": 500.24322318113377,
        "walking_time": "약 8분"
      },
      {
        "pc_room_lat": 37.5061910863799,
        "pc_room_lon": 127.116954142891,
        "pc_room_type": "PC방",
        "pc_room_name": "핫플PC방",
        "distance": 542.6098552939727,
        "walking_time": "약 9분"
      },
      {
        "pc_room_lat": 37.5066105446509,
        "pc_room_lon": 127.116639701972,
        "pc_room_type": "PC방",
        "pc_room_name": "샤먼PC CAFE",
        "distance": 543.1592459571823,
        "walking_time": "약 9분"
      }
    ],
    "police_office": [
      {
        "police_office_lat": 37.49818447,
        "police_office_lon": 127.1253134,
        "police_office_type": "경찰소",
        "police_office_name": "가락지구대",
        "distance": 1368.9879688138185,
        "walking_time": "약 21분"
      },
      {
        "police_office_lat": 37.51024991,
        "police_office_lon": 127.1257464,
        "police_office_type": "경찰소",
        "police_office_name": "방이지구대",
        "distance": 1439.7557484796887,
        "walking_time": "약 22분"
      },
      {
        "police_office_lat": 37.50689952,
        "police_office_lon": 127.128101,
        "police_office_type": "경찰소",
        "police_office_name": "오금파출소",
        "distance": 1498.7756095084046,
        "walking_time": "약 23분"
      }
    ],
    "post_office": [
      {
        "post_office_lat": 37.5059055,
        "post_office_lon": 127.1097882,
        "post_office_type": "우체국",
        "post_office_name": "서울송파1동우체국",
        "distance": 274.7233439464617,
        "walking_time": "약 5분"
      },
      {
        "post_office_lat": 37.50277096,
        "post_office_lon": 127.116404,
        "post_office_type": "우체국",
        "post_office_name": "서울송파한양우편취급국",
        "distance": 445.5013353343412,
        "walking_time": "약 7분"
      },
      {
        "post_office_lat": 37.50898861,
        "post_office_lon": 127.1151301,
        "post_office_type": "우체국",
        "post_office_name": "서울방이동우체국",
        "distance": 651.4636694998288,
        "walking_time": "약 10분"
      },
      {
        "post_office_lat": 37.49761457,
        "post_office_lon": 127.1025318,
        "post_office_type": "우체국",
        "post_office_name": "헬리오시티우편취급국",
        "distance": 1056.1910737957298,
        "walking_time": "약 16분"
      },
      {
        "post_office_lat": 37.49572319,
        "post_office_lon": 127.1210871,
        "post_office_type": "우체국",
        "post_office_name": "서울가락본동우체국",
        "distance": 1236.227809461638,
        "walking_time": "약 19분"
      },
      {
        "post_office_lat": 37.50257386,
        "post_office_lon": 127.128043,
        "post_office_type": "우체국",
        "post_office_name": "서울송파우체국",
        "distance": 1462.3265409904764,
        "walking_time": "약 22분"
      },
      {
        "post_office_lat": 37.50821281,
        "post_office_lon": 127.1274412,
        "post_office_type": "우체국",
        "post_office_name": "서울오금대림우편취급국",
        "distance": 1483.083542992708,
        "walking_time": "약 23분"
      },
      {
        "post_office_lat": 37.4900237,
        "post_office_lon": 127.1112679,
        "post_office_type": "우체국",
        "post_office_name": "서울문정동우체국",
        "distance": 1539.389052536672,
        "walking_time": "약 23분"
      },
      {
        "post_office_lat": 37.51733948,
        "post_office_lon": 127.1007161,
        "post_office_type": "우체국",
        "post_office_name": "서울장미아파트우편취급국",
        "distance": 1776.8068458118205,
        "walking_time": "약 27분"
      }
    ],
    "public_health_center": [
      {
        "public_health_center_lat": 37.51447718,
        "public_health_center_lon": 127.10586,
        "public_health_center_type": "보건소",
        "public_health_center_name": "송파구보건소",
        "distance": 1282.0795614858316,
        "walking_time": "약 20분"
      }
    ],
    "school": [
      {
        "school_lat": 37.5017941334924,
        "school_lon": 127.114241325581,
        "school_type": "고등학교",
        "school_name": "잠실여자고등학교",
        "distance": 331.0698167618585,
        "walking_time": "약 5분"
      },
      {
        "school_lat": 37.5017941334924,
        "school_lon": 127.114241325581,
        "school_type": "고등학교",
        "school_name": "일신여자상업고등학교",
        "distance": 331.0698167618585,
        "walking_time": "약 5분"
      },
      {
        "school_lat": 37.5017941334924,
        "school_lon": 127.114241325581,
        "school_type": "중학교",
        "school_name": "일신여자중학교",
        "distance": 331.0698167618585,
        "walking_time": "약 5분"
      },
      {
        "school_lat": 37.5069549745149,
        "school_lon": 127.111247174893,
        "school_type": "초등학교",
        "school_name": "서울송파초등학교",
        "distance": 344.4882615161556,
        "walking_time": "약 6분"
      },
      {
        "school_lat": 37.4998119038214,
        "school_lon": 127.113605457993,
        "school_type": "초등학교",
        "school_name": "서울중대초등학교",
        "distance": 486.0264132905236,
        "walking_time": "약 8분"
      },
      {
        "school_lat": 37.5010563298142,
        "school_lon": 127.116425801136,
        "school_type": "고등학교",
        "school_name": "가락고등학교",
        "distance": 531.8913402896807,
        "walking_time": "약 8분"
      },
      {
        "school_lat": 37.5026527756676,
        "school_lon": 127.105238463221,
        "school_type": "초등학교",
        "school_name": "서울석촌초등학교",
        "distance": 572.5275244562476,
        "walking_time": "약 9분"
      },
      {
        "school_lat": 37.4998746399971,
        "school_lon": 127.107214872322,
        "school_type": "초등학교",
        "school_name": "서울가락초등학교",
        "distance": 585.6210082792236,
        "walking_time": "약 9분"
      },
      {
        "school_lat": 37.5023397085349,
        "school_lon": 127.11897125744,
        "school_type": "중학교",
        "school_name": "가락중학교",
        "distance": 676.6357759239829,
        "walking_time": "약 11분"
      },
      {
        "school_lat": 37.5003207198096,
        "school_lon": 127.119700425145,
        "school_type": "초등학교",
        "school_name": "서울신가초등학교",
        "distance": 820.276694362079,
        "walking_time": "약 13분"
      }
    ],
    "self_laundromat": [
      {
        "self_laundromat_lat": 37.50397122,
        "self_laundromat_lon": 127.1114248,
        "self_laundromat_type": "셀프 빨래방",
        "self_laundromat_name": "더런드리셀프빨래방 송파동점",
        "distance": 15.849061663586816,
        "walking_time": "약 1분"
      },
      {
        "self_laundromat_lat": 37.50397122,
        "self_laundromat_lon": 127.1114248,
        "self_laundromat_type": "셀프 빨래방",
        "self_laundromat_name": "더런드리셀프빨래방 송파동점",
        "distance": 15.849061663586816,
        "walking_time": "약 1분"
      },
      {
        "self_laundromat_lat": 37.50752987,
        "self_laundromat_lon": 127.1136474,
        "self_laundromat_type": "셀프 빨래방",
        "self_laundromat_name": "워시팡팡 셀프빨래방 24시 송파점",
        "distance": 447.5912427010945,
        "walking_time": "약 7분"
      },
      {
        "self_laundromat_lat": 37.50752987,
        "self_laundromat_lon": 127.1136474,
        "self_laundromat_type": "셀프 빨래방",
        "self_laundromat_name": "워시팡팡 셀프빨래방 24시 송파점",
        "distance": 447.5912427010945,
        "walking_time": "약 7분"
      },
      {
        "self_laundromat_lat": 37.51033097,
        "self_laundromat_lon": 127.1170047,
        "self_laundromat_type": "셀프 빨래방",
        "self_laundromat_name": "더런드리셀프빨래방 방이점",
        "distance": 865.2297381549128,
        "walking_time": "약 13분"
      },
      {
        "self_laundromat_lat": 37.51033097,
        "self_laundromat_lon": 127.1170047,
        "self_laundromat_type": "셀프 빨래방",
        "self_laundromat_name": "더런드리셀프빨래방 방이점",
        "distance": 865.2297381549128,
        "walking_time": "약 13분"
      },
      {
        "self_laundromat_lat": 37.50535709,
        "self_laundromat_lon": 127.1012751,
        "self_laundromat_type": "셀프 빨래방",
        "self_laundromat_name": "버블존 24시코인워시빨래방",
        "distance": 921.0567228437816,
        "walking_time": "약 14분"
      },
      {
        "self_laundromat_lat": 37.50535709,
        "self_laundromat_lon": 127.1012751,
        "self_laundromat_type": "셀프 빨래방",
        "self_laundromat_name": "버블존 24시코인워시빨래방",
        "distance": 921.0567228437816,
        "walking_time": "약 14분"
      },
      {
        "self_laundromat_lat": 37.50770698,
        "self_laundromat_lon": 127.1223366,
        "self_laundromat_type": "셀프 빨래방",
        "self_laundromat_name": "코인워시24셀프빨래방 방이1동점",
        "distance": 1043.2689124310684,
        "walking_time": "약 16분"
      },
      {
        "self_laundromat_lat": 37.50770698,
        "self_laundromat_lon": 127.1223366,
        "self_laundromat_type": "셀프 빨래방",
        "self_laundromat_name": "코인워시24셀프빨래방 방이1동점",
        "distance": 1043.2689124310684,
        "walking_time": "약 16분"
      }
    ],
    "subway": [
      {
        "subway_lat": 37.4996866748478,
        "subway_lon": 127.112179893361,
        "subway_type": "지하철",
        "subway_name": "8호선-송파역",
        "distance": 468.0719567868552,
        "walking_time": "약 7분"
      },
      {
        "subway_lat": 37.5059496431187,
        "subway_lon": 127.106345349428,
        "subway_type": "지하철",
        "subway_name": "8호선-석촌역",
        "distance": 513.942218072916,
        "walking_time": "약 8분"
      },
      {
        "subway_lat": 37.5059496431187,
        "subway_lon": 127.106345349428,
        "subway_type": "지하철",
        "subway_name": "9호선-석촌역",
        "distance": 513.942218072916,
        "walking_time": "약 8분"
      },
      {
        "subway_lat": 37.5104581017222,
        "subway_lon": 127.112744120149,
        "subway_type": "지하철",
        "subway_name": "9호선-송파나루역",
        "distance": 740.5877964680037,
        "walking_time": "약 12분"
      },
      {
        "subway_lat": 37.5085564458698,
        "subway_lon": 127.125854699016,
        "subway_type": "지하철",
        "subway_name": "5호선-방이역",
        "distance": 1365.67758152155,
        "walking_time": "약 21분"
      },
      {
        "subway_lat": 37.4927440321316,
        "subway_lon": 127.118485741487,
        "subway_type": "지하철",
        "subway_name": "3호선-가락시장역",
        "distance": 1379.946132085057,
        "walking_time": "약 21분"
      },
      {
        "subway_lat": 37.4927440321316,
        "subway_lon": 127.118485741487,
        "subway_type": "지하철",
        "subway_name": "8호선-가락시장역",
        "distance": 1379.946132085057,
        "walking_time": "약 21분"
      },
      {
        "subway_lat": 37.5149771693164,
        "subway_lon": 127.10421637903,
        "subway_type": "지하철",
        "subway_name": "8호선-잠실(송파구청)역",
        "distance": 1394.4372888765683,
        "walking_time": "약 21분"
      },
      {
        "subway_lat": 37.513859279255,
        "subway_lon": 127.101857941447,
        "subway_type": "지하철",
        "subway_name": "2호선-잠실(송파구청)역",
        "distance": 1401.792882989845,
        "walking_time": "약 21분"
      },
      {
        "subway_lat": 37.4956031419934,
        "subway_lon": 127.124067847413,
        "subway_type": "지하철",
        "subway_name": "3호선-경찰병원역",
        "distance": 1436.8038409247606,
        "walking_time": "약 22분"
      }
    ],
    "supermarket": [
      {
        "supermarket_lat": 37.50516461,
        "supermarket_lon": 127.1145255,
        "supermarket_type": "마트",
        "supermarket_name": "한화 송파지점",
        "distance": 299.8810901953766,
        "walking_time": "약 5분"
      },
      {
        "supermarket_lat": 37.50516461,
        "supermarket_lon": 127.1145255,
        "supermarket_type": "마트",
        "supermarket_name": "롯데쇼핑(주)롯데슈퍼송파점",
        "distance": 299.8810901953766,
        "walking_time": "약 5분"
      },
      {
        "supermarket_lat": 37.50140348,
        "supermarket_lon": 127.1076013,
        "supermarket_type": "마트",
        "supermarket_name": "엄마손상가",
        "distance": 442.7923824546799,
        "walking_time": "약 7분"
      },
      {
        "supermarket_lat": 37.50636817,
        "supermarket_lon": 127.1167393,
        "supermarket_type": "마트",
        "supermarket_name": "홈플러스(주) 익스프레스 송파점",
        "distance": 535.9772229256484,
        "walking_time": "약 8분"
      },
      {
        "supermarket_lat": 37.51249624,
        "supermarket_lon": 127.1121003,
        "supermarket_type": "마트",
        "supermarket_name": "GS THE FRESH 송파나루역점",
        "distance": 960.8836430729198,
        "walking_time": "약 15분"
      },
      {
        "supermarket_lat": 37.49631121,
        "supermarket_lon": 127.1183069,
        "supermarket_type": "마트",
        "supermarket_name": "(주)이마트에브리데이 가락동점",
        "distance": 1030.2493325744824,
        "walking_time": "약 16분"
      },
      {
        "supermarket_lat": 37.49761457,
        "supermarket_lon": 127.1025318,
        "supermarket_type": "마트",
        "supermarket_name": "이마트에브리데이 송파점",
        "distance": 1056.1910737957298,
        "walking_time": "약 16분"
      },
      {
        "supermarket_lat": 37.50733798,
        "supermarket_lon": 127.1231562,
        "supermarket_type": "마트",
        "supermarket_name": "(주)지에스리테일 방이점",
        "distance": 1094.4895136807943,
        "walking_time": "약 17분"
      },
      {
        "supermarket_lat": 37.51422319,
        "supermarket_lon": 127.1092233,
        "supermarket_type": "마트",
        "supermarket_name": "롯데쇼핑(주)롯데슈퍼방이점",
        "distance": 1169.7483556279387,
        "walking_time": "약 18분"
      },
      {
        "supermarket_lat": 37.51371299,
        "supermarket_lon": 127.1043018,
        "supermarket_type": "마트",
        "supermarket_name": "롯데하이마트 월드타워점",
        "distance": 1267.7482817225475,
        "walking_time": "약 19분"
      }
    ],
    "theater": [
      {
        "theater_lat": 37.5137129859207,
        "theater_lon": 127.104301829165,
        "theater_type": "영화관",
        "theater_name": "롯데시네마 월드타워",
        "distance": 1267.7465933243998,
        "walking_time": "약 19분"
      }
    ],
    "university": [
      {
        "university_lat": 37.5198703733617,
        "university_lon": 127.129660488669,
        "university_type": "대학교",
        "university_name": "한국체육대학교",
        "distance": 2391.609810947523,
        "walking_time": "약 36분"
      }
    ]
  }
}