{
  "클러스터_위도": 37.61038999999999,
  "클러스터_경도": 127.062514,
  "클러스터_level": 4.0,
  "facilities": {
    "bus": [
      {
        "bus_lat": 37.61158926,
        "bus_lon": 127.0618334,
        "bus_type": "버스정류장",
        "bus_name": "장위사거리",
        "distance": 146.20801627807978,
        "walking_time": "약 3분"
      },
      {
        "bus_lat": 37.61192533,
        "bus_lon": 127.0618299,
        "bus_type": "버스정류장",
        "bus_name": "장위사거리",
        "distance": 181.0436405746829,
        "walking_time": "약 3분"
      },
      {
        "bus_lat": 37.60926115,
        "bus_lon": 127.0640252,
        "bus_type": "버스정류장",
        "bus_name": "석관중고등학교앞",
        "distance": 182.96449831771187,
        "walking_time": "약 3분"
      },
      {
        "bus_lat": 37.60943547,
        "bus_lon": 127.0643618,
        "bus_type": "버스정류장",
        "bus_name": "석관고등학교",
        "distance": 194.3155220786621,
        "walking_time": "약 3분"
      },
      {
        "bus_lat": 37.61119774,
        "bus_lon": 127.0652478,
        "bus_type": "버스정류장",
        "bus_name": "상진운수종점",
        "distance": 257.0135851463445,
        "walking_time": "약 4분"
      },
      {
        "bus_lat": 37.61126743,
        "bus_lon": 127.0656288,
        "bus_type": "버스정류장",
        "bus_name": "상진운수종점",
        "distance": 291.2004856146824,
        "walking_time": "약 5분"
      },
      {
        "bus_lat": 37.61298587,
        "bus_lon": 127.0613211,
        "bus_type": "버스정류장",
        "bus_name": "석관동주민센터",
        "distance": 307.178205310495,
        "walking_time": "약 5분"
      },
      {
        "bus_lat": 37.6133957,
        "bus_lon": 127.0619142,
        "bus_type": "버스정류장",
        "bus_name": "석관동주민센터",
        "distance": 338.3687360305925,
        "walking_time": "약 6분"
      },
      {
        "bus_lat": 37.60900239,
        "bus_lon": 127.05906,
        "bus_type": "버스정류장",
        "bus_name": "석관시장",
        "distance": 341.1404575145562,
        "walking_time": "약 6분"
      },
      {
        "bus_lat": 37.61344125,
        "bus_lon": 127.0614334,
        "bus_type": "버스정류장",
        "bus_name": "석관동주민센터",
        "distance": 352.3823451260551,
        "walking_time": "약 6분"
      }
    ],
    "community_center": [
      {
        "community_center_lat": 37.61297096,
        "community_center_lon": 127.0614241,
        "community_center_type": "주민센터",
        "community_center_name": "석관동 자치회관",
        "distance": 302.6214635713899,
        "walking_time": "약 5분"
      },
      {
        "community_center_lat": 37.61239016,
        "community_center_lon": 127.0544978,
        "community_center_type": "주민센터",
        "community_center_name": "장위2동 자치회관",
        "distance": 740.3062561194312,
        "walking_time": "약 12분"
      },
      {
        "community_center_lat": 37.60339461,
        "community_center_lon": 127.0651361,
        "community_center_type": "주민센터",
        "community_center_name": "이문2동 자치회관",
        "distance": 811.4223226337675,
        "walking_time": "약 13분"
      },
      {
        "community_center_lat": 37.61514677,
        "community_center_lon": 127.0553813,
        "community_center_type": "주민센터",
        "community_center_name": "장위3동 자치회관",
        "distance": 821.2748965564444,
        "walking_time": "약 13분"
      },
      {
        "community_center_lat": 37.61999186,
        "community_center_lon": 127.0628833,
        "community_center_type": "주민센터",
        "community_center_name": "월계1동 자치회관",
        "distance": 1068.173509269131,
        "walking_time": "약 16분"
      },
      {
        "community_center_lat": 37.60955186,
        "community_center_lon": 127.0758757,
        "community_center_type": "주민센터",
        "community_center_name": "묵2동 자치회관",
        "distance": 1180.6731520274996,
        "walking_time": "약 18분"
      },
      {
        "community_center_lat": 37.62100498,
        "community_center_lon": 127.0692318,
        "community_center_type": "주민센터",
        "community_center_name": "월계3동 자치회관",
        "distance": 1320.3396690817258,
        "walking_time": "약 20분"
      },
      {
        "community_center_lat": 37.61241458,
        "community_center_lon": 127.0784793,
        "community_center_type": "주민센터",
        "community_center_name": "묵1동 자치회관",
        "distance": 1424.2098155118815,
        "walking_time": "약 22분"
      },
      {
        "community_center_lat": 37.62477801,
        "community_center_lon": 127.0737505,
        "community_center_type": "주민센터",
        "community_center_name": "공릉1동 자치회관",
        "distance": 1881.2426333844835,
        "walking_time": "약 29분"
      }
    ],
    "convenience_store": [
      {
        "convenience_store_lat": 37.60895833,
        "convenience_store_lon": 127.0626,
        "convenience_store_type": "편의점",
        "convenience_store_name": "CU 석관중앙점",
        "distance": 159.37458400469114,
        "walking_time": "약 3분"
      },
      {
        "convenience_store_lat": 37.60893358,
        "convenience_store_lon": 127.0637243,
        "convenience_store_type": "편의점",
        "convenience_store_name": "GS25 석관미소점",
        "distance": 193.88853852243827,
        "walking_time": "약 3분"
      },
      {
        "convenience_store_lat": 37.61064968,
        "convenience_store_lon": 127.0603308,
        "convenience_store_type": "편의점",
        "convenience_store_name": "CU 미송점",
        "distance": 194.4653414577603,
        "walking_time": "약 3분"
      },
      {
        "convenience_store_lat": 37.61019311,
        "convenience_store_lon": 127.0595141,
        "convenience_store_type": "편의점",
        "convenience_store_name": "세븐일레븐 석관초교점",
        "distance": 265.1557686423421,
        "walking_time": "약 4분"
      },
      {
        "convenience_store_lat": 37.61320046,
        "convenience_store_lon": 127.0629313,
        "convenience_store_type": "편의점",
        "convenience_store_name": "세븐일레븐 석계화랑로점",
        "distance": 314.66321349072655,
        "walking_time": "약 5분"
      },
      {
        "convenience_store_lat": 37.60760604,
        "convenience_store_lon": 127.0613776,
        "convenience_store_type": "편의점",
        "convenience_store_name": "CU 석관그랜드점",
        "distance": 325.3450614724211,
        "walking_time": "약 5분"
      },
      {
        "convenience_store_lat": 37.60829372,
        "convenience_store_lon": 127.059894,
        "convenience_store_type": "편의점",
        "convenience_store_name": "GS25 성북석관점",
        "distance": 328.02029624592376,
        "walking_time": "약 5분"
      },
      {
        "convenience_store_lat": 37.60958929,
        "convenience_store_lon": 127.0667176,
        "convenience_store_type": "편의점",
        "convenience_store_name": "CU 석관고점",
        "distance": 380.8353966594112,
        "walking_time": "약 6분"
      },
      {
        "convenience_store_lat": 37.60731865,
        "convenience_store_lon": 127.0604603,
        "convenience_store_type": "편의점",
        "convenience_store_name": "GS25 석관사랑점",
        "distance": 386.4739150606324,
        "walking_time": "약 6분"
      },
      {
        "convenience_store_lat": 37.60784537,
        "convenience_store_lon": 127.0586676,
        "convenience_store_type": "편의점",
        "convenience_store_name": "CU 석관제일점",
        "distance": 441.4297915067848,
        "walking_time": "약 7분"
      }
    ],
    "daycare": [
      {
        "daycare_lat": 37.61077002,
        "daycare_lon": 127.0609498,
        "daycare_type": "어린이집",
        "daycare_name": "노란민들레어린이집",
        "distance": 144.1182991803296,
        "walking_time": "약 3분"
      },
      {
        "daycare_lat": 37.61003445391791,
        "daycare_lon": 127.06504434587006,
        "daycare_type": "어린이집",
        "daycare_name": "새빛어린이집",
        "distance": 226.36839296347983,
        "walking_time": "약 4분"
      },
      {
        "daycare_lat": 37.60852862,
        "daycare_lon": 127.061337,
        "daycare_type": "어린이집",
        "daycare_name": "청솔어린이집",
        "distance": 231.49162954310663,
        "walking_time": "약 4분"
      },
      {
        "daycare_lat": 37.60887291,
        "daycare_lon": 127.0598773,
        "daycare_type": "어린이집",
        "daycare_name": "하은어린이집",
        "distance": 287.0569532657901,
        "walking_time": "약 5분"
      },
      {
        "daycare_lat": 37.61336639,
        "daycare_lon": 127.0630511,
        "daycare_type": "어린이집",
        "daycare_name": "석관어린이집",
        "distance": 334.3238309960944,
        "walking_time": "약 5분"
      },
      {
        "daycare_lat": 37.60801784,
        "daycare_lon": 127.059426,
        "daycare_type": "어린이집",
        "daycare_name": "숲속어린이집",
        "distance": 378.9034092592936,
        "walking_time": "약 6분"
      },
      {
        "daycare_lat": 37.61105278000824,
        "daycare_lon": 127.06678008646524,
        "daycare_type": "어린이집",
        "daycare_name": "예사랑어린이집",
        "distance": 382.9405915619032,
        "walking_time": "약 6분"
      },
      {
        "daycare_lat": 37.61380803,
        "daycare_lon": 127.0645441,
        "daycare_type": "어린이집",
        "daycare_name": "나래어린이집",
        "distance": 420.0332342911749,
        "walking_time": "약 7분"
      },
      {
        "daycare_lat": 37.61078974903606,
        "daycare_lon": 127.05713257592346,
        "daycare_type": "어린이집",
        "daycare_name": "아트리치어린이집",
        "distance": 476.10787716696655,
        "walking_time": "약 8분"
      },
      {
        "daycare_lat": 37.60773144,
        "daycare_lon": 127.0579742,
        "daycare_type": "어린이집",
        "daycare_name": "별밭어린이집",
        "distance": 497.3039789059196,
        "walking_time": "약 8분"
      }
    ],
    "education": [
      {
        "education_lat": 37.61348164414527,
        "education_lon": 127.06543951524604,
        "education_type": "도서관",
        "education_name": "석관동미리내도서관",
        "distance": 429.6355763343657,
        "walking_time": "약 7분"
      },
      {
        "education_lat": 37.61932035,
        "education_lon": 127.0583381,
        "education_type": "공연장",
        "education_name": "광운대학교동해문화예술관",
        "distance": 1058.9418077678547,
        "walking_time": "약 16분"
      },
      {
        "education_lat": 37.60500291,
        "education_lon": 127.0507422,
        "education_type": "도서관",
        "education_name": "성북정보도서관",
        "distance": 1197.5523834014966,
        "walking_time": "약 18분"
      },
      {
        "education_lat": 37.60497289,
        "education_lon": 127.0505855,
        "education_type": "공연장",
        "education_name": "천장산우화극장",
        "distance": 1211.1816091308665,
        "walking_time": "약 19분"
      },
      {
        "education_lat": 37.62017392,
        "education_lon": 127.0769362,
        "education_type": "박물관/기념관",
        "education_name": "서울생활사박물관",
        "distance": 1672.5051949550298,
        "walking_time": "약 25분"
      },
      {
        "education_lat": 37.62863772,
        "education_lon": 127.0561228,
        "education_type": "도서관",
        "education_name": "월계도서관",
        "distance": 2105.688740335887,
        "walking_time": "약 32분"
      },
      {
        "education_lat": 37.62879899,
        "education_lon": 127.0698009,
        "education_type": "문화원",
        "education_name": "노원문화원",
        "distance": 2145.2402232499467,
        "walking_time": "약 33분"
      }
    ],
    "electric_gas_station": [
      {
        "electric_gas_station_lat": 37.60939144,
        "electric_gas_station_lon": 127.0532211,
        "electric_gas_station_type": "전기차 충전소",
        "electric_gas_station_name": "성북벤처빌딩 공영주차장",
        "distance": 826.0787376945376,
        "walking_time": "약 13분"
      }
    ],
    "fitness": [
      {
        "fitness_lat": 37.60896519,
        "fitness_lon": 127.0603166,
        "fitness_type": "운동시설",
        "fitness_name": "동호헬스",
        "distance": 250.13413830540543,
        "walking_time": "약 4분"
      },
      {
        "fitness_lat": 37.61232063,
        "fitness_lon": 127.0602018,
        "fitness_type": "운동시설",
        "fitness_name": "아크로짐 돌곶이점 24시 휘트니스",
        "distance": 295.9181552795623,
        "walking_time": "약 5분"
      },
      {
        "fitness_lat": 37.61294877,
        "fitness_lon": 127.0650071,
        "fitness_type": "운동시설",
        "fitness_name": "블랙멀티짐",
        "distance": 359.41464031763195,
        "walking_time": "약 6분"
      },
      {
        "fitness_lat": 37.61080844,
        "fitness_lon": 127.057599,
        "fitness_type": "운동시설",
        "fitness_name": "업타운 휘트니스 돌곶이점",
        "distance": 435.4358973504543,
        "walking_time": "약 7분"
      },
      {
        "fitness_lat": 37.60993241,
        "fitness_lon": 127.0575969,
        "fitness_type": "운동시설",
        "fitness_name": "짐욱",
        "distance": 436.1088056166105,
        "walking_time": "약 7분"
      },
      {
        "fitness_lat": 37.60698616,
        "fitness_lon": 127.0657342,
        "fitness_type": "운동시설",
        "fitness_name": "힙짐 헬스&PT 석관점",
        "distance": 472.9889860090386,
        "walking_time": "약 8분"
      },
      {
        "fitness_lat": 37.61459856,
        "fitness_lon": 127.063357,
        "fitness_type": "운동시설",
        "fitness_name": "하디핏",
        "distance": 473.8250300386875,
        "walking_time": "약 8분"
      },
      {
        "fitness_lat": 37.6104055,
        "fitness_lon": 127.0569062,
        "fitness_type": "운동시설",
        "fitness_name": "무브짐 앤 무브맥스PT 돌곶이점",
        "distance": 493.973220464159,
        "walking_time": "약 8분"
      },
      {
        "fitness_lat": 37.614953,
        "fitness_lon": 127.0640434,
        "fitness_type": "운동시설",
        "fitness_name": "부르스타짐(주)",
        "distance": 524.9619893264503,
        "walking_time": "약 8분"
      },
      {
        "fitness_lat": 37.61510196,
        "fitness_lon": 127.0649828,
        "fitness_type": "운동시설",
        "fitness_name": "휘트니스꿈&필라테스",
        "distance": 567.2817126815876,
        "walking_time": "약 9분"
      }
    ],
    "gas_station": [
      {
        "gas_station_lat": 37.61261571,
        "gas_station_lon": 127.0614001,
        "gas_station_type": "주유소",
        "gas_station_name": "우리주유소",
        "distance": 266.22782204565675,
        "walking_time": "약 4분"
      },
      {
        "gas_station_lat": 37.61363831,
        "gas_station_lon": 127.0602167,
        "gas_station_type": "주유소",
        "gas_station_name": "현대오일뱅크(주)직영 장삼주유소",
        "distance": 414.0172558460797,
        "walking_time": "약 7분"
      },
      {
        "gas_station_lat": 37.60364823,
        "gas_station_lon": 127.0618006,
        "gas_station_type": "주유소",
        "gas_station_name": "㈜경동주유소",
        "distance": 752.2801150116024,
        "walking_time": "약 12분"
      },
      {
        "gas_station_lat": 37.61495967,
        "gas_station_lon": 127.0527678,
        "gas_station_type": "주유소",
        "gas_station_name": "원천주유소",
        "distance": 997.5862470902264,
        "walking_time": "약 15분"
      },
      {
        "gas_station_lat": 37.60786905,
        "gas_station_lon": 127.0507396,
        "gas_station_type": "주유소",
        "gas_station_name": "지에스칼텍스(주)화랑주유소",
        "distance": 1074.3934981313453,
        "walking_time": "약 17분"
      },
      {
        "gas_station_lat": 37.60690716,
        "gas_station_lon": 127.0500906,
        "gas_station_type": "주유소",
        "gas_station_name": "㈜신용구도일주유소 화랑로",
        "distance": 1160.8608834882225,
        "walking_time": "약 18분"
      },
      {
        "gas_station_lat": 37.60922871,
        "gas_station_lon": 127.0776272,
        "gas_station_type": "주유소",
        "gas_station_name": "범아주유소",
        "distance": 1337.5239418751148,
        "walking_time": "약 20분"
      },
      {
        "gas_station_lat": 37.61859616,
        "gas_station_lon": 127.0791755,
        "gas_station_type": "주유소",
        "gas_station_name": "㈜이엠석유 배꽃나라주유소",
        "distance": 1728.1156257851103,
        "walking_time": "약 26분"
      },
      {
        "gas_station_lat": 37.62601324,
        "gas_station_lon": 127.0599638,
        "gas_station_type": "주유소",
        "gas_station_name": "성북역주유소",
        "distance": 1751.6855478911928,
        "walking_time": "약 27분"
      },
      {
        "gas_station_lat": 37.62444137,
        "gas_station_lon": 127.0507579,
        "gas_station_type": "주유소",
        "gas_station_name": "월계주유소",
        "distance": 1874.4027438388143,
        "walking_time": "약 28분"
      }
    ],
    "hospital": [
      {
        "hospital_lat": 37.61047326,
        "hospital_lon": 127.0634208,
        "hospital_type": "병원",
        "hospital_name": "장위석관보건지소",
        "distance": 80.41133699474075,
        "walking_time": "약 2분"
      },
      {
        "hospital_lat": 37.61011714,
        "hospital_lon": 127.0593656,
        "hospital_type": "병원",
        "hospital_name": "돌봄의원",
        "distance": 278.98609576953896,
        "walking_time": "약 5분"
      },
      {
        "hospital_lat": 37.61283671,
        "hospital_lon": 127.0646377,
        "hospital_type": "병원",
        "hospital_name": "다솜연세가정의학과의원",
        "distance": 330.1684269897705,
        "walking_time": "약 5분"
      },
      {
        "hospital_lat": 37.60920463,
        "hospital_lon": 127.0589831,
        "hospital_type": "병원",
        "hospital_name": "박규호내과의원",
        "distance": 337.80246249298875,
        "walking_time": "약 6분"
      },
      {
        "hospital_lat": 37.60920463,
        "hospital_lon": 127.0589831,
        "hospital_type": "병원",
        "hospital_name": "서울치과의원",
        "distance": 337.80246249298875,
        "walking_time": "약 6분"
      },
      {
        "hospital_lat": 37.61293142,
        "hospital_lon": 127.0603412,
        "hospital_type": "병원",
        "hospital_name": "김종탁치과의원",
        "distance": 341.3051047646485,
        "walking_time": "약 6분"
      },
      {
        "hospital_lat": 37.60937475,
        "hospital_lon": 127.058774,
        "hospital_type": "병원",
        "hospital_name": "중국진한의원",
        "distance": 348.25030516119904,
        "walking_time": "약 6분"
      },
      {
        "hospital_lat": 37.60752702,
        "hospital_lon": 127.0607014,
        "hospital_type": "병원",
        "hospital_name": "유태영치과의원",
        "distance": 356.14596457819454,
        "walking_time": "약 6분"
      },
      {
        "hospital_lat": 37.60815018,
        "hospital_lon": 127.0595731,
        "hospital_type": "병원",
        "hospital_name": "은성의원",
        "distance": 359.3600618304484,
        "walking_time": "약 6분"
      },
      {
        "hospital_lat": 37.61294877,
        "hospital_lon": 127.0650071,
        "hospital_type": "병원",
        "hospital_name": "동우미앤미치과의원",
        "distance": 359.41464031763195,
        "walking_time": "약 6분"
      }
    ],
    "music_room": [
      {
        "music_room_lat": 37.61126372,
        "music_room_lon": 127.0627025,
        "music_room_type": "노래방",
        "music_room_name": "스마일 노래연습장",
        "distance": 98.56190297184772,
        "walking_time": "약 2분"
      },
      {
        "music_room_lat": 37.61134309,
        "music_room_lon": 127.0635611,
        "music_room_type": "노래방",
        "music_room_name": "에델바이스 노래방",
        "distance": 140.49453302835445,
        "walking_time": "약 3분"
      },
      {
        "music_room_lat": 37.60847129,
        "music_room_lon": 127.0597561,
        "music_room_type": "노래방",
        "music_room_name": "퀸 노래연습장",
        "distance": 323.321227090378,
        "walking_time": "약 5분"
      },
      {
        "music_room_lat": 37.61283671,
        "music_room_lon": 127.0646377,
        "music_room_type": "노래방",
        "music_room_name": "고래고래 노래연습장",
        "distance": 330.1684269897705,
        "walking_time": "약 5분"
      },
      {
        "music_room_lat": 37.60920463,
        "music_room_lon": 127.0589831,
        "music_room_type": "노래방",
        "music_room_name": "즐거운 노래연습장",
        "distance": 337.80246249298875,
        "walking_time": "약 6분"
      },
      {
        "music_room_lat": 37.61259021,
        "music_room_lon": 127.0596586,
        "music_room_type": "노래방",
        "music_room_name": "팝콘 노래연습장",
        "distance": 350.87879043902115,
        "walking_time": "약 6분"
      },
      {
        "music_room_lat": 37.60709098,
        "music_room_lon": 127.0626854,
        "music_room_type": "노래방",
        "music_room_name": "산천 노래연습장",
        "distance": 367.14486709016006,
        "walking_time": "약 6분"
      },
      {
        "music_room_lat": 37.61316123,
        "music_room_lon": 127.0648271,
        "music_room_type": "노래방",
        "music_room_name": "용가리 노래연습장",
        "distance": 369.41560074589125,
        "walking_time": "약 6분"
      },
      {
        "music_room_lat": 37.60893909,
        "music_room_lon": 127.0586603,
        "music_room_type": "노래방",
        "music_room_name": "진 노래연습장",
        "distance": 375.8492571695465,
        "walking_time": "약 6분"
      },
      {
        "music_room_lat": 37.60916315,
        "music_room_lon": 127.058511,
        "music_room_type": "노래방",
        "music_room_name": "? 노래연습장",
        "distance": 378.0816261765143,
        "walking_time": "약 6분"
      }
    ],
    "outdoor_sports": [
      {
        "outdoor_sports_lat": 37.61197198,
        "outdoor_sports_lon": 127.0718858,
        "outdoor_sports_type": "야외 체육시설",
        "outdoor_sports_name": "수림대공원 데크",
        "distance": 844.052174448425,
        "walking_time": "약 13분"
      },
      {
        "outdoor_sports_lat": 37.608703159737,
        "outdoor_sports_lon": 127.072821186903,
        "outdoor_sports_type": "야외 체육시설",
        "outdoor_sports_name": "묵현초 앞 제방 하단",
        "distance": 927.1043456297882,
        "walking_time": "약 14분"
      },
      {
        "outdoor_sports_lat": 37.612808292361,
        "outdoor_sports_lon": 127.072745680998,
        "outdoor_sports_type": "야외 체육시설",
        "outdoor_sports_name": "수림대공원 옆 미포장면",
        "distance": 940.5162264777894,
        "walking_time": "약 15분"
      },
      {
        "outdoor_sports_lat": 37.6070772929975,
        "outdoor_sports_lon": 127.073017678707,
        "outdoor_sports_type": "야외 체육시설",
        "outdoor_sports_name": "스카이워크 비포장면",
        "distance": 995.8790259170644,
        "walking_time": "약 15분"
      },
      {
        "outdoor_sports_lat": 37.6053824313658,
        "outdoor_sports_lon": 127.072741959541,
        "outdoor_sports_type": "야외 체육시설",
        "outdoor_sports_name": "중화체육공원 제방 위",
        "distance": 1059.1492640040383,
        "walking_time": "약 16분"
      },
      {
        "outdoor_sports_lat": 37.6111247155535,
        "outdoor_sports_lon": 127.074888914507,
        "outdoor_sports_type": "야외 체육시설",
        "outdoor_sports_name": "소망어린이공원(묵동)",
        "distance": 1093.1120359124454,
        "walking_time": "약 17분"
      },
      {
        "outdoor_sports_lat": 37.6056428572704,
        "outdoor_sports_lon": 127.073838466753,
        "outdoor_sports_type": "야외 체육시설",
        "outdoor_sports_name": "중랑천로",
        "distance": 1128.611657633083,
        "walking_time": "약 17분"
      },
      {
        "outdoor_sports_lat": 37.603926044275,
        "outdoor_sports_lon": 127.074375371282,
        "outdoor_sports_type": "야외 체육시설",
        "outdoor_sports_name": "중화수경공원",
        "distance": 1268.2140754701254,
        "walking_time": "약 19분"
      },
      {
        "outdoor_sports_lat": 37.6032044542891,
        "outdoor_sports_lon": 127.07392450145,
        "outdoor_sports_type": "야외 체육시설",
        "outdoor_sports_name": "중화수경공원",
        "distance": 1284.0311602437152,
        "walking_time": "약 20분"
      },
      {
        "outdoor_sports_lat": 37.6043020367704,
        "outdoor_sports_lon": 127.074930317683,
        "outdoor_sports_type": "야외 체육시설",
        "outdoor_sports_name": "배꽃어린이공원(중화동)",
        "distance": 1286.2953377272445,
        "walking_time": "약 20분"
      }
    ],
    "park": [
      {
        "park_lat": 37.6020055,
        "park_lon": 127.0511145,
        "park_type": "공원",
        "park_name": "청량공원",
        "distance": 1370.262432754152,
        "walking_time": "약 21분"
      },
      {
        "park_lat": 37.627077,
        "park_lon": 127.076482,
        "park_type": "공원",
        "park_name": "경춘선숲길",
        "distance": 2226.30508193158,
        "walking_time": "약 34분"
      }
    ],
    "park_station": [
      {
        "park_station_lat": 37.61544723,
        "park_station_lon": 127.0624695,
        "park_station_type": "주차장",
        "park_station_name": "석계역 공영주차장",
        "distance": 562.3519796122143,
        "walking_time": "약 9분"
      },
      {
        "park_station_lat": 37.61565507,
        "park_station_lon": 127.065157,
        "park_station_type": "주차장",
        "park_station_name": "석계역 앞",
        "distance": 630.0382762327946,
        "walking_time": "약 10분"
      },
      {
        "park_station_lat": 37.60939144,
        "park_station_lon": 127.0532211,
        "park_station_type": "주차장",
        "park_station_name": "벤처빌딩",
        "distance": 826.0787376945376,
        "walking_time": "약 13분"
      },
      {
        "park_station_lat": 37.61714571,
        "park_station_lon": 127.0532218,
        "park_station_type": "주차장",
        "park_station_name": "마을공원",
        "distance": 1110.949598400711,
        "walking_time": "약 17분"
      },
      {
        "park_station_lat": 37.60181112,
        "park_station_lon": 127.0742841,
        "park_station_type": "주차장",
        "park_station_name": "중화2동 66구간A",
        "distance": 1408.9089126038216,
        "walking_time": "약 22분"
      },
      {
        "park_station_lat": 37.60536534,
        "park_station_lon": 127.0772429,
        "park_station_type": "주차장",
        "park_station_name": "묵중안공영주차장",
        "distance": 1412.643389128359,
        "walking_time": "약 22분"
      },
      {
        "park_station_lat": 37.60002795,
        "park_station_lon": 127.0735968,
        "park_station_type": "주차장",
        "park_station_name": "중화2동 66구간B",
        "distance": 1510.2199830565062,
        "walking_time": "약 23분"
      },
      {
        "park_station_lat": 37.61909794,
        "park_station_lon": 127.0775052,
        "park_station_type": "주차장",
        "park_station_name": "북부지법주변",
        "distance": 1637.4157250742253,
        "walking_time": "약 25분"
      }
    ],
    "pc_room": [
      {
        "pc_room_lat": 37.6108596433653,
        "pc_room_lon": 127.063017363252,
        "pc_room_type": "PC방",
        "pc_room_name": "제로백PC 석관점",
        "distance": 68.50622531813546,
        "walking_time": "약 2분"
      },
      {
        "pc_room_lat": 37.6116527837593,
        "pc_room_lon": 127.062168367532,
        "pc_room_type": "PC방",
        "pc_room_name": "대박 PC (성인PC방)",
        "distance": 143.67785197221866,
        "walking_time": "약 3분"
      },
      {
        "pc_room_lat": 37.6084712856503,
        "pc_room_lon": 127.059756135022,
        "pc_room_type": "PC방",
        "pc_room_name": "ㅋㅋPC - 54대",
        "distance": 323.3192282631588,
        "walking_time": "약 5분"
      },
      {
        "pc_room_lat": 37.6140180080303,
        "pc_room_lon": 127.063282003508,
        "pc_room_type": "PC방",
        "pc_room_name": "석계PC",
        "distance": 409.0487943662213,
        "walking_time": "약 7분"
      },
      {
        "pc_room_lat": 37.6145985647647,
        "pc_room_lon": 127.063357022491,
        "pc_room_type": "PC방",
        "pc_room_name": "궁전 PC",
        "distance": 473.8258637695714,
        "walking_time": "약 8분"
      },
      {
        "pc_room_lat": 37.6108915787201,
        "pc_room_lon": 127.056534088948,
        "pc_room_type": "PC방",
        "pc_room_name": "레벨업PC방 돌곶이점",
        "distance": 529.6908207635504,
        "walking_time": "약 8분"
      },
      {
        "pc_room_lat": 37.6156145903995,
        "pc_room_lon": 127.063392316941,
        "pc_room_type": "PC방",
        "pc_room_name": "명신PC",
        "distance": 586.0766613377398,
        "walking_time": "약 9분"
      },
      {
        "pc_room_lat": 37.6116381504355,
        "pc_room_lon": 127.075655849144,
        "pc_room_type": "PC방",
        "pc_room_name": "PC 생각",
        "distance": 1165.8970570927374,
        "walking_time": "약 18분"
      },
      {
        "pc_room_lat": 37.611531011094,
        "pc_room_lon": 127.075674201707,
        "pc_room_type": "PC방",
        "pc_room_name": "프로게이머 묵동점",
        "distance": 1166.1467871074767,
        "walking_time": "약 18분"
      },
      {
        "pc_room_lat": 37.6112275997961,
        "pc_room_lon": 127.075749550488,
        "pc_room_type": "PC방",
        "pc_room_name": "올나잇PC",
        "distance": 1169.5781715691062,
        "walking_time": "약 18분"
      }
    ],
    "police_office": [
      {
        "police_office_lat": 37.60895875,
        "police_office_lon": 127.0552686,
        "police_office_type": "경찰소",
        "police_office_name": "석관파출소",
        "distance": 657.7697733989813,
        "walking_time": "약 10분"
      },
      {
        "police_office_lat": 37.61945666,
        "police_office_lon": 127.0538037,
        "police_office_type": "경찰소",
        "police_office_name": "장위지구대",
        "distance": 1266.891033116405,
        "walking_time": "약 19분"
      },
      {
        "police_office_lat": 37.62256817,
        "police_office_lon": 127.0745978,
        "police_office_type": "경찰소",
        "police_office_name": "화랑지구대",
        "distance": 1722.3595071534282,
        "walking_time": "약 26분"
      }
    ],
    "post_office": [
      {
        "post_office_lat": 37.61165278,
        "post_office_lon": 127.0621684,
        "post_office_type": "우체국",
        "post_office_name": "서울석관1동우편취급국",
        "distance": 143.67683745249218,
        "walking_time": "약 3분"
      },
      {
        "post_office_lat": 37.60876795,
        "post_office_lon": 127.0524242,
        "post_office_type": "우체국",
        "post_office_name": "서울석관동우체국",
        "distance": 906.8989651469512,
        "walking_time": "약 14분"
      },
      {
        "post_office_lat": 37.61937913,
        "post_office_lon": 127.0582634,
        "post_office_type": "우체국",
        "post_office_name": "광운대학교우편취급국",
        "distance": 1067.3633729238115,
        "walking_time": "약 16분"
      },
      {
        "post_office_lat": 37.62090624,
        "post_office_lon": 127.0690603,
        "post_office_type": "우체국",
        "post_office_name": "서울월계3동우체국",
        "distance": 1303.7833974267282,
        "walking_time": "약 20분"
      },
      {
        "post_office_lat": 37.61036795,
        "post_office_lon": 127.0774411,
        "post_office_type": "우체국",
        "post_office_name": "서울묵동우체국",
        "distance": 1314.875254258916,
        "walking_time": "약 20분"
      },
      {
        "post_office_lat": 37.61846246,
        "post_office_lon": 127.0757204,
        "post_office_type": "우체국",
        "post_office_name": "서울공릉동우체국",
        "distance": 1469.299779832798,
        "walking_time": "약 22분"
      },
      {
        "post_office_lat": 37.62849997,
        "post_office_lon": 127.0559178,
        "post_office_type": "우체국",
        "post_office_name": "서울월계2동우체국",
        "distance": 2095.8661699407457,
        "walking_time": "약 32분"
      },
      {
        "post_office_lat": 37.62499145,
        "post_office_lon": 127.0799903,
        "post_office_type": "우체국",
        "post_office_name": "서울공릉2동우편취급국",
        "distance": 2237.287644435601,
        "walking_time": "약 34분"
      }
    ],
    "public_health_center": [
      {
        "public_health_center_lat": 37.61047326,
        "public_health_center_lon": 127.0634208,
        "public_health_center_type": "보건소",
        "public_health_center_name": "장위석관보건지소",
        "distance": 80.41133699474075,
        "walking_time": "약 2분"
      }
    ],
    "school": [
      {
        "school_lat": 37.6110220564376,
        "school_lon": 127.058355255147,
        "school_type": "초등학교",
        "school_name": "서울석관초등학교",
        "distance": 373.0078116372998,
        "walking_time": "약 6분"
      },
      {
        "school_lat": 37.6095892871169,
        "school_lon": 127.066717588798,
        "school_type": "고등학교",
        "school_name": "석관고등학교",
        "distance": 380.8345122122121,
        "walking_time": "약 6분"
      },
      {
        "school_lat": 37.6081401384291,
        "school_lon": 127.066713123271,
        "school_type": "중학교",
        "school_name": "석관중학교",
        "distance": 446.5487668899757,
        "walking_time": "약 7분"
      },
      {
        "school_lat": 37.6088136847633,
        "school_lon": 127.069732061242,
        "school_type": "초등학교",
        "school_name": "서울석계초등학교",
        "distance": 659.536338976135,
        "walking_time": "약 10분"
      },
      {
        "school_lat": 37.6018964867149,
        "school_lon": 127.064885003959,
        "school_type": "초등학교",
        "school_name": "서울이문초등학교",
        "distance": 967.2554494327508,
        "walking_time": "약 15분"
      },
      {
        "school_lat": 37.618602019203,
        "school_lon": 127.057730270535,
        "school_type": "초등학교",
        "school_name": "서울선곡초등학교",
        "distance": 1005.66276505757,
        "walking_time": "약 16분"
      },
      {
        "school_lat": 37.609044756978,
        "school_lon": 127.073928695922,
        "school_type": "초등학교",
        "school_name": "서울묵현초등학교",
        "distance": 1016.5530133599332,
        "walking_time": "약 16분"
      },
      {
        "school_lat": 37.6185360086599,
        "school_lon": 127.055981121102,
        "school_type": "중학교",
        "school_name": "남대문중학교",
        "distance": 1073.1163970165117,
        "walking_time": "약 17분"
      },
      {
        "school_lat": 37.6114425067997,
        "school_lon": 127.050006419755,
        "school_type": "초등학교",
        "school_name": "서울장위초등학교",
        "distance": 1107.937039351482,
        "walking_time": "약 17분"
      },
      {
        "school_lat": 37.6192431974844,
        "school_lon": 127.056540751938,
        "school_type": "고등학교",
        "school_name": "광운인공지능고등학교",
        "distance": 1116.2062415621635,
        "walking_time": "약 17분"
      }
    ],
    "self_laundromat": [
      {
        "self_laundromat_lat": 37.61101318,
        "self_laundromat_lon": 127.0619897,
        "self_laundromat_type": "셀프 빨래방",
        "self_laundromat_name": "워시콥셀프빨래방석관동얼음왕국",
        "distance": 83.27443807029299,
        "walking_time": "약 2분"
      },
      {
        "self_laundromat_lat": 37.61101318,
        "self_laundromat_lon": 127.0619897,
        "self_laundromat_type": "셀프 빨래방",
        "self_laundromat_name": "워시콥셀프빨래방석관동얼음왕국",
        "distance": 83.27443807029299,
        "walking_time": "약 2분"
      },
      {
        "self_laundromat_lat": 37.60922779,
        "self_laundromat_lon": 127.0563821,
        "self_laundromat_type": "셀프 빨래방",
        "self_laundromat_name": "런드리데이",
        "distance": 555.3851275216815,
        "walking_time": "약 9분"
      },
      {
        "self_laundromat_lat": 37.60922779,
        "self_laundromat_lon": 127.0563821,
        "self_laundromat_type": "셀프 빨래방",
        "self_laundromat_name": "빨래하는날",
        "distance": 555.3851275216815,
        "walking_time": "약 9분"
      },
      {
        "self_laundromat_lat": 37.60922779,
        "self_laundromat_lon": 127.0563821,
        "self_laundromat_type": "셀프 빨래방",
        "self_laundromat_name": "런드리데이",
        "distance": 555.3851275216815,
        "walking_time": "약 9분"
      },
      {
        "self_laundromat_lat": 37.60922779,
        "self_laundromat_lon": 127.0563821,
        "self_laundromat_type": "셀프 빨래방",
        "self_laundromat_name": "빨래하는날",
        "distance": 555.3851275216815,
        "walking_time": "약 9분"
      },
      {
        "self_laundromat_lat": 37.60719853,
        "self_laundromat_lon": 127.051166,
        "self_laundromat_type": "셀프 빨래방",
        "self_laundromat_name": "워시테리아 석관점",
        "distance": 1060.7477557943057,
        "walking_time": "약 16분"
      },
      {
        "self_laundromat_lat": 37.60719853,
        "self_laundromat_lon": 127.051166,
        "self_laundromat_type": "셀프 빨래방",
        "self_laundromat_name": "워시테리아 석관점",
        "distance": 1060.7477557943057,
        "walking_time": "약 16분"
      },
      {
        "self_laundromat_lat": 37.60867579,
        "self_laundromat_lon": 127.0762107,
        "self_laundromat_type": "셀프 빨래방",
        "self_laundromat_name": "24시셀프빨래방 묵동점",
        "distance": 1221.4695240561475,
        "walking_time": "약 19분"
      },
      {
        "self_laundromat_lat": 37.60867579,
        "self_laundromat_lon": 127.0762107,
        "self_laundromat_type": "셀프 빨래방",
        "self_laundromat_name": "24시셀프빨래방 묵동점",
        "distance": 1221.4695240561475,
        "walking_time": "약 19분"
      }
    ],
    "subway": [
      {
        "subway_lat": 37.610550696559,
        "subway_lon": 127.056425217652,
        "subway_type": "지하철",
        "subway_name": "6호선-돌곶이역",
        "distance": 536.635207145649,
        "walking_time": "약 9분"
      },
      {
        "subway_lat": 37.6150480846952,
        "subway_lon": 127.066118430844,
        "subway_type": "지하철",
        "subway_name": "6호선-석계역",
        "distance": 607.5181496831652,
        "walking_time": "약 10분"
      },
      {
        "subway_lat": 37.6106250591244,
        "subway_lon": 127.077764798784,
        "subway_type": "지하철",
        "subway_name": "7호선-먹골역",
        "distance": 1343.6383187183296,
        "walking_time": "약 21분"
      },
      {
        "subway_lat": 37.6185137762138,
        "subway_lon": 127.075368429731,
        "subway_type": "지하철",
        "subway_name": "6호선-태릉입구역",
        "distance": 1448.431137941441,
        "walking_time": "약 22분"
      },
      {
        "subway_lat": 37.6185137762138,
        "subway_lon": 127.075368429731,
        "subway_type": "지하철",
        "subway_name": "7호선-태릉입구역",
        "distance": 1448.431137941441,
        "walking_time": "약 22분"
      },
      {
        "subway_lat": 37.6015796992834,
        "subway_lon": 127.079469204905,
        "subway_type": "지하철",
        "subway_name": "7호선-중화역",
        "distance": 1786.226291868902,
        "walking_time": "약 27분"
      },
      {
        "subway_lat": 37.6254769202851,
        "subway_lon": 127.073005201049,
        "subway_type": "지하철",
        "subway_name": "7호선-공릉(서울과학기술대)역",
        "distance": 1915.241374993276,
        "walking_time": "약 29분"
      }
    ],
    "supermarket": [
      {
        "supermarket_lat": 37.60972998,
        "supermarket_lon": 127.0620067,
        "supermarket_type": "마트",
        "supermarket_name": "석관황금시장",
        "distance": 85.92492244252692,
        "walking_time": "약 2분"
      },
      {
        "supermarket_lat": 37.60896519,
        "supermarket_lon": 127.0603166,
        "supermarket_type": "마트",
        "supermarket_name": "석관시장",
        "distance": 250.13413830540543,
        "walking_time": "약 4분"
      },
      {
        "supermarket_lat": 37.61872537,
        "supermarket_lon": 127.0670846,
        "supermarket_type": "마트",
        "supermarket_name": "(주)지에스리테일 GS슈퍼 노원월계점",
        "distance": 1010.508226112124,
        "walking_time": "약 16분"
      },
      {
        "supermarket_lat": 37.61059555,
        "supermarket_lon": 127.0509154,
        "supermarket_type": "마트",
        "supermarket_name": "장위전통시장",
        "distance": 1021.9317922096004,
        "walking_time": "약 16분"
      },
      {
        "supermarket_lat": 37.61383489,
        "supermarket_lon": 127.077545,
        "supermarket_type": "마트",
        "supermarket_name": "주식회사 이마트 묵동점",
        "distance": 1378.292938591824,
        "walking_time": "약 21분"
      },
      {
        "supermarket_lat": 37.62195341,
        "supermarket_lon": 127.0753261,
        "supermarket_type": "마트",
        "supermarket_name": "공릉종합상가",
        "distance": 1710.7703692491702,
        "walking_time": "약 26분"
      },
      {
        "supermarket_lat": 37.62650936,
        "supermarket_lon": 127.0619798,
        "supermarket_type": "마트",
        "supermarket_name": "이마트타운 월계점",
        "distance": 1793.0084897426125,
        "walking_time": "약 27분"
      },
      {
        "supermarket_lat": 37.62262021,
        "supermarket_lon": 127.0794891,
        "supermarket_type": "마트",
        "supermarket_name": "롯데쇼핑(주) 롯데슈퍼공릉점",
        "distance": 2021.1146800241768,
        "walking_time": "약 31분"
      },
      {
        "supermarket_lat": 37.62825426,
        "supermarket_lon": 127.0710099,
        "supermarket_type": "마트",
        "supermarket_name": "홈플러스(주)익스프레스 공릉점",
        "distance": 2122.680232500351,
        "walking_time": "약 32분"
      }
    ],
    "theater": [
      {
        "theater_lat": 37.6151499459916,
        "theater_lon": 127.076057076024,
        "theater_type": "영화관",
        "theater_name": "롯데시네마 중랑관",
        "distance": 1305.06702619614,
        "walking_time": "약 20분"
      }
    ],
    "university": [
      {
        "university_lat": 37.6129860183722,
        "university_lon": 127.0614007785,
        "university_type": "대학교",
        "university_name": "한국예술종합학교",
        "distance": 304.86437240128845,
        "walking_time": "약 5분"
      },
      {
        "university_lat": 37.6197033224113,
        "university_lon": 127.059670655809,
        "university_type": "대학교",
        "university_name": "광운대학교",
        "distance": 1065.4470984618035,
        "walking_time": "약 16분"
      }
    ]
  }
}