{
  "클러스터_위도": 37.47701699999998,
  "클러스터_경도": 126.940216,
  "클러스터_level": 4.0,
  "facilities": {
    "bus": [
      {
        "bus_lat": 37.47853539,
        "bus_lon": 126.9403975,
        "bus_type": "버스정류장",
        "bus_name": "쑥고개",
        "distance": 169.59521873430734,
        "walking_time": "약 3분"
      },
      {
        "bus_lat": 37.47862692,
        "bus_lon": 126.9401212,
        "bus_type": "버스정류장",
        "bus_name": "쑥고개",
        "distance": 179.21029000811336,
        "walking_time": "약 3분"
      },
      {
        "bus_lat": 37.47483346,
        "bus_lon": 126.9404393,
        "bus_type": "버스정류장",
        "bus_name": "제일성도교회",
        "distance": 243.59687930573176,
        "walking_time": "약 4분"
      },
      {
        "bus_lat": 37.47619171,
        "bus_lon": 126.9374951,
        "bus_type": "버스정류장",
        "bus_name": "쑥고개입구",
        "distance": 257.0438253280223,
        "walking_time": "약 4분"
      },
      {
        "bus_lat": 37.47465776,
        "bus_lon": 126.940479,
        "bus_type": "버스정류장",
        "bus_name": "제일성도교회",
        "distance": 263.36013515926146,
        "walking_time": "약 4분"
      },
      {
        "bus_lat": 37.47510398,
        "bus_lon": 126.9420666,
        "bus_type": "버스정류장",
        "bus_name": "삼양슈퍼",
        "distance": 268.1753113205602,
        "walking_time": "약 5분"
      },
      {
        "bus_lat": 37.47493431,
        "bus_lon": 126.9421136,
        "bus_type": "버스정류장",
        "bus_name": "삼양슈퍼",
        "distance": 285.78367454440865,
        "walking_time": "약 5분"
      },
      {
        "bus_lat": 37.47493912,
        "bus_lon": 126.9380335,
        "bus_type": "버스정류장",
        "bus_name": "동작마트",
        "distance": 300.7937743063067,
        "walking_time": "약 5분"
      },
      {
        "bus_lat": 37.477526,
        "bus_lon": 126.93678,
        "bus_type": "버스정류장",
        "bus_name": "신림2교",
        "distance": 308.44265097330646,
        "walking_time": "약 5분"
      },
      {
        "bus_lat": 37.47502927,
        "bus_lon": 126.9428078,
        "bus_type": "버스정류장",
        "bus_name": "금성마트용천사",
        "distance": 318.0602198220238,
        "walking_time": "약 5분"
      }
    ],
    "community_center": [
      {
        "community_center_lat": 37.4791175,
        "community_center_lon": 126.9416407,
        "community_center_type": "주민센터",
        "community_center_name": "청룡동 자치회관",
        "distance": 265.25076775146994,
        "walking_time": "약 4분"
      },
      {
        "community_center_lat": 37.47499588,
        "community_center_lon": 126.9349996,
        "community_center_type": "주민센터",
        "community_center_name": "서림동 자치회관",
        "distance": 512.2537552982021,
        "walking_time": "약 8분"
      },
      {
        "community_center_lat": 37.47059604,
        "community_center_lon": 126.9369573,
        "community_center_type": "주민센터",
        "community_center_name": "대학동 자치회관",
        "distance": 769.7162677854401,
        "walking_time": "약 12분"
      },
      {
        "community_center_lat": 37.47976918,
        "community_center_lon": 126.9313747,
        "community_center_type": "주민센터",
        "community_center_name": "서원동 자치회관",
        "distance": 838.0514416442725,
        "walking_time": "약 13분"
      },
      {
        "community_center_lat": 37.48533865,
        "community_center_lon": 126.9424717,
        "community_center_type": "주민센터",
        "community_center_name": "은천동 자치회관",
        "distance": 946.4904294118014,
        "walking_time": "약 15분"
      },
      {
        "community_center_lat": 37.48419282,
        "community_center_lon": 126.9497511,
        "community_center_type": "주민센터",
        "community_center_name": "중앙동 자치회관",
        "distance": 1159.5602703532595,
        "walking_time": "약 18분"
      },
      {
        "community_center_lat": 37.48817585,
        "community_center_lon": 126.932778,
        "community_center_type": "주민센터",
        "community_center_name": "보라매동 자치회관",
        "distance": 1403.6901456694866,
        "walking_time": "약 21분"
      },
      {
        "community_center_lat": 37.48064257,
        "community_center_lon": 126.9570309,
        "community_center_type": "주민센터",
        "community_center_name": "행운동 자치회관",
        "distance": 1537.5707346775137,
        "walking_time": "약 23분"
      },
      {
        "community_center_lat": 37.47649632,
        "community_center_lon": 126.9583326,
        "community_center_type": "주민센터",
        "community_center_name": "낙성대동 자치회관",
        "distance": 1599.7350750201774,
        "walking_time": "약 24분"
      },
      {
        "community_center_lat": 37.46411546,
        "community_center_lon": 126.9318251,
        "community_center_type": "주민센터",
        "community_center_name": "삼성동 자치회관",
        "distance": 1614.4325106507242,
        "walking_time": "약 25분"
      }
    ],
    "convenience_store": [
      {
        "convenience_store_lat": 37.47567142,
        "convenience_store_lon": 126.9395255,
        "convenience_store_type": "편의점",
        "convenience_store_name": "CU 서림태양점",
        "distance": 161.55333236219633,
        "walking_time": "약 3분"
      },
      {
        "convenience_store_lat": 37.47764482,
        "convenience_store_lon": 126.9384979,
        "convenience_store_type": "편의점",
        "convenience_store_name": "CU 관악소망점",
        "distance": 166.91167901229255,
        "walking_time": "약 3분"
      },
      {
        "convenience_store_lat": 37.47587261,
        "convenience_store_lon": 126.9386319,
        "convenience_store_type": "편의점",
        "convenience_store_name": "GS25 서원은혜점",
        "distance": 189.03294491829564,
        "walking_time": "약 3분"
      },
      {
        "convenience_store_lat": 37.47738508,
        "convenience_store_lon": 126.9374975,
        "convenience_store_type": "편의점",
        "convenience_store_name": "GS25 서원쑥고개점",
        "distance": 243.35720193691927,
        "walking_time": "약 4분"
      },
      {
        "convenience_store_lat": 37.47452391,
        "convenience_store_lon": 126.939194,
        "convenience_store_type": "편의점",
        "convenience_store_name": "GS25 신림복은점",
        "distance": 291.5201979168383,
        "walking_time": "약 5분"
      },
      {
        "convenience_store_lat": 37.47498755,
        "convenience_store_lon": 126.9429641,
        "convenience_store_type": "편의점",
        "convenience_store_name": "GS25 신림영락점",
        "distance": 331.2611777505604,
        "walking_time": "약 5분"
      },
      {
        "convenience_store_lat": 37.47491436,
        "convenience_store_lon": 126.9375536,
        "convenience_store_type": "편의점",
        "convenience_store_name": "CU 관악형제점",
        "distance": 331.45520994634154,
        "walking_time": "약 5분"
      },
      {
        "convenience_store_lat": 37.47768736,
        "convenience_store_lon": 126.9361305,
        "convenience_store_type": "편의점",
        "convenience_store_name": "CU 신림카페점",
        "distance": 368.1446289674048,
        "walking_time": "약 6분"
      },
      {
        "convenience_store_lat": 37.47982753,
        "convenience_store_lon": 126.9426421,
        "convenience_store_type": "편의점",
        "convenience_store_name": "CU 관악써니점",
        "distance": 378.8125700681153,
        "walking_time": "약 6분"
      },
      {
        "convenience_store_lat": 37.48058116,
        "convenience_store_lon": 126.9394385,
        "convenience_store_type": "편의점",
        "convenience_store_name": "GS25 관악봉림점",
        "distance": 402.2111945321553,
        "walking_time": "약 7분"
      }
    ],
    "daycare": [
      {
        "daycare_lat": 37.47615566,
        "daycare_lon": 126.9392489,
        "daycare_type": "어린이집",
        "daycare_name": "사과나무어린이집",
        "distance": 128.282102458736,
        "walking_time": "약 2분"
      },
      {
        "daycare_lat": 37.47654237,
        "daycare_lon": 126.938711,
        "daycare_type": "어린이집",
        "daycare_name": "청진어린이집",
        "distance": 142.90985997411153,
        "walking_time": "약 3분"
      },
      {
        "daycare_lat": 37.47555922567787,
        "daycare_lon": 126.94019055823316,
        "daycare_type": "어린이집",
        "daycare_name": "아기진주어린이집",
        "distance": 162.11265584035124,
        "walking_time": "약 3분"
      },
      {
        "daycare_lat": 37.475437079198784,
        "daycare_lon": 126.93927082325348,
        "daycare_type": "어린이집",
        "daycare_name": "그린나래어린이집",
        "distance": 194.47342434686905,
        "walking_time": "약 3분"
      },
      {
        "daycare_lat": 37.47875556,
        "daycare_lon": 126.9393062,
        "daycare_type": "어린이집",
        "daycare_name": "구립장군봉어린이집",
        "distance": 209.326756649007,
        "walking_time": "약 4분"
      },
      {
        "daycare_lat": 37.47736001849813,
        "daycare_lon": 126.93781495804652,
        "daycare_type": "어린이집",
        "daycare_name": "딩동댕어린이집",
        "distance": 215.2828530199151,
        "walking_time": "약 4분"
      },
      {
        "daycare_lat": 37.47636957,
        "daycare_lon": 126.94268162236952,
        "daycare_type": "어린이집",
        "daycare_name": "구립e편한2단지어린이집",
        "distance": 229.178094032578,
        "walking_time": "약 4분"
      },
      {
        "daycare_lat": 37.47513846388831,
        "daycare_lon": 126.94201781602236,
        "daycare_type": "어린이집",
        "daycare_name": "해든어린이집",
        "distance": 262.5144996152712,
        "walking_time": "약 4분"
      },
      {
        "daycare_lat": 37.47885648,
        "daycare_lon": 126.9422057,
        "daycare_type": "어린이집",
        "daycare_name": "구립청룡어린이집",
        "distance": 269.5630208247486,
        "walking_time": "약 5분"
      },
      {
        "daycare_lat": 37.47847804,
        "daycare_lon": 126.94291743202088,
        "daycare_type": "어린이집",
        "daycare_name": "구립e편한1단지어린이집",
        "distance": 288.47828498985405,
        "walking_time": "약 5분"
      }
    ],
    "education": [
      {
        "education_lat": 37.46755336,
        "education_lon": 126.9449624,
        "education_type": "도서관",
        "education_name": "관악중앙도서관",
        "distance": 1132.6093909039184,
        "walking_time": "약 17분"
      },
      {
        "education_lat": 37.46755336,
        "education_lon": 126.9449624,
        "education_type": "문화예술회관",
        "education_name": "관악아트홀",
        "distance": 1132.6093909039184,
        "walking_time": "약 17분"
      },
      {
        "education_lat": 37.46628727,
        "education_lon": 126.9481564,
        "education_type": "미술관/갤러리",
        "education_name": "서울대학교 미술관",
        "distance": 1383.6575611960118,
        "walking_time": "약 21분"
      },
      {
        "education_lat": 37.46628727,
        "education_lon": 126.9481564,
        "education_type": "박물관/기념관",
        "education_name": "서울대학교박물관",
        "distance": 1383.6575611960118,
        "walking_time": "약 21분"
      },
      {
        "education_lat": 37.47197208,
        "education_lon": 126.959371,
        "education_type": "도서관",
        "education_name": "낙성대공원도서관",
        "distance": 1781.0225315194991,
        "walking_time": "약 27분"
      },
      {
        "education_lat": 37.48624318,
        "education_lon": 126.9596703,
        "education_type": "도서관",
        "education_name": "글빛정보도서관",
        "distance": 1999.81558441996,
        "walking_time": "약 30분"
      }
    ],
    "fitness": [
      {
        "fitness_lat": 37.4756288,
        "fitness_lon": 126.9374469,
        "fitness_type": "운동시설",
        "fitness_name": "월드짐 휘트니스",
        "distance": 289.03020812040245,
        "walking_time": "약 5분"
      },
      {
        "fitness_lat": 37.47510818,
        "fitness_lon": 126.9377416,
        "fitness_type": "운동시설",
        "fitness_name": "동방헬스장",
        "distance": 304.5142022503947,
        "walking_time": "약 5분"
      },
      {
        "fitness_lat": 37.47947399,
        "fitness_lon": 126.942303,
        "fitness_type": "운동시설",
        "fitness_name": "온핸드짐",
        "distance": 329.47928724700915,
        "walking_time": "약 5분"
      },
      {
        "fitness_lat": 37.47505843,
        "fitness_lon": 126.93688,
        "fitness_type": "운동시설",
        "fitness_name": "짐박스피트니스 신림4호점",
        "distance": 366.1864327911667,
        "walking_time": "약 6분"
      },
      {
        "fitness_lat": 37.47966365,
        "fitness_lon": 126.9449325,
        "fitness_type": "운동시설",
        "fitness_name": "운동하는날 서울대봉천점",
        "distance": 509.7329643649941,
        "walking_time": "약 8분"
      },
      {
        "fitness_lat": 37.48175846,
        "fitness_lon": 126.9427794,
        "fitness_type": "운동시설",
        "fitness_name": "천샘PT",
        "distance": 573.7010443782676,
        "walking_time": "약 9분"
      },
      {
        "fitness_lat": 37.48198569,
        "fitness_lon": 126.9427729,
        "fitness_type": "운동시설",
        "fitness_name": "더 스페셜 짐",
        "distance": 596.7869492679484,
        "walking_time": "약 9분"
      },
      {
        "fitness_lat": 37.48255359,
        "fitness_lon": 126.9427597,
        "fitness_type": "운동시설",
        "fitness_name": "휘트니스 에일린 2호점",
        "distance": 655.2822894890824,
        "walking_time": "약 10분"
      },
      {
        "fitness_lat": 37.47781303,
        "fitness_lon": 126.932525,
        "fitness_type": "운동시설",
        "fitness_name": "라이프짐 서원역점",
        "distance": 684.4288344661461,
        "walking_time": "약 11분"
      },
      {
        "fitness_lat": 37.47930422,
        "fitness_lon": 126.9474845,
        "fitness_type": "운동시설",
        "fitness_name": "GYM PRIVATE",
        "distance": 689.9752026755148,
        "walking_time": "약 11분"
      }
    ],
    "gas_station": [
      {
        "gas_station_lat": 37.4737677,
        "gas_station_lon": 126.9348256,
        "gas_station_type": "주유소",
        "gas_station_name": "유림주유소",
        "distance": 597.3391629624784,
        "walking_time": "약 9분"
      },
      {
        "gas_station_lat": 37.48233196,
        "gas_station_lon": 126.9450663,
        "gas_station_type": "주유소",
        "gas_station_name": "시몬주유소",
        "distance": 729.6961281080285,
        "walking_time": "약 11분"
      },
      {
        "gas_station_lat": 37.48041974,
        "gas_station_lon": 126.9306687,
        "gas_station_type": "주유소",
        "gas_station_name": "신관주유소",
        "distance": 923.5380101230282,
        "walking_time": "약 14분"
      },
      {
        "gas_station_lat": 37.4787977,
        "gas_station_lon": 126.9583966,
        "gas_station_type": "주유소",
        "gas_station_name": "SK에너지㈜ 신봉천주유소",
        "distance": 1616.482722394863,
        "walking_time": "약 25분"
      },
      {
        "gas_station_lat": 37.47909674,
        "gas_station_lon": 126.9591692,
        "gas_station_type": "주유소",
        "gas_station_name": "행운주유소",
        "distance": 1688.3955198016588,
        "walking_time": "약 26분"
      }
    ],
    "hospital": [
      {
        "hospital_lat": 37.47592919,
        "hospital_lon": 126.9375914,
        "hospital_type": "병원",
        "hospital_name": "수한의원",
        "distance": 261.2907075550111,
        "walking_time": "약 4분"
      },
      {
        "hospital_lat": 37.4756288,
        "hospital_lon": 126.9374469,
        "hospital_type": "병원",
        "hospital_name": "관악정다운의료복지사회적협동조합정다운우리의원",
        "distance": 289.03020812040245,
        "walking_time": "약 5분"
      },
      {
        "hospital_lat": 37.47542066,
        "hospital_lon": 126.9372609,
        "hospital_type": "병원",
        "hospital_name": "도경치과의원",
        "distance": 315.4526525592442,
        "walking_time": "약 5분"
      },
      {
        "hospital_lat": 37.47531838,
        "hospital_lon": 126.9370638,
        "hospital_type": "병원",
        "hospital_name": "김한의원",
        "distance": 336.23081266117754,
        "walking_time": "약 6분"
      },
      {
        "hospital_lat": 37.479746,
        "hospital_lon": 126.9419227,
        "hospital_type": "병원",
        "hospital_name": "장한의원",
        "distance": 338.7681178830187,
        "walking_time": "약 6분"
      },
      {
        "hospital_lat": 37.479516,
        "hospital_lon": 126.9425342,
        "hospital_type": "병원",
        "hospital_name": "관악서울치과의원",
        "distance": 345.0529049977558,
        "walking_time": "약 6분"
      },
      {
        "hospital_lat": 37.4797987,
        "hospital_lon": 126.9422831,
        "hospital_type": "병원",
        "hospital_name": "관악성모의원",
        "distance": 359.089301890511,
        "walking_time": "약 6분"
      },
      {
        "hospital_lat": 37.47973998,
        "hospital_lon": 126.9430749,
        "hospital_type": "병원",
        "hospital_name": "서울의원",
        "distance": 394.10653410304633,
        "walking_time": "약 6분"
      },
      {
        "hospital_lat": 37.47938562,
        "hospital_lon": 126.9438454,
        "hospital_type": "병원",
        "hospital_name": "손소아과의원",
        "distance": 414.6560929560246,
        "walking_time": "약 7분"
      },
      {
        "hospital_lat": 37.47936037,
        "hospital_lon": 126.9441715,
        "hospital_type": "병원",
        "hospital_name": "더나은가정의학과의원",
        "distance": 435.5785664285652,
        "walking_time": "약 7분"
      }
    ],
    "music_room": [
      {
        "music_room_lat": 37.47739869,
        "music_room_lon": 126.9376734,
        "music_room_type": "노래방",
        "music_room_name": "카멜레온",
        "distance": 228.34757482301987,
        "walking_time": "약 4분"
      },
      {
        "music_room_lat": 37.47676406,
        "music_room_lon": 126.9375925,
        "music_room_type": "노래방",
        "music_room_name": "오디션노래연습장",
        "distance": 233.21077229359747,
        "walking_time": "약 4분"
      },
      {
        "music_room_lat": 37.47632903,
        "music_room_lon": 126.9375467,
        "music_room_type": "노래방",
        "music_room_name": "와썸 코인노래연습장 신림점",
        "distance": 247.6615716836964,
        "walking_time": "약 4분"
      },
      {
        "music_room_lat": 37.4756288,
        "music_room_lon": 126.9374469,
        "music_room_type": "노래방",
        "music_room_name": "찬찬찬",
        "distance": 289.03020812040245,
        "walking_time": "약 5분"
      },
      {
        "music_room_lat": 37.47943773,
        "music_room_lon": 126.9433308,
        "music_room_type": "노래방",
        "music_room_name": "둘리",
        "distance": 384.7089368819092,
        "walking_time": "약 6분"
      },
      {
        "music_room_lat": 37.47948752,
        "music_room_lon": 126.9457558,
        "music_room_type": "노래방",
        "music_room_name": "짝노래연습장",
        "distance": 560.7456661570012,
        "walking_time": "약 9분"
      },
      {
        "music_room_lat": 37.48208252,
        "music_room_lon": 126.9417972,
        "music_room_type": "노래방",
        "music_room_name": "한마음",
        "distance": 580.2841278759164,
        "walking_time": "약 9분"
      },
      {
        "music_room_lat": 37.48229543,
        "music_room_lon": 126.9403552,
        "music_room_type": "노래방",
        "music_room_name": "신세대노래연습장",
        "distance": 587.0631508180138,
        "walking_time": "약 9분"
      },
      {
        "music_room_lat": 37.48206617,
        "music_room_lon": 126.9422508,
        "music_room_type": "노래방",
        "music_room_name": "윙크노래연습장",
        "distance": 589.4543611216674,
        "walking_time": "약 9분"
      },
      {
        "music_room_lat": 37.48198569,
        "music_room_lon": 126.9427729,
        "music_room_type": "노래방",
        "music_room_name": "용가리",
        "distance": 596.7869492679484,
        "walking_time": "약 9분"
      }
    ],
    "park": [
      {
        "park_lat": 37.4642128,
        "park_lon": 126.938511,
        "park_type": "공원",
        "park_name": "샘말공원(관악산근린공원 샘말지구)",
        "distance": 1431.691083343892,
        "walking_time": "약 22분"
      }
    ],
    "park_station": [
      {
        "park_station_lat": 37.4686768,
        "park_station_lon": 126.9309993,
        "park_station_type": "주차장",
        "park_station_name": "삼성동제1공영",
        "distance": 1233.5352898796195,
        "walking_time": "약 19분"
      },
      {
        "park_station_lat": 37.48685341,
        "park_station_lon": 126.9331906,
        "park_station_type": "주차장",
        "park_station_name": "봉천복개3 공영주차장",
        "distance": 1257.2172750398904,
        "walking_time": "약 19분"
      },
      {
        "park_station_lat": 37.46791386,
        "park_station_lon": 126.9307427,
        "park_station_type": "주차장",
        "park_station_name": "삼성동제1공영",
        "distance": 1312.8263242853027,
        "walking_time": "약 20분"
      },
      {
        "park_station_lat": 37.47785677,
        "park_station_lon": 126.9588859,
        "park_station_type": "주차장",
        "park_station_name": "낙성대제1공영",
        "distance": 1650.141783899281,
        "walking_time": "약 25분"
      },
      {
        "park_station_lat": 37.47480251,
        "park_station_lon": 126.9598846,
        "park_station_type": "주차장",
        "park_station_name": "낙성대제2공영",
        "distance": 1753.0420321824652,
        "walking_time": "약 27분"
      }
    ],
    "pc_room": [
      {
        "pc_room_lat": 37.4756288046285,
        "pc_room_lon": 126.937446935701,
        "pc_room_type": "PC방",
        "pc_room_name": "보야르",
        "distance": 289.0272697410974,
        "walking_time": "약 5분"
      },
      {
        "pc_room_lat": 37.4776103633224,
        "pc_room_lon": 126.936542759177,
        "pc_room_type": "PC방",
        "pc_room_name": "신림 PC",
        "distance": 330.7871073790226,
        "walking_time": "약 5분"
      },
      {
        "pc_room_lat": 37.4742646022584,
        "pc_room_lon": 126.937819783753,
        "pc_room_type": "PC방",
        "pc_room_name": "시즌PC방",
        "distance": 371.99693155254727,
        "walking_time": "약 6분"
      },
      {
        "pc_room_lat": 37.4792117658952,
        "pc_room_lon": 126.945267468435,
        "pc_room_type": "PC방",
        "pc_room_name": "Q PC",
        "distance": 508.1895719643694,
        "walking_time": "약 8분"
      },
      {
        "pc_room_lat": 37.4825397376028,
        "pc_room_lon": 126.940613730465,
        "pc_room_type": "PC방",
        "pc_room_name": "3POP PC방",
        "distance": 615.1024599038042,
        "walking_time": "약 10분"
      },
      {
        "pc_room_lat": 37.4793763605135,
        "pc_room_lon": 126.947204153908,
        "pc_room_type": "PC방",
        "pc_room_name": "탑티어 PC방 서울대점",
        "distance": 670.1401967711107,
        "walking_time": "약 11분"
      },
      {
        "pc_room_lat": 37.4709316312582,
        "pc_room_lon": 126.940177514769,
        "pc_room_type": "PC방",
        "pc_room_name": "SKY PC",
        "distance": 676.6706537871684,
        "walking_time": "약 11분"
      },
      {
        "pc_room_lat": 37.4709361714829,
        "pc_room_lon": 126.939362676994,
        "pc_room_type": "PC방",
        "pc_room_name": "인터매니아",
        "distance": 680.3376493518768,
        "walking_time": "약 11분"
      },
      {
        "pc_room_lat": 37.4799546008071,
        "pc_room_lon": 126.947344732144,
        "pc_room_type": "PC방",
        "pc_room_name": "욜로PC방 봉천점",
        "distance": 708.8079499355222,
        "walking_time": "약 11분"
      },
      {
        "pc_room_lat": 37.4815170316646,
        "pc_room_lon": 126.946522694417,
        "pc_room_type": "PC방",
        "pc_room_name": "브라보PC",
        "distance": 748.3886832607686,
        "walking_time": "약 12분"
      }
    ],
    "police_office": [
      {
        "police_office_lat": 37.4738594,
        "police_office_lon": 126.9352631,
        "police_office_type": "경찰소",
        "police_office_name": "관악산지구대",
        "distance": 560.6339350095976,
        "walking_time": "약 9분"
      },
      {
        "police_office_lat": 37.48401647,
        "police_office_lon": 126.9333173,
        "police_office_type": "경찰소",
        "police_office_name": "신림지구대",
        "distance": 988.0913302476404,
        "walking_time": "약 15분"
      },
      {
        "police_office_lat": 37.48600685,
        "police_office_lon": 126.9343644,
        "police_office_type": "경찰소",
        "police_office_name": "당곡지구대",
        "distance": 1125.1026977843203,
        "walking_time": "약 17분"
      },
      {
        "police_office_lat": 37.48735272,
        "police_office_lon": 126.9454289,
        "police_office_type": "경찰소",
        "police_office_name": "구암지구대",
        "distance": 1237.909943276876,
        "walking_time": "약 19분"
      },
      {
        "police_office_lat": 37.47832691,
        "police_office_lon": 126.9575957,
        "police_office_type": "경찰소",
        "police_office_name": "낙성대지구대",
        "distance": 1540.542192833091,
        "walking_time": "약 23분"
      }
    ],
    "post_office": [
      {
        "post_office_lat": 37.48227075,
        "post_office_lon": 126.9412539,
        "post_office_type": "우체국",
        "post_office_name": "서울봉천역전우편취급국",
        "distance": 591.3258124911805,
        "walking_time": "약 9분"
      },
      {
        "post_office_lat": 37.47864491,
        "post_office_lon": 126.947376,
        "post_office_type": "우체국",
        "post_office_name": "서울청룡동우편취급국",
        "distance": 657.2392060395451,
        "walking_time": "약 10분"
      },
      {
        "post_office_lat": 37.48582895,
        "post_office_lon": 126.9416713,
        "post_office_type": "우체국",
        "post_office_name": "서울은천동우체국",
        "distance": 988.2229841208882,
        "walking_time": "약 15분"
      },
      {
        "post_office_lat": 37.48501424,
        "post_office_lon": 126.9331367,
        "post_office_type": "우체국",
        "post_office_name": "서울관악우체국",
        "distance": 1086.731637522832,
        "walking_time": "약 17분"
      },
      {
        "post_office_lat": 37.48084938,
        "post_office_lon": 126.9547091,
        "post_office_type": "우체국",
        "post_office_name": "서울행운동우체국",
        "distance": 1348.025440249569,
        "walking_time": "약 21분"
      },
      {
        "post_office_lat": 37.46628727,
        "post_office_lon": 126.9481564,
        "post_office_type": "우체국",
        "post_office_name": "서울대학교우체국",
        "distance": 1383.6575611960118,
        "walking_time": "약 21분"
      },
      {
        "post_office_lat": 37.46452069,
        "post_office_lon": 126.9317421,
        "post_office_type": "우체국",
        "post_office_name": "서울관악삼성동우편취급국",
        "distance": 1577.9854655226668,
        "walking_time": "약 24분"
      },
      {
        "post_office_lat": 37.48677759,
        "post_office_lon": 126.9567026,
        "post_office_type": "우체국",
        "post_office_name": "서울봉천동우체국",
        "distance": 1815.001619481918,
        "walking_time": "약 28분"
      }
    ],
    "public_health_center": [
      {
        "public_health_center_lat": 37.47821067,
        "public_health_center_lon": 126.9515012,
        "public_health_center_type": "보건소",
        "public_health_center_name": "관악구보건소",
        "distance": 1004.6498344967256,
        "walking_time": "약 15분"
      },
      {
        "public_health_center_lat": 37.48784455,
        "public_health_center_lon": 126.932302,
        "public_health_center_type": "보건소",
        "public_health_center_name": "관악구보건지소",
        "distance": 1391.8264353976963,
        "walking_time": "약 21분"
      }
    ],
    "school": [
      {
        "school_lat": 37.476541242971,
        "school_lon": 126.945416499639,
        "school_type": "고등학교",
        "school_name": "영락고등학교",
        "distance": 461.9535009775119,
        "walking_time": "약 7분"
      },
      {
        "school_lat": 37.476541242971,
        "school_lon": 126.945416499639,
        "school_type": "고등학교",
        "school_name": "영락의료과학고등학교",
        "distance": 461.9535009775119,
        "walking_time": "약 7분"
      },
      {
        "school_lat": 37.4810297131995,
        "school_lon": 126.942570541831,
        "school_type": "초등학교",
        "school_name": "서울관악초등학교",
        "distance": 492.1954013699951,
        "walking_time": "약 8분"
      },
      {
        "school_lat": 37.4811981682395,
        "school_lon": 126.937702673305,
        "school_type": "중학교",
        "school_name": "봉림중학교",
        "distance": 515.1128656342376,
        "walking_time": "약 8분"
      },
      {
        "school_lat": 37.4802012453571,
        "school_lon": 126.934452241482,
        "school_type": "중학교",
        "school_name": "신관중학교",
        "distance": 619.7155323362093,
        "walking_time": "약 10분"
      },
      {
        "school_lat": 37.472003312266,
        "school_lon": 126.936754150323,
        "school_type": "초등학교",
        "school_name": "서울신성초등학교",
        "distance": 635.7132844752416,
        "walking_time": "약 10분"
      },
      {
        "school_lat": 37.4705041702937,
        "school_lon": 126.941940568518,
        "school_type": "고등학교",
        "school_name": "꿈타래학교",
        "distance": 740.0121877689887,
        "walking_time": "약 12분"
      },
      {
        "school_lat": 37.4705041702937,
        "school_lon": 126.941940568518,
        "school_type": "고등학교",
        "school_name": "서울산업정보학교",
        "distance": 740.0121877689887,
        "walking_time": "약 12분"
      },
      {
        "school_lat": 37.4703273364656,
        "school_lon": 126.946003990797,
        "school_type": "중학교",
        "school_name": "신림중학교",
        "distance": 902.3398877823404,
        "walking_time": "약 14분"
      },
      {
        "school_lat": 37.469107701859,
        "school_lon": 126.944010788599,
        "school_type": "고등학교",
        "school_name": "삼성고등학교",
        "distance": 941.0750425276582,
        "walking_time": "약 15분"
      }
    ],
    "subway": [
      {
        "subway_lat": 37.4825562153548,
        "subway_lon": 126.941495272047,
        "subway_type": "지하철",
        "subway_name": "2호선-봉천역",
        "distance": 626.1915053150583,
        "walking_time": "약 10분"
      },
      {
        "subway_lat": 37.4811526631844,
        "subway_lon": 126.952645104944,
        "subway_type": "지하철",
        "subway_name": "2호선-서울대입구(관악구청)역",
        "distance": 1189.2713314616894,
        "walking_time": "약 18분"
      }
    ],
    "supermarket": [
      {
        "supermarket_lat": 37.4755685,
        "supermarket_lon": 126.9328111,
        "supermarket_type": "마트",
        "supermarket_name": "신림현대종합상가",
        "distance": 673.0020929413453,
        "walking_time": "약 11분"
      },
      {
        "supermarket_lat": 37.47933913,
        "supermarket_lon": 126.9490155,
        "supermarket_type": "마트",
        "supermarket_name": "(주)지에스리테일 관악점",
        "distance": 818.2972490814487,
        "walking_time": "약 13분"
      },
      {
        "supermarket_lat": 37.47048117,
        "supermarket_lon": 126.9344768,
        "supermarket_type": "마트",
        "supermarket_name": "일성트루엘상가",
        "distance": 885.822377740835,
        "walking_time": "약 14분"
      },
      {
        "supermarket_lat": 37.48629672,
        "supermarket_lon": 126.9412497,
        "supermarket_type": "마트",
        "supermarket_name": "(주)이마트에브리데이 봉천동점",
        "distance": 1035.881338780993,
        "walking_time": "약 16분"
      },
      {
        "supermarket_lat": 37.48665276,
        "supermarket_lon": 126.9392236,
        "supermarket_type": "마트",
        "supermarket_name": "GS THE FRESH 관악은천점",
        "distance": 1075.0200556849798,
        "walking_time": "약 17분"
      },
      {
        "supermarket_lat": 37.480948,
        "supermarket_lon": 126.9520838,
        "supermarket_type": "마트",
        "supermarket_name": "라붐아울렛",
        "distance": 1134.7966165715072,
        "walking_time": "약 17분"
      },
      {
        "supermarket_lat": 37.48385134,
        "supermarket_lon": 126.9302345,
        "supermarket_type": "마트",
        "supermarket_name": "타임스트림",
        "distance": 1163.299562707824,
        "walking_time": "약 18분"
      },
      {
        "supermarket_lat": 37.48615809,
        "supermarket_lon": 126.9472386,
        "supermarket_type": "마트",
        "supermarket_name": "홈플러스 익스프레스 봉천점",
        "distance": 1190.4369442356078,
        "walking_time": "약 18분"
      },
      {
        "supermarket_lat": 37.48658496,
        "supermarket_lon": 126.9465719,
        "supermarket_type": "마트",
        "supermarket_name": "봉천현대시장",
        "distance": 1202.6789020562796,
        "walking_time": "약 18분"
      },
      {
        "supermarket_lat": 37.48476254,
        "supermarket_lon": 126.9300965,
        "supermarket_type": "마트",
        "supermarket_name": "르네상스쇼핑몰(주)",
        "distance": 1240.6115560290043,
        "walking_time": "약 19분"
      }
    ],
    "theater": [
      {
        "theater_lat": 37.4809479979455,
        "theater_lon": 126.952083773717,
        "theater_type": "영화관",
        "theater_name": "롯데시네마 서울대입구",
        "distance": 1134.7943882901436,
        "walking_time": "약 17분"
      },
      {
        "theater_lat": 37.4838513393186,
        "theater_lon": 126.930234545397,
        "theater_type": "영화관",
        "theater_name": "롯데시네마 신림",
        "distance": 1163.2964802883482,
        "walking_time": "약 18분"
      }
    ],
    "university": [
      {
        "university_lat": 37.4662872666604,
        "university_lon": 126.94815644252,
        "university_type": "대학교",
        "university_name": "서울대학교",
        "distance": 1383.6597817881666,
        "walking_time": "약 21분"
      }
    ]
  }
}