{
  "클러스터_위도": 37.610194500619045,
  "클러스터_경도": 127.00852950088122,
  "클러스터_level": 4.0,
  "facilities": {
    "bus": [
      {
        "bus_lat": 37.61089558,
        "bus_lon": 127.0090747,
        "bus_type": "버스정류장",
        "bus_name": "성북청수도서관.정릉4동성당",
        "distance": 91.5617849076516,
        "walking_time": "약 2분"
      },
      {
        "bus_lat": 37.60961673,
        "bus_lon": 127.0073695,
        "bus_type": "버스정류장",
        "bus_name": "정든마을",
        "distance": 120.6994755914918,
        "walking_time": "약 2분"
      },
      {
        "bus_lat": 37.60945863,
        "bus_lon": 127.0073021,
        "bus_type": "버스정류장",
        "bus_name": "정든마을",
        "distance": 135.5907298063734,
        "walking_time": "약 3분"
      },
      {
        "bus_lat": 37.6113038,
        "bus_lon": 127.0091703,
        "bus_type": "버스정류장",
        "bus_name": "KEB하나은행.오렌지마트",
        "distance": 135.64999039123654,
        "walking_time": "약 3분"
      },
      {
        "bus_lat": 37.61136145,
        "bus_lon": 127.009364,
        "bus_type": "버스정류장",
        "bus_name": "오렌지마트",
        "distance": 149.1332232192946,
        "walking_time": "약 3분"
      },
      {
        "bus_lat": 37.61156967,
        "bus_lon": 127.0084194,
        "bus_type": "버스정류장",
        "bus_name": "성북청수도서관.정릉4동성당",
        "distance": 153.21910368312885,
        "walking_time": "약 3분"
      },
      {
        "bus_lat": 37.60870425,
        "bus_lon": 127.0080441,
        "bus_type": "버스정류장",
        "bus_name": "수보약국",
        "distance": 171.13580690768129,
        "walking_time": "약 3분"
      },
      {
        "bus_lat": 37.60868624,
        "bus_lon": 127.0078742,
        "bus_type": "버스정류장",
        "bus_name": "수보약국",
        "distance": 177.36681698412957,
        "walking_time": "약 3분"
      },
      {
        "bus_lat": 37.61208355,
        "bus_lon": 127.0083291,
        "bus_type": "버스정류장",
        "bus_name": "북한산보국문역1번출구",
        "distance": 210.79313740700425,
        "walking_time": "약 4분"
      },
      {
        "bus_lat": 37.60846533,
        "bus_lon": 127.0098213,
        "bus_type": "버스정류장",
        "bus_name": "정릉시장입구",
        "distance": 223.4237226492256,
        "walking_time": "약 4분"
      }
    ],
    "community_center": [
      {
        "community_center_lat": 37.61335758,
        "community_center_lon": 127.0070184,
        "community_center_type": "주민센터",
        "community_center_name": "정릉4동 자치회관",
        "distance": 376.0620977987351,
        "walking_time": "약 6분"
      },
      {
        "community_center_lat": 37.60895467,
        "community_center_lon": 127.0041769,
        "community_center_type": "주민센터",
        "community_center_name": "정릉3동 자치회관",
        "distance": 407.44123408587177,
        "walking_time": "약 7분"
      },
      {
        "community_center_lat": 37.60454045,
        "community_center_lon": 127.011129,
        "community_center_type": "주민센터",
        "community_center_name": "정릉2동 자치회관",
        "distance": 669.1054361531137,
        "walking_time": "약 10분"
      },
      {
        "community_center_lat": 37.61046032,
        "community_center_lon": 127.0194714,
        "community_center_type": "주민센터",
        "community_center_name": "길음1동 자치회관",
        "distance": 964.2851638319742,
        "walking_time": "약 15분"
      },
      {
        "community_center_lat": 37.6014358,
        "community_center_lon": 127.0166418,
        "community_center_type": "주민센터",
        "community_center_name": "정릉1동 자치회관",
        "distance": 1207.980468500531,
        "walking_time": "약 19분"
      },
      {
        "community_center_lat": 37.62505177,
        "community_center_lon": 127.0197725,
        "community_center_type": "주민센터",
        "community_center_name": "삼양동 자치회관",
        "distance": 1926.107298179047,
        "walking_time": "약 29분"
      }
    ],
    "convenience_store": [
      {
        "convenience_store_lat": 37.6111424,
        "convenience_store_lon": 127.0086143,
        "convenience_store_type": "편의점",
        "convenience_store_name": "CU 정릉4동점",
        "distance": 105.6659492228144,
        "walking_time": "약 2분"
      },
      {
        "convenience_store_lat": 37.61125279,
        "convenience_store_lon": 127.009538,
        "convenience_store_type": "편의점",
        "convenience_store_name": "GS25 정릉시티점",
        "distance": 147.44257617497388,
        "walking_time": "약 3분"
      },
      {
        "convenience_store_lat": 37.61146836,
        "convenience_store_lon": 127.0109791,
        "convenience_store_type": "편의점",
        "convenience_store_name": "CU 정릉서경점",
        "distance": 258.1134511353193,
        "walking_time": "약 4분"
      },
      {
        "convenience_store_lat": 37.60855336,
        "convenience_store_lon": 127.0064106,
        "convenience_store_type": "편의점",
        "convenience_store_name": "CU 정릉솔샘점",
        "distance": 261.0345708136768,
        "walking_time": "약 4분"
      },
      {
        "convenience_store_lat": 37.6081371,
        "convenience_store_lon": 127.0102635,
        "convenience_store_type": "편의점",
        "convenience_store_name": "GS25 정릉중앙점",
        "distance": 275.07745752446885,
        "walking_time": "약 5분"
      },
      {
        "convenience_store_lat": 37.61239919,
        "convenience_store_lon": 127.0107069,
        "convenience_store_type": "편의점",
        "convenience_store_name": "GS25 정릉시티점",
        "distance": 311.2629359427689,
        "walking_time": "약 5분"
      },
      {
        "convenience_store_lat": 37.61305969,
        "convenience_store_lon": 127.007416,
        "convenience_store_type": "편의점",
        "convenience_store_name": "세븐일레븐 보국문역점",
        "distance": 333.3506435508229,
        "walking_time": "약 5분"
      },
      {
        "convenience_store_lat": 37.60912142,
        "convenience_store_lon": 127.004915,
        "convenience_store_type": "편의점",
        "convenience_store_name": "CU 성북정릉점",
        "distance": 340.0153137331393,
        "walking_time": "약 6분"
      },
      {
        "convenience_store_lat": 37.60732262,
        "convenience_store_lon": 127.0111079,
        "convenience_store_type": "편의점",
        "convenience_store_name": "세븐일레븐 정릉청운점",
        "distance": 391.8719125576753,
        "walking_time": "약 6분"
      },
      {
        "convenience_store_lat": 37.60660191,
        "convenience_store_lon": 127.0090986,
        "convenience_store_type": "편의점",
        "convenience_store_name": "CU 성북정릉천점",
        "distance": 402.6110865988156,
        "walking_time": "약 7분"
      }
    ],
    "daycare": [
      {
        "daycare_lat": 37.609738,
        "daycare_lon": 127.007832,
        "daycare_type": "어린이집",
        "daycare_name": "북악어린이집",
        "distance": 79.69681553422811,
        "walking_time": "약 2분"
      },
      {
        "daycare_lat": 37.61057971,
        "daycare_lon": 127.009351,
        "daycare_type": "어린이집",
        "daycare_name": "꿈나래어린이집",
        "distance": 84.08965458688392,
        "walking_time": "약 2분"
      },
      {
        "daycare_lat": 37.61008449,
        "daycare_lon": 127.0098219,
        "daycare_type": "어린이집",
        "daycare_name": "동그라미어린이집",
        "distance": 114.49834142784108,
        "walking_time": "약 2분"
      },
      {
        "daycare_lat": 37.6105042,
        "daycare_lon": 127.0071196,
        "daycare_type": "어린이집",
        "daycare_name": "정원어린이집",
        "distance": 128.8790427526135,
        "walking_time": "약 2분"
      },
      {
        "daycare_lat": 37.61195526,
        "daycare_lon": 127.0094188,
        "daycare_type": "어린이집",
        "daycare_name": "파란나라어린이집",
        "distance": 210.8767815067921,
        "walking_time": "약 4분"
      },
      {
        "daycare_lat": 37.60995316,
        "daycare_lon": 127.0053476,
        "daycare_type": "어린이집",
        "daycare_name": "아이사랑어린이집",
        "distance": 281.56479311509344,
        "walking_time": "약 5분"
      },
      {
        "daycare_lat": 37.6079216,
        "daycare_lon": 127.0113841,
        "daycare_type": "어린이집",
        "daycare_name": "정릉감리교회그리내방과후교실어린이집",
        "distance": 356.51770515905304,
        "walking_time": "약 6분"
      },
      {
        "daycare_lat": 37.60917089569902,
        "daycare_lon": 127.00461626210544,
        "daycare_type": "어린이집",
        "daycare_name": "이화어린이집",
        "distance": 363.0111628590785,
        "walking_time": "약 6분"
      },
      {
        "daycare_lat": 37.60917151209711,
        "daycare_lon": 127.00461570381566,
        "daycare_type": "어린이집",
        "daycare_name": "이화어린이집",
        "distance": 363.0363783529679,
        "walking_time": "약 6분"
      },
      {
        "daycare_lat": 37.61132461,
        "daycare_lon": 127.0129769,
        "daycare_type": "어린이집",
        "daycare_name": "보강",
        "distance": 411.4138960928827,
        "walking_time": "약 7분"
      }
    ],
    "education": [
      {
        "education_lat": 37.61065979,
        "education_lon": 127.004288,
        "education_type": "미술관/갤러리",
        "education_name": "성북구립 최만린미술관",
        "distance": 377.18312744309264,
        "walking_time": "약 6분"
      },
      {
        "education_lat": 37.61146112,
        "education_lon": 127.0138629,
        "education_type": "도서관",
        "education_name": "서경로꿈마루도서관",
        "distance": 490.4540389255926,
        "walking_time": "약 8분"
      },
      {
        "education_lat": 37.61106261291357,
        "education_lon": 127.00012175190037,
        "education_type": "박물관/기념관",
        "education_name": "국민대학교 명원박물관",
        "distance": 746.8692877473502,
        "walking_time": "약 12분"
      },
      {
        "education_lat": 37.61019088599424,
        "education_lon": 126.9978311,
        "education_type": "공연장",
        "education_name": "국민대학교 예술관",
        "distance": 942.3849671438292,
        "walking_time": "약 15분"
      },
      {
        "education_lat": 37.62047765,
        "education_lon": 127.0124025,
        "education_type": "도서관",
        "education_name": "솔샘문화정보도서관",
        "distance": 1193.237099076821,
        "walking_time": "약 18분"
      },
      {
        "education_lat": 37.60011909,
        "education_lon": 127.0138937,
        "education_type": "공연장",
        "education_name": "아리랑시네센터",
        "distance": 1215.914819706522,
        "walking_time": "약 19분"
      },
      {
        "education_lat": 37.60011909,
        "education_lon": 127.0138937,
        "education_type": "도서관",
        "education_name": "아리랑도서관",
        "distance": 1215.914819706522,
        "walking_time": "약 19분"
      },
      {
        "education_lat": 37.60089696,
        "education_lon": 126.9901339,
        "education_type": "미술관/갤러리",
        "education_name": "뮤지엄웨이브",
        "distance": 1922.202485575937,
        "walking_time": "약 29분"
      },
      {
        "education_lat": 37.60089696,
        "education_lon": 126.9901339,
        "education_type": "박물관/기념관",
        "education_name": "우리옛돌박물관",
        "distance": 1922.202485575937,
        "walking_time": "약 29분"
      }
    ],
    "electric_gas_station": [
      {
        "electric_gas_station_lat": 37.62551826,
        "electric_gas_station_lon": 127.017747,
        "electric_gas_station_type": "전기차 충전소",
        "electric_gas_station_name": "롯데마트 삼양점",
        "distance": 1887.4492013051345,
        "walking_time": "약 29분"
      }
    ],
    "fitness": [
      {
        "fitness_lat": 37.6111424,
        "fitness_lon": 127.0086143,
        "fitness_type": "운동시설",
        "fitness_name": "슬림라인 휘트니스",
        "distance": 105.6659492228144,
        "walking_time": "약 2분"
      },
      {
        "fitness_lat": 37.60886395,
        "fitness_lon": 127.0100857,
        "fitness_type": "운동시설",
        "fitness_name": "솜솜 스포츠",
        "distance": 201.6944473111608,
        "walking_time": "약 4분"
      },
      {
        "fitness_lat": 37.60836317,
        "fitness_lon": 127.0102183,
        "fitness_type": "운동시설",
        "fitness_name": "건강한 정릉",
        "distance": 252.185033152822,
        "walking_time": "약 4분"
      },
      {
        "fitness_lat": 37.6124188,
        "fitness_lon": 127.007767,
        "fitness_type": "운동시설",
        "fitness_name": "오렌지휘트니스",
        "distance": 256.2882569559077,
        "walking_time": "약 4분"
      },
      {
        "fitness_lat": 37.60737704,
        "fitness_lon": 127.0101248,
        "fitness_type": "운동시설",
        "fitness_name": "런앤핏 헬스&PT",
        "distance": 343.3610165520347,
        "walking_time": "약 6분"
      },
      {
        "fitness_lat": 37.60860049,
        "fitness_lon": 127.015187,
        "fitness_type": "운동시설",
        "fitness_name": "디파인더 바디 피트니스",
        "distance": 612.6422646583593,
        "walking_time": "약 10분"
      },
      {
        "fitness_lat": 37.60860049,
        "fitness_lon": 127.015187,
        "fitness_type": "운동시설",
        "fitness_name": "파워라인 휘트니스 클럽",
        "distance": 612.6422646583593,
        "walking_time": "약 10분"
      },
      {
        "fitness_lat": 37.60472238,
        "fitness_lon": 127.0119197,
        "fitness_type": "운동시설",
        "fitness_name": "운동쟁이",
        "distance": 677.8090953230013,
        "walking_time": "약 11분"
      },
      {
        "fitness_lat": 37.61644242,
        "fitness_lon": 127.0091212,
        "fitness_type": "운동시설",
        "fitness_name": "존버짐",
        "distance": 696.6891362422277,
        "walking_time": "약 11분"
      },
      {
        "fitness_lat": 37.60426869,
        "fitness_lon": 127.0113708,
        "fitness_type": "운동시설",
        "fitness_name": "비타민 휘트니스클럽",
        "distance": 704.855167537286,
        "walking_time": "약 11분"
      }
    ],
    "gas_station": [
      {
        "gas_station_lat": 37.60917749,
        "gas_station_lon": 127.0101203,
        "gas_station_type": "주유소",
        "gas_station_name": "㈜이케이에너지(주) 강산제2주유소",
        "distance": 180.06845933367558,
        "walking_time": "약 3분"
      },
      {
        "gas_station_lat": 37.60761582,
        "gas_station_lon": 127.0099732,
        "gas_station_type": "주유소",
        "gas_station_name": "㈜삼표에너지 정릉주유소",
        "distance": 313.67264384733573,
        "walking_time": "약 5분"
      },
      {
        "gas_station_lat": 37.60543076,
        "gas_station_lon": 127.0085513,
        "gas_station_type": "주유소",
        "gas_station_name": "현대오일뱅크(주)직영 북악셀프주유소",
        "distance": 529.7072693365641,
        "walking_time": "약 8분"
      },
      {
        "gas_station_lat": 37.6005363,
        "gas_station_lon": 127.0142117,
        "gas_station_type": "주유소",
        "gas_station_name": "현대오일뱅크(주)직영 아리랑주유소",
        "distance": 1184.8676307902697,
        "walking_time": "약 18분"
      },
      {
        "gas_station_lat": 37.62276536,
        "gas_station_lon": 127.0190864,
        "gas_station_type": "주유소",
        "gas_station_name": "SK에너지㈜ 매일주유소",
        "distance": 1678.837353420282,
        "walking_time": "약 26분"
      }
    ],
    "hospital": [
      {
        "hospital_lat": 37.61059517,
        "hospital_lon": 127.0093666,
        "hospital_type": "병원",
        "hospital_name": "숨편한인광호내과의원",
        "distance": 86.15134238813128,
        "walking_time": "약 2분"
      },
      {
        "hospital_lat": 37.60952722,
        "hospital_lon": 127.0094316,
        "hospital_type": "병원",
        "hospital_name": "연세올바른정형외과의원",
        "distance": 108.71873794504144,
        "walking_time": "약 2분"
      },
      {
        "hospital_lat": 37.61113264,
        "hospital_lon": 127.0089744,
        "hospital_type": "병원",
        "hospital_name": "경희숲한의원",
        "distance": 111.43475729795728,
        "walking_time": "약 2분"
      },
      {
        "hospital_lat": 37.60911032,
        "hospital_lon": 127.0095484,
        "hospital_type": "병원",
        "hospital_name": "365본맥한의원",
        "distance": 150.2964045204132,
        "walking_time": "약 3분"
      },
      {
        "hospital_lat": 37.60911032,
        "hospital_lon": 127.0095484,
        "hospital_type": "병원",
        "hospital_name": "정릉이비인후과의원",
        "distance": 150.2964045204132,
        "walking_time": "약 3분"
      },
      {
        "hospital_lat": 37.61155602,
        "hospital_lon": 127.0089275,
        "hospital_type": "병원",
        "hospital_name": "정릉부부치과의원",
        "distance": 155.40020424511505,
        "walking_time": "약 3분"
      },
      {
        "hospital_lat": 37.61155602,
        "hospital_lon": 127.0089275,
        "hospital_type": "병원",
        "hospital_name": "한솔내과의원",
        "distance": 155.40020424511505,
        "walking_time": "약 3분"
      },
      {
        "hospital_lat": 37.60880887,
        "hospital_lon": 127.0080611,
        "hospital_type": "병원",
        "hospital_name": "참사랑가정의학과의원",
        "distance": 159.50403713175874,
        "walking_time": "약 3분"
      },
      {
        "hospital_lat": 37.6116401,
        "hospital_lon": 127.0086858,
        "hospital_type": "병원",
        "hospital_name": "북한산한의원",
        "distance": 161.33184392993422,
        "walking_time": "약 3분"
      },
      {
        "hospital_lat": 37.60892192,
        "hospital_lon": 127.0095822,
        "hospital_type": "병원",
        "hospital_name": "정릉성모외과의원",
        "distance": 169.181162949561,
        "walking_time": "약 3분"
      }
    ],
    "music_room": [
      {
        "music_room_lat": 37.61098319,
        "music_room_lon": 127.0086785,
        "music_room_type": "노래방",
        "music_room_name": "KBS 노래연습장",
        "distance": 88.67493066094966,
        "walking_time": "약 2분"
      },
      {
        "music_room_lat": 37.61073888,
        "music_room_lon": 127.0092998,
        "music_room_type": "노래방",
        "music_room_name": "올스타 노래연습장",
        "distance": 90.92932166273052,
        "walking_time": "약 2분"
      },
      {
        "music_room_lat": 37.60856309,
        "music_room_lon": 127.0079742,
        "music_room_type": "노래방",
        "music_room_name": "스타 노래연습장",
        "distance": 187.883756285416,
        "walking_time": "약 3분"
      },
      {
        "music_room_lat": 37.6085443,
        "music_room_lon": 127.0097732,
        "music_room_type": "노래방",
        "music_room_name": "락 코인노래연습장",
        "distance": 213.71049976609163,
        "walking_time": "약 4분"
      },
      {
        "music_room_lat": 37.60817291,
        "music_room_lon": 127.009889,
        "music_room_type": "노래방",
        "music_room_name": "뮤젠 노래연습장",
        "distance": 254.70006561367552,
        "walking_time": "약 4분"
      },
      {
        "music_room_lat": 37.61277065,
        "music_room_lon": 127.0099602,
        "music_room_type": "노래방",
        "music_room_name": "까치 노래연습장",
        "distance": 312.9507072110225,
        "walking_time": "약 5분"
      },
      {
        "music_room_lat": 37.60708668,
        "music_room_lon": 127.0108196,
        "music_room_type": "노래방",
        "music_room_name": "V 노래연습장",
        "distance": 400.1458907946803,
        "walking_time": "약 6분"
      },
      {
        "music_room_lat": 37.60845462,
        "music_room_lon": 127.0043656,
        "music_room_type": "노래방",
        "music_room_name": "아리랑 노래연습장",
        "distance": 414.6834359911679,
        "walking_time": "약 7분"
      },
      {
        "music_room_lat": 37.60632378,
        "music_room_lon": 127.0111803,
        "music_room_type": "노래방",
        "music_room_name": "秀 노래연습장",
        "distance": 489.6661696231379,
        "walking_time": "약 8분"
      },
      {
        "music_room_lat": 37.60472238,
        "music_room_lon": 127.0119197,
        "music_room_type": "노래방",
        "music_room_name": "힐링 노래연습장",
        "distance": 677.8090953230013,
        "walking_time": "약 11분"
      }
    ],
    "park": [
      {
        "park_lat": 37.624549,
        "park_lon": 127.000938,
        "park_type": "공원",
        "park_name": "북한산국립공원",
        "distance": 1730.5409807567542,
        "walking_time": "약 26분"
      }
    ],
    "park_station": [
      {
        "park_station_lat": 37.60821601,
        "park_station_lon": 127.0094179,
        "park_station_type": "주차장",
        "park_station_name": "정릉시장",
        "distance": 233.5023217700256,
        "walking_time": "약 4분"
      },
      {
        "park_station_lat": 37.60839693,
        "park_station_lon": 126.9979632,
        "park_station_type": "주차장",
        "park_station_name": "국민대앞북악주차",
        "distance": 951.980176878185,
        "walking_time": "약 15분"
      },
      {
        "park_station_lat": 37.62273168,
        "park_station_lon": 127.0184011,
        "park_station_type": "주차장",
        "park_station_name": "삼양마을공원지하공영주차장",
        "distance": 1642.994601423601,
        "walking_time": "약 25분"
      },
      {
        "park_station_lat": 37.624715,
        "park_station_lon": 127.0154166,
        "park_station_type": "주차장",
        "park_station_name": "청암공영주차장",
        "distance": 1724.7948495887208,
        "walking_time": "약 26분"
      },
      {
        "park_station_lat": 37.6239863,
        "park_station_lon": 127.0195309,
        "park_station_type": "주차장",
        "park_station_name": "냉천길 공영주차장",
        "distance": 1814.054541578666,
        "walking_time": "약 28분"
      },
      {
        "park_station_lat": 37.6261816,
        "park_station_lon": 127.013414,
        "park_station_type": "주차장",
        "park_station_name": "구세군길 공영주차장",
        "distance": 1829.0008773024688,
        "walking_time": "약 28분"
      },
      {
        "park_station_lat": 37.62586444,
        "park_station_lon": 127.015711,
        "park_station_type": "주차장",
        "park_station_name": "삼양시장길 공영주차장",
        "distance": 1853.6746014163457,
        "walking_time": "약 28분"
      },
      {
        "park_station_lat": 37.62796302,
        "park_station_lon": 127.0169758,
        "park_station_type": "주차장",
        "park_station_name": "은혜공영주차장",
        "distance": 2111.178635971972,
        "walking_time": "약 32분"
      }
    ],
    "pc_room": [
      {
        "pc_room_lat": 37.6109478360516,
        "pc_room_lon": 127.009105782309,
        "pc_room_type": "PC방",
        "pc_room_name": "대박PC",
        "distance": 97.94764514720065,
        "walking_time": "약 2분"
      },
      {
        "pc_room_lat": 37.6115560173195,
        "pc_room_lon": 127.008927474592,
        "pc_room_type": "PC방",
        "pc_room_name": "ATOZ 피시방",
        "distance": 155.39940897764436,
        "walking_time": "약 3분"
      },
      {
        "pc_room_lat": 37.6085252888642,
        "pc_room_lon": 127.007339974507,
        "pc_room_type": "PC방",
        "pc_room_name": "3POP(쓰리팝)PC방",
        "distance": 213.1422951629717,
        "walking_time": "약 4분"
      },
      {
        "pc_room_lat": 37.6122917994482,
        "pc_room_lon": 127.009634301486,
        "pc_room_type": "PC방",
        "pc_room_name": "SOOP PC방",
        "distance": 252.69935856346223,
        "walking_time": "약 4분"
      },
      {
        "pc_room_lat": 37.6127706479949,
        "pc_room_lon": 127.009960212774,
        "pc_room_type": "PC방",
        "pc_room_name": "PC TAG",
        "distance": 312.9509562423332,
        "walking_time": "약 5분"
      },
      {
        "pc_room_lat": 37.6073770418433,
        "pc_room_lon": 127.010124841427,
        "pc_room_type": "PC방",
        "pc_room_name": "지디(GD)PC방 - 20241216현재 공실 매도추진중",
        "distance": 343.3623230715386,
        "walking_time": "약 6분"
      },
      {
        "pc_room_lat": 37.6105933270239,
        "pc_room_lon": 127.014261078527,
        "pc_room_type": "PC방",
        "pc_room_name": "매직넷(청소년PC방)",
        "distance": 506.8173234852065,
        "walking_time": "약 8분"
      },
      {
        "pc_room_lat": 37.6103415131668,
        "pc_room_lon": 127.014888358128,
        "pc_room_type": "PC방",
        "pc_room_name": "러쉬PC",
        "distance": 560.3675150270902,
        "walking_time": "약 9분"
      },
      {
        "pc_room_lat": 37.6026042927717,
        "pc_room_lon": 127.012281507183,
        "pc_room_type": "PC방",
        "pc_room_name": "보아스 셀프 PC - 2022년도 부터 안함 직권말소 대상",
        "distance": 906.4026051077218,
        "walking_time": "약 14분"
      },
      {
        "pc_room_lat": 37.6020693327301,
        "pc_room_lon": 127.019324173459,
        "pc_room_type": "PC방",
        "pc_room_name": "맥PC카페",
        "distance": 1311.683918264612,
        "walking_time": "약 20분"
      }
    ],
    "police_office": [
      {
        "police_office_lat": 37.61607297,
        "police_office_lon": 127.0086028,
        "police_office_type": "경찰소",
        "police_office_name": "정릉파출소",
        "distance": 653.6878570231439,
        "walking_time": "약 10분"
      },
      {
        "police_office_lat": 37.60456095,
        "police_office_lon": 127.0107204,
        "police_office_type": "경찰소",
        "police_office_name": "정릉2파출소",
        "distance": 655.4786650971453,
        "walking_time": "약 10분"
      },
      {
        "police_office_lat": 37.6106064,
        "police_office_lon": 127.0192657,
        "police_office_type": "경찰소",
        "police_office_name": "길음지구대",
        "distance": 946.8201866106444,
        "walking_time": "약 15분"
      },
      {
        "police_office_lat": 37.624832,
        "police_office_lon": 127.0181776,
        "police_office_type": "경찰소",
        "police_office_name": "삼양파출소",
        "distance": 1836.1005579263456,
        "walking_time": "약 28분"
      }
    ],
    "post_office": [
      {
        "post_office_lat": 37.60569395,
        "post_office_lon": 127.0115303,
        "post_office_type": "우체국",
        "post_office_name": "서울정릉우체국",
        "distance": 565.9621302194699,
        "walking_time": "약 9분"
      },
      {
        "post_office_lat": 37.61541478,
        "post_office_lon": 127.0135658,
        "post_office_type": "우체국",
        "post_office_name": "서경대학교우편취급국",
        "distance": 730.5734565259679,
        "walking_time": "약 11분"
      },
      {
        "post_office_lat": 37.61028784,
        "post_office_lon": 126.9985206,
        "post_office_type": "우체국",
        "post_office_name": "국민대학교우편취급국",
        "distance": 881.7097411469223,
        "walking_time": "약 14분"
      },
      {
        "post_office_lat": 37.61574067,
        "post_office_lon": 127.0193672,
        "post_office_type": "우체국",
        "post_office_name": "서울삼각산동우편취급국",
        "distance": 1136.4966620941038,
        "walking_time": "약 17분"
      },
      {
        "post_office_lat": 37.62387269,
        "post_office_lon": 127.0183655,
        "post_office_type": "우체국",
        "post_office_name": "서울삼양동우체국",
        "distance": 1750.376565214791,
        "walking_time": "약 27분"
      }
    ],
    "public_health_center": [
      {
        "public_health_center_lat": 37.60522963,
        "public_health_center_lon": 127.0119867,
        "public_health_center_type": "보건소",
        "public_health_center_name": "정릉아동보건지소",
        "distance": 630.4965151272716,
        "walking_time": "약 10분"
      }
    ],
    "school": [
      {
        "school_lat": 37.6080476933587,
        "school_lon": 127.002616144531,
        "school_type": "고등학교",
        "school_name": "고려대학교사범대학부속고등학교",
        "distance": 572.9881889668954,
        "walking_time": "약 9분"
      },
      {
        "school_lat": 37.6080476933587,
        "school_lon": 127.002616144531,
        "school_type": "중학교",
        "school_name": "고려대학교사범대학부속중학교",
        "distance": 572.9881889668954,
        "walking_time": "약 9분"
      },
      {
        "school_lat": 37.6133045933527,
        "school_lon": 127.014175970968,
        "school_type": "고등학교",
        "school_name": "대일외국어고등학교",
        "distance": 605.7808170241789,
        "walking_time": "약 10분"
      },
      {
        "school_lat": 37.6070090504822,
        "school_lon": 127.001609529397,
        "school_type": "중학교",
        "school_name": "북악중학교",
        "distance": 705.0081299684934,
        "walking_time": "약 11분"
      },
      {
        "school_lat": 37.6037748856219,
        "school_lon": 127.007718883621,
        "school_type": "초등학교",
        "school_name": "서울정수초등학교",
        "distance": 717.391338421299,
        "walking_time": "약 11분"
      },
      {
        "school_lat": 37.6090646447836,
        "school_lon": 127.01679961391,
        "school_type": "초등학교",
        "school_name": "서울길원초등학교",
        "distance": 739.2449277744504,
        "walking_time": "약 12분"
      },
      {
        "school_lat": 37.6120328876191,
        "school_lon": 127.000333434653,
        "school_type": "초등학교",
        "school_name": "서울청덕초등학교",
        "distance": 750.3364735785538,
        "walking_time": "약 12분"
      },
      {
        "school_lat": 37.6136311475404,
        "school_lon": 127.016659970388,
        "school_type": "초등학교",
        "school_name": "서울길음초등학교",
        "distance": 811.7426258607292,
        "walking_time": "약 13분"
      },
      {
        "school_lat": 37.6038254756354,
        "school_lon": 127.013292433921,
        "school_type": "초등학교",
        "school_name": "서울숭덕초등학교",
        "distance": 823.1581195730189,
        "walking_time": "약 13분"
      },
      {
        "school_lat": 37.6160412359101,
        "school_lon": 127.014342650437,
        "school_type": "중학교",
        "school_name": "삼각산중학교",
        "distance": 827.5569049503649,
        "walking_time": "약 13분"
      }
    ],
    "self_laundromat": [
      {
        "self_laundromat_lat": 37.6091209,
        "self_laundromat_lon": 127.0078558,
        "self_laundromat_type": "셀프 빨래방",
        "self_laundromat_name": "덱스터셀프빨래방 국민대점",
        "distance": 133.3157478962387,
        "walking_time": "약 2분"
      },
      {
        "self_laundromat_lat": 37.6091209,
        "self_laundromat_lon": 127.0078558,
        "self_laundromat_type": "셀프 빨래방",
        "self_laundromat_name": "덱스터셀프빨래방 국민대점",
        "distance": 133.3157478962387,
        "walking_time": "약 2분"
      },
      {
        "self_laundromat_lat": 37.61146281,
        "self_laundromat_lon": 127.009529,
        "self_laundromat_type": "셀프 빨래방",
        "self_laundromat_name": "크린토피아 코인워시 서경대점",
        "distance": 166.25483553470943,
        "walking_time": "약 3분"
      },
      {
        "self_laundromat_lat": 37.61146281,
        "self_laundromat_lon": 127.009529,
        "self_laundromat_type": "셀프 빨래방",
        "self_laundromat_name": "크린토피아 코인워시 서경대점",
        "distance": 166.25483553470943,
        "walking_time": "약 3분"
      },
      {
        "self_laundromat_lat": 37.61378022,
        "self_laundromat_lon": 127.0098463,
        "self_laundromat_type": "셀프 빨래방",
        "self_laundromat_name": "크린업24 정릉점",
        "distance": 415.24239871221744,
        "walking_time": "약 7분"
      },
      {
        "self_laundromat_lat": 37.61378022,
        "self_laundromat_lon": 127.0098463,
        "self_laundromat_type": "셀프 빨래방",
        "self_laundromat_name": "크린업24 정릉점",
        "distance": 415.24239871221744,
        "walking_time": "약 7분"
      },
      {
        "self_laundromat_lat": 37.61204275,
        "self_laundromat_lon": 127.013505,
        "self_laundromat_type": "셀프 빨래방",
        "self_laundromat_name": "코인워시24빨래터 서경대점",
        "distance": 484.0624627655628,
        "walking_time": "약 8분"
      },
      {
        "self_laundromat_lat": 37.61204275,
        "self_laundromat_lon": 127.013505,
        "self_laundromat_type": "셀프 빨래방",
        "self_laundromat_name": "코인워시24빨래터 서경대점",
        "distance": 484.0624627655628,
        "walking_time": "약 8분"
      },
      {
        "self_laundromat_lat": 37.60531392,
        "self_laundromat_lon": 127.0132214,
        "self_laundromat_type": "셀프 빨래방",
        "self_laundromat_name": "에코클린24셀프빨래방 정릉점",
        "distance": 682.159135661807,
        "walking_time": "약 11분"
      },
      {
        "self_laundromat_lat": 37.60531392,
        "self_laundromat_lon": 127.0132214,
        "self_laundromat_type": "셀프 빨래방",
        "self_laundromat_name": "에코클린24셀프빨래방 정릉점",
        "distance": 682.159135661807,
        "walking_time": "약 11분"
      }
    ],
    "supermarket": [
      {
        "supermarket_lat": 37.60946265,
        "supermarket_lon": 127.0090558,
        "supermarket_type": "마트",
        "supermarket_name": "정릉시장상인회",
        "distance": 93.65707984347384,
        "walking_time": "약 2분"
      },
      {
        "supermarket_lat": 37.61086483,
        "supermarket_lon": 127.0179745,
        "supermarket_type": "마트",
        "supermarket_name": "GS수퍼마켓 길음점",
        "distance": 835.3055698962517,
        "walking_time": "약 13분"
      },
      {
        "supermarket_lat": 37.60944177,
        "supermarket_lon": 127.0193237,
        "supermarket_type": "마트",
        "supermarket_name": "홈플러스익스프레스 길음점",
        "distance": 954.505072127238,
        "walking_time": "약 15분"
      },
      {
        "supermarket_lat": 37.60322851,
        "supermarket_lon": 127.0178662,
        "supermarket_type": "마트",
        "supermarket_name": "롯데슈퍼 정릉점",
        "distance": 1129.7986516740707,
        "walking_time": "약 17분"
      },
      {
        "supermarket_lat": 37.61797663,
        "supermarket_lon": 127.0189343,
        "supermarket_type": "마트",
        "supermarket_name": "(주)지에스리테일GS수퍼 강북미아점",
        "distance": 1260.447271986492,
        "walking_time": "약 19분"
      },
      {
        "supermarket_lat": 37.62042225,
        "supermarket_lon": 127.0190955,
        "supermarket_type": "마트",
        "supermarket_name": "동북프라자",
        "distance": 1469.5292404781117,
        "walking_time": "약 22분"
      },
      {
        "supermarket_lat": 37.62042225,
        "supermarket_lon": 127.0190955,
        "supermarket_type": "마트",
        "supermarket_name": "동북시장",
        "distance": 1469.5292404781117,
        "walking_time": "약 22분"
      },
      {
        "supermarket_lat": 37.62551826,
        "supermarket_lon": 127.017747,
        "supermarket_type": "마트",
        "supermarket_name": "롯데쇼핑(주) 롯데마트 삼양점",
        "distance": 1887.4492013051345,
        "walking_time": "약 29분"
      }
    ],
    "theater": [
      {
        "theater_lat": 37.6001190917898,
        "theater_lon": 127.013893650352,
        "theater_type": "영화관",
        "theater_name": "아리랑시네센터",
        "distance": 1215.9129366034074,
        "walking_time": "약 19분"
      }
    ],
    "university": [
      {
        "university_lat": 37.6154147804327,
        "university_lon": 127.013565764354,
        "university_type": "대학교",
        "university_name": "서경대학교",
        "distance": 730.5715882140942,
        "walking_time": "약 11분"
      },
      {
        "university_lat": 37.6102878430906,
        "university_lon": 126.998520644814,
        "university_type": "대학교",
        "university_name": "국민대학교",
        "distance": 881.7057979417534,
        "walking_time": "약 14분"
      }
    ]
  }
}