{
  "클러스터_위도": 37.56682799999999,
  "클러스터_경도": 127.057256,
  "클러스터_level": 4.0,
  "facilities": {
    "bus": [
      {
        "bus_lat": 37.56654189,
        "bus_lon": 127.055992,
        "bus_type": "버스정류장",
        "bus_name": "황물로사거리",
        "distance": 115.85995377186522,
        "walking_time": "약 2분"
      },
      {
        "bus_lat": 37.56845386,
        "bus_lon": 127.0572013,
        "bus_type": "버스정류장",
        "bus_name": "답십리초등학교.현대시장",
        "distance": 180.85165439916284,
        "walking_time": "약 3분"
      },
      {
        "bus_lat": 37.56618994,
        "bus_lon": 127.0552016,
        "bus_type": "버스정류장",
        "bus_name": "답십리쌍마사거리",
        "distance": 194.4750330801741,
        "walking_time": "약 3분"
      },
      {
        "bus_lat": 37.5651431,
        "bus_lon": 127.0566147,
        "bus_type": "버스정류장",
        "bus_name": "부속상가",
        "distance": 195.69311709295985,
        "walking_time": "약 3분"
      },
      {
        "bus_lat": 37.56862657,
        "bus_lon": 127.0569309,
        "bus_type": "버스정류장",
        "bus_name": "답십리초등학교앞",
        "distance": 202.03404082132752,
        "walking_time": "약 4분"
      },
      {
        "bus_lat": 37.56550601,
        "bus_lon": 127.0552011,
        "bus_type": "버스정류장",
        "bus_name": "답십리역사거리",
        "distance": 233.2629807459657,
        "walking_time": "약 4분"
      },
      {
        "bus_lat": 37.56459467,
        "bus_lon": 127.0577757,
        "bus_type": "버스정류장",
        "bus_name": "자동차부품상가",
        "distance": 252.52413399153167,
        "walking_time": "약 4분"
      },
      {
        "bus_lat": 37.56518709,
        "bus_lon": 127.0550605,
        "bus_type": "버스정류장",
        "bus_name": "답십리역사거리",
        "distance": 265.9654477743264,
        "walking_time": "약 4분"
      },
      {
        "bus_lat": 37.56544961,
        "bus_lon": 127.0543962,
        "bus_type": "버스정류장",
        "bus_name": "답십리역사거리",
        "distance": 295.0006906261644,
        "walking_time": "약 5분"
      },
      {
        "bus_lat": 37.56570333,
        "bus_lon": 127.0539458,
        "bus_type": "버스정류장",
        "bus_name": "용답동로데오거리.답십리역",
        "distance": 317.42879458057,
        "walking_time": "약 5분"
      }
    ],
    "community_center": [
      {
        "community_center_lat": 37.56406781,
        "community_center_lon": 127.0555683,
        "community_center_type": "주민센터",
        "community_center_name": "용답동 자치회관",
        "distance": 341.067159716044,
        "walking_time": "약 6분"
      },
      {
        "community_center_lat": 37.56739777,
        "community_center_lon": 127.0612821,
        "community_center_type": "주민센터",
        "community_center_name": "답십리2동 자치회관",
        "distance": 360.461883169849,
        "walking_time": "약 6분"
      },
      {
        "community_center_lat": 37.57182309,
        "community_center_lon": 127.0512749,
        "community_center_type": "주민센터",
        "community_center_name": "답십리1동 자치회관",
        "distance": 765.755457324995,
        "walking_time": "약 12분"
      },
      {
        "community_center_lat": 37.56781936,
        "community_center_lon": 127.0664131,
        "community_center_type": "주민센터",
        "community_center_name": "장안1동 자치회관",
        "distance": 814.5750794983901,
        "walking_time": "약 13분"
      },
      {
        "community_center_lat": 37.56631969,
        "community_center_lon": 127.0454073,
        "community_center_type": "주민센터",
        "community_center_name": "마장동 자치회관",
        "distance": 1045.8509763623597,
        "walking_time": "약 16분"
      },
      {
        "community_center_lat": 37.56149957,
        "community_center_lon": 127.045326,
        "community_center_type": "주민센터",
        "community_center_name": "사근동 자치회관",
        "distance": 1206.9583787480362,
        "walking_time": "약 19분"
      },
      {
        "community_center_lat": 37.57809107,
        "community_center_lon": 127.0600078,
        "community_center_type": "주민센터",
        "community_center_name": "전농2동 자치회관",
        "distance": 1275.6614013339038,
        "walking_time": "약 20분"
      },
      {
        "community_center_lat": 37.57797071,
        "community_center_lon": 127.0477271,
        "community_center_type": "주민센터",
        "community_center_name": "전농1동 자치회관",
        "distance": 1496.7988111913871,
        "walking_time": "약 23분"
      },
      {
        "community_center_lat": 37.55453307,
        "community_center_lon": 127.0695685,
        "community_center_type": "주민센터",
        "community_center_name": "송정동 자치회관",
        "distance": 1745.5378894582038,
        "walking_time": "약 27분"
      }
    ],
    "convenience_store": [
      {
        "convenience_store_lat": 37.56670169,
        "convenience_store_lon": 127.056713,
        "convenience_store_type": "편의점",
        "convenience_store_name": "GS25 시립대점",
        "distance": 49.877216643330826,
        "walking_time": "약 1분"
      },
      {
        "convenience_store_lat": 37.5660352,
        "convenience_store_lon": 127.0560116,
        "convenience_store_type": "편의점",
        "convenience_store_name": "세븐일레븐 답십리쌍마점",
        "distance": 140.7157373353653,
        "walking_time": "약 3분"
      },
      {
        "convenience_store_lat": 37.56544384,
        "convenience_store_lon": 127.0553083,
        "convenience_store_type": "편의점",
        "convenience_store_name": "GS25 답십리사거리점",
        "distance": 230.56141892032213,
        "walking_time": "약 4분"
      },
      {
        "convenience_store_lat": 37.56481549,
        "convenience_store_lon": 127.0560695,
        "convenience_store_type": "편의점",
        "convenience_store_name": "CU 청원에셋점",
        "distance": 247.0105988047722,
        "walking_time": "약 4분"
      },
      {
        "convenience_store_lat": 37.56912316,
        "convenience_store_lon": 127.057546,
        "convenience_store_type": "편의점",
        "convenience_store_name": "CU 답십리두산점",
        "distance": 256.48686493037474,
        "walking_time": "약 4분"
      },
      {
        "convenience_store_lat": 37.56593245,
        "convenience_store_lon": 127.0545369,
        "convenience_store_type": "편의점",
        "convenience_store_name": "세븐일레븐 답십리역점",
        "distance": 259.5222811470183,
        "walking_time": "약 4분"
      },
      {
        "convenience_store_lat": 37.56972912,
        "convenience_store_lon": 127.0569114,
        "convenience_store_type": "편의점",
        "convenience_store_name": "GS25 답십리타운점",
        "distance": 324.0164139621463,
        "walking_time": "약 5분"
      },
      {
        "convenience_store_lat": 37.56745985,
        "convenience_store_lon": 127.0534875,
        "convenience_store_type": "편의점",
        "convenience_store_name": "GS25 답십리역점",
        "distance": 339.4956342657695,
        "walking_time": "약 6분"
      },
      {
        "convenience_store_lat": 37.5659477,
        "convenience_store_lon": 127.061125,
        "convenience_store_type": "편의점",
        "convenience_store_name": "CU 답십리리더스점",
        "distance": 354.7780704066399,
        "walking_time": "약 6분"
      },
      {
        "convenience_store_lat": 37.56644583,
        "convenience_store_lon": 127.053181,
        "convenience_store_type": "편의점",
        "convenience_store_name": "세븐일레븐 답십리역점",
        "distance": 361.6679181641259,
        "walking_time": "약 6분"
      }
    ],
    "daycare": [
      {
        "daycare_lat": 37.56656181,
        "daycare_lon": 127.0571882,
        "daycare_type": "어린이집",
        "daycare_name": "위브어린이집",
        "distance": 30.196177636767903,
        "walking_time": "약 1분"
      },
      {
        "daycare_lat": 37.56616803,
        "daycare_lon": 127.0577089,
        "daycare_type": "어린이집",
        "daycare_name": "위브어린이집",
        "distance": 83.53942889146829,
        "walking_time": "약 2분"
      },
      {
        "daycare_lat": 37.5681135,
        "daycare_lon": 127.0585568,
        "daycare_type": "어린이집",
        "daycare_name": "파크자이어린이집",
        "distance": 183.23886947363263,
        "walking_time": "약 3분"
      },
      {
        "daycare_lat": 37.5683665,
        "daycare_lon": 127.0590142,
        "daycare_type": "어린이집",
        "daycare_name": "지니맘어린이집",
        "distance": 230.82340365818365,
        "walking_time": "약 4분"
      },
      {
        "daycare_lat": 37.5688905,
        "daycare_lon": 127.0562959,
        "daycare_type": "어린이집",
        "daycare_name": "예랑어린이집",
        "distance": 244.45278515928027,
        "walking_time": "약 4분"
      },
      {
        "daycare_lat": 37.56910669,
        "daycare_lon": 127.0575293,
        "daycare_type": "어린이집",
        "daycare_name": "꽃별어린이집",
        "distance": 254.5211531355722,
        "walking_time": "약 4분"
      },
      {
        "daycare_lat": 37.568068056576095,
        "daycare_lon": 127.05478797400336,
        "daycare_type": "어린이집",
        "daycare_name": "아름다운어린이집",
        "distance": 257.546300919218,
        "walking_time": "약 4분"
      },
      {
        "daycare_lat": 37.57025774,
        "daycare_lon": 127.0575816,
        "daycare_type": "어린이집",
        "daycare_name": "예지안어린이집",
        "distance": 382.44784993162494,
        "walking_time": "약 6분"
      },
      {
        "daycare_lat": 37.56443411,
        "daycare_lon": 127.0538392,
        "daycare_type": "어린이집",
        "daycare_name": "피노키오어린이집",
        "distance": 401.9330331321109,
        "walking_time": "약 6분"
      },
      {
        "daycare_lat": 37.56982902,
        "daycare_lon": 127.0600898,
        "daycare_type": "어린이집",
        "daycare_name": "두산베베어린이집",
        "distance": 416.81477243458,
        "walking_time": "약 7분"
      }
    ],
    "education": [
      {
        "education_lat": 37.56669993,
        "education_lon": 127.0513042,
        "education_type": "도서관",
        "education_name": "성동구립용답도서관",
        "distance": 524.7725887514439,
        "walking_time": "약 8분"
      },
      {
        "education_lat": 37.5604667,
        "education_lon": 127.0603649,
        "education_type": "박물관/기념관",
        "education_name": "서울하수도과학관",
        "distance": 758.5675998901071,
        "walking_time": "약 12분"
      },
      {
        "education_lat": 37.573193,
        "education_lon": 127.0503603,
        "education_type": "도서관",
        "education_name": "동대문구답십리도서관",
        "distance": 932.8845698890362,
        "walking_time": "약 14분"
      },
      {
        "education_lat": 37.55791759,
        "education_lon": 127.0493219,
        "education_type": "미술관/갤러리",
        "education_name": "한양여자대학교 미술관",
        "distance": 1212.7410705146256,
        "walking_time": "약 19분"
      },
      {
        "education_lat": 37.57844311,
        "education_lon": 127.0627351,
        "education_type": "도서관",
        "education_name": "배봉산숲속도서관",
        "distance": 1378.858421509495,
        "walking_time": "약 21분"
      },
      {
        "education_lat": 37.55450355,
        "education_lon": 127.0466112,
        "education_type": "박물관/기념관",
        "education_name": "한양대학교 박물관",
        "distance": 1660.8504358294936,
        "walking_time": "약 25분"
      },
      {
        "education_lat": 37.55127807,
        "education_lon": 127.0670116,
        "education_type": "공연장",
        "education_name": "더라이트스튜디오",
        "distance": 1931.1058122839745,
        "walking_time": "약 29분"
      },
      {
        "education_lat": 37.57927107,
        "education_lon": 127.0406269,
        "education_type": "미술관/갤러리",
        "education_name": "더 윌로",
        "distance": 2015.476778425488,
        "walking_time": "약 31분"
      }
    ],
    "electric_gas_station": [
      {
        "electric_gas_station_lat": 37.56581702,
        "electric_gas_station_lon": 127.0461132,
        "electric_gas_station_type": "전기차 충전소",
        "electric_gas_station_name": "마장동사무소 앞(공중전화부스)",
        "distance": 988.5219694378412,
        "walking_time": "약 15분"
      }
    ],
    "fitness": [
      {
        "fitness_lat": 37.5680105,
        "fitness_lon": 127.0574061,
        "fitness_type": "운동시설",
        "fitness_name": "베이스오브바디",
        "distance": 132.15184833788888,
        "walking_time": "약 2분"
      },
      {
        "fitness_lat": 37.5660352,
        "fitness_lon": 127.0560116,
        "fitness_type": "운동시설",
        "fitness_name": "버닝타임짐",
        "distance": 140.7157373353653,
        "walking_time": "약 3분"
      },
      {
        "fitness_lat": 37.56825403,
        "fitness_lon": 127.0572409,
        "fitness_type": "운동시설",
        "fitness_name": "답십리점 스포애니 (주)케이디헬스케어",
        "distance": 158.57288619366872,
        "walking_time": "약 3분"
      },
      {
        "fitness_lat": 37.56517853,
        "fitness_lon": 127.0556347,
        "fitness_type": "운동시설",
        "fitness_name": "하늘스포츠재활센터",
        "distance": 232.5090955342052,
        "walking_time": "약 4분"
      },
      {
        "fitness_lat": 37.56522486,
        "fitness_lon": 127.0542338,
        "fitness_type": "운동시설",
        "fitness_name": "시티짐 답십리점",
        "distance": 320.51773468140544,
        "walking_time": "약 5분"
      },
      {
        "fitness_lat": 37.56601265,
        "fitness_lon": 127.0531387,
        "fitness_type": "운동시설",
        "fitness_name": "주식회사 아이앤지짐",
        "distance": 374.04588317028464,
        "walking_time": "약 6분"
      },
      {
        "fitness_lat": 37.56735755,
        "fitness_lon": 127.0615172,
        "fitness_type": "운동시설",
        "fitness_name": "원오원짐",
        "distance": 380.1596136045162,
        "walking_time": "약 6분"
      },
      {
        "fitness_lat": 37.565949,
        "fitness_lon": 127.0617272,
        "fitness_type": "운동시설",
        "fitness_name": "투엑스휘트니스",
        "distance": 406.0241454242927,
        "walking_time": "약 7분"
      },
      {
        "fitness_lat": 37.56771233,
        "fitness_lon": 127.0617436,
        "fitness_type": "운동시설",
        "fitness_name": "헬스데이 답십리점",
        "distance": 407.5652988478728,
        "walking_time": "약 7분"
      },
      {
        "fitness_lat": 37.56757575,
        "fitness_lon": 127.0522092,
        "fitness_type": "운동시설",
        "fitness_name": "A True Gym 답십리점",
        "distance": 452.5161579027002,
        "walking_time": "약 7분"
      }
    ],
    "gas_station": [
      {
        "gas_station_lat": 37.56423394,
        "gas_station_lon": 127.0555933,
        "gas_station_type": "주유소",
        "gas_station_name": "㈜ 서울에너지",
        "distance": 323.5397807568478,
        "walking_time": "약 5분"
      },
      {
        "gas_station_lat": 37.56894475,
        "gas_station_lon": 127.0633763,
        "gas_station_type": "주유소",
        "gas_station_name": "오동나무주유소",
        "distance": 588.5375795506516,
        "walking_time": "약 9분"
      },
      {
        "gas_station_lat": 37.56141506,
        "gas_station_lon": 127.0623105,
        "gas_station_type": "주유소",
        "gas_station_name": "삼우주유소",
        "distance": 748.833477048433,
        "walking_time": "약 12분"
      },
      {
        "gas_station_lat": 37.57016688,
        "gas_station_lon": 127.0649947,
        "gas_station_type": "주유소",
        "gas_station_name": "삼미상사㈜ 장안킹셀프주유소",
        "distance": 776.556979300019,
        "walking_time": "약 12분"
      },
      {
        "gas_station_lat": 37.57301206,
        "gas_station_lon": 127.0649712,
        "gas_station_type": "주유소",
        "gas_station_name": "㈜자연에너지 국민주유소",
        "distance": 967.060805615007,
        "walking_time": "약 15분"
      },
      {
        "gas_station_lat": 37.57577532,
        "gas_station_lon": 127.0574925,
        "gas_station_type": "주유소",
        "gas_station_name": "재정주유소",
        "distance": 995.114904004002,
        "walking_time": "약 15분"
      },
      {
        "gas_station_lat": 37.5759083,
        "gas_station_lon": 127.0556315,
        "gas_station_type": "주유소",
        "gas_station_name": "㈜재건에너지 재정제2주유소",
        "distance": 1019.7834808977924,
        "walking_time": "약 16분"
      },
      {
        "gas_station_lat": 37.57222701,
        "gas_station_lon": 127.0688157,
        "gas_station_type": "주유소",
        "gas_station_name": "삼영주유소",
        "distance": 1182.5334699901032,
        "walking_time": "약 18분"
      },
      {
        "gas_station_lat": 37.56701689,
        "gas_station_lon": 127.0437206,
        "gas_station_type": "주유소",
        "gas_station_name": "현대오일뱅크㈜ 성동셀프주유소",
        "distance": 1193.1644707800947,
        "walking_time": "약 18분"
      },
      {
        "gas_station_lat": 37.56053418,
        "gas_station_lon": 127.0683019,
        "gas_station_type": "주유소",
        "gas_station_name": "SK에너지㈜ 군자동주유소",
        "distance": 1199.0329878938346,
        "walking_time": "약 18분"
      }
    ],
    "hospital": [
      {
        "hospital_lat": 37.56701623,
        "hospital_lon": 127.0568869,
        "hospital_type": "병원",
        "hospital_name": "답십리연세정형외과의원",
        "distance": 38.68309446634868,
        "walking_time": "약 1분"
      },
      {
        "hospital_lat": 37.56701623,
        "hospital_lon": 127.0568869,
        "hospital_type": "병원",
        "hospital_name": "서울완수치과의원",
        "distance": 38.68309446634868,
        "walking_time": "약 1분"
      },
      {
        "hospital_lat": 37.56670169,
        "hospital_lon": 127.056713,
        "hospital_type": "병원",
        "hospital_name": "김영화정신과의원",
        "distance": 49.877216643330826,
        "walking_time": "약 1분"
      },
      {
        "hospital_lat": 37.56670169,
        "hospital_lon": 127.056713,
        "hospital_type": "병원",
        "hospital_name": "예일치과의원",
        "distance": 49.877216643330826,
        "walking_time": "약 1분"
      },
      {
        "hospital_lat": 37.56694084,
        "hospital_lon": 127.0562728,
        "hospital_type": "병원",
        "hospital_name": "해담한의원",
        "distance": 87.56072894637964,
        "walking_time": "약 2분"
      },
      {
        "hospital_lat": 37.56710708,
        "hospital_lon": 127.0562602,
        "hospital_type": "병원",
        "hospital_name": "이석한의원",
        "distance": 93.09209558082168,
        "walking_time": "약 2분"
      },
      {
        "hospital_lat": 37.5680105,
        "hospital_lon": 127.0574061,
        "hospital_type": "병원",
        "hospital_name": "그레이스미의원",
        "distance": 132.15184833788888,
        "walking_time": "약 2분"
      },
      {
        "hospital_lat": 37.5680105,
        "hospital_lon": 127.0574061,
        "hospital_type": "병원",
        "hospital_name": "다나성모소아청소년과의원",
        "distance": 132.15184833788888,
        "walking_time": "약 2분"
      },
      {
        "hospital_lat": 37.5680105,
        "hospital_lon": 127.0574061,
        "hospital_type": "병원",
        "hospital_name": "답십리설정형외과의원",
        "distance": 132.15184833788888,
        "walking_time": "약 2분"
      },
      {
        "hospital_lat": 37.5680105,
        "hospital_lon": 127.0574061,
        "hospital_type": "병원",
        "hospital_name": "답십리우리한의원",
        "distance": 132.15184833788888,
        "walking_time": "약 2분"
      }
    ],
    "music_room": [
      {
        "music_room_lat": 37.56686616,
        "music_room_lon": 127.0570017,
        "music_room_type": "노래방",
        "music_room_name": "종달새",
        "distance": 22.811564896855515,
        "walking_time": "약 1분"
      },
      {
        "music_room_lat": 37.56727894,
        "music_room_lon": 127.0563743,
        "music_room_type": "노래방",
        "music_room_name": "차차차",
        "distance": 92.48367334806072,
        "walking_time": "약 2분"
      },
      {
        "music_room_lat": 37.5660352,
        "music_room_lon": 127.0560116,
        "music_room_type": "노래방",
        "music_room_name": "하오",
        "distance": 140.7157373353653,
        "walking_time": "약 3분"
      },
      {
        "music_room_lat": 37.56496041,
        "music_room_lon": 127.0574839,
        "music_room_type": "노래방",
        "music_room_name": "신선",
        "distance": 208.6357381684197,
        "walking_time": "약 4분"
      },
      {
        "music_room_lat": 37.56593245,
        "music_room_lon": 127.0545369,
        "music_room_type": "노래방",
        "music_room_name": "퀸덤코인노래연습장",
        "distance": 259.5222811470183,
        "walking_time": "약 4분"
      },
      {
        "music_room_lat": 37.56621576,
        "music_room_lon": 127.0612719,
        "music_room_type": "노래방",
        "music_room_name": "필",
        "distance": 360.4417157184114,
        "walking_time": "약 6분"
      },
      {
        "music_room_lat": 37.56469367,
        "music_room_lon": 127.0541442,
        "music_room_type": "노래방",
        "music_room_name": "마돈나 노래연습장",
        "distance": 362.6964217787775,
        "walking_time": "약 6분"
      },
      {
        "music_room_lat": 37.56436192,
        "music_room_lon": 127.0543578,
        "music_room_type": "노래방",
        "music_room_name": "딴따라 코인노래연습장",
        "distance": 374.761946567581,
        "walking_time": "약 6분"
      },
      {
        "music_room_lat": 37.56615683,
        "music_room_lon": 127.0530816,
        "music_room_type": "노래방",
        "music_room_name": "쟁반 노래연습장",
        "distance": 375.417157026714,
        "walking_time": "약 6분"
      },
      {
        "music_room_lat": 37.56459345,
        "music_room_lon": 127.0540197,
        "music_room_type": "노래방",
        "music_room_name": "게임 노래방",
        "distance": 378.2885862923935,
        "walking_time": "약 6분"
      }
    ],
    "park": [
      {
        "park_lat": 37.5732438,
        "park_lon": 127.0488644,
        "park_type": "공원",
        "park_name": "간데메근린공원",
        "distance": 1027.5859800134965,
        "walking_time": "약 16분"
      },
      {
        "park_lat": 37.5750896,
        "park_lon": 127.0626512,
        "park_type": "공원",
        "park_name": "답십리근린공원",
        "distance": 1034.412698330713,
        "walking_time": "약 16분"
      }
    ],
    "park_station": [
      {
        "park_station_lat": 37.56871832,
        "park_station_lon": 127.0588799,
        "park_station_type": "주차장",
        "park_station_name": "중산공영주차장",
        "distance": 254.29579347705865,
        "walking_time": "약 4분"
      },
      {
        "park_station_lat": 37.56380327,
        "park_station_lon": 127.0559692,
        "park_station_type": "주차장",
        "park_station_name": "공유) 20-13",
        "distance": 354.94316079153265,
        "walking_time": "약 6분"
      },
      {
        "park_station_lat": 37.56457115,
        "park_station_lon": 127.0543101,
        "park_station_type": "주차장",
        "park_station_name": "용답동 공영주차장",
        "distance": 361.1007670487569,
        "walking_time": "약 6분"
      },
      {
        "park_station_lat": 37.56321164,
        "park_station_lon": 127.0562314,
        "park_station_type": "주차장",
        "park_station_name": "용답제2 공영주차장",
        "distance": 412.1368507314755,
        "walking_time": "약 7분"
      },
      {
        "park_station_lat": 37.56864364,
        "park_station_lon": 127.0531454,
        "park_station_type": "주차장",
        "park_station_name": "장영당길 공영주차장",
        "distance": 414.7496288042954,
        "walking_time": "약 7분"
      },
      {
        "park_station_lat": 37.56337586,
        "park_station_lon": 127.0549518,
        "park_station_type": "주차장",
        "park_station_name": "공유) 20-11",
        "distance": 434.2754742870295,
        "walking_time": "약 7분"
      },
      {
        "park_station_lat": 37.57111667,
        "park_station_lon": 127.0581633,
        "park_station_type": "주차장",
        "park_station_name": "답십리2동 노외주차장",
        "distance": 483.5363334223147,
        "walking_time": "약 8분"
      },
      {
        "park_station_lat": 37.56194439,
        "park_station_lon": 127.0582676,
        "park_station_type": "주차장",
        "park_station_name": "용답동거주자우선주차장",
        "distance": 550.304040503203,
        "walking_time": "약 9분"
      },
      {
        "park_station_lat": 37.56510166,
        "park_station_lon": 127.0633542,
        "park_station_type": "주차장",
        "park_station_name": "장안1동 노외주차장",
        "distance": 570.7386539252852,
        "walking_time": "약 9분"
      },
      {
        "park_station_lat": 37.56922273,
        "park_station_lon": 127.0510644,
        "park_station_type": "주차장",
        "park_station_name": "신답고가 주변",
        "distance": 607.2071901471757,
        "walking_time": "약 10분"
      }
    ],
    "pc_room": [
      {
        "pc_room_lat": 37.5657983700541,
        "pc_room_lon": 127.054762202414,
        "pc_room_type": "PC방",
        "pc_room_name": "명성PC",
        "distance": 247.8299586826637,
        "walking_time": "약 4분"
      },
      {
        "pc_room_lat": 37.5649822509522,
        "pc_room_lon": 127.054560923079,
        "pc_room_type": "PC방",
        "pc_room_name": "하투PC",
        "distance": 313.9242705888475,
        "walking_time": "약 5분"
      },
      {
        "pc_room_lat": 37.5654468726963,
        "pc_room_lon": 127.054020786993,
        "pc_room_type": "PC방",
        "pc_room_name": "테크노pc방",
        "distance": 323.8735950248281,
        "walking_time": "약 5분"
      },
      {
        "pc_room_lat": 37.5669101962131,
        "pc_room_lon": 127.061880899304,
        "pc_room_type": "PC방",
        "pc_room_name": "세븐PC방",
        "distance": 407.7309258612785,
        "walking_time": "약 7분"
      },
      {
        "pc_room_lat": 37.5716000499341,
        "pc_room_lon": 127.057066968632,
        "pc_room_type": "PC방",
        "pc_room_name": "볼트PC",
        "distance": 530.8892220395992,
        "walking_time": "약 8분"
      },
      {
        "pc_room_lat": 37.5638156826095,
        "pc_room_lon": 127.052481864068,
        "pc_room_type": "PC방",
        "pc_room_name": "탑클래스PC 용답점",
        "distance": 537.8282143317853,
        "walking_time": "약 9분"
      },
      {
        "pc_room_lat": 37.5642917351454,
        "pc_room_lon": 127.051947277565,
        "pc_room_type": "PC방",
        "pc_room_name": "코아인PC방",
        "distance": 546.3263331032497,
        "walking_time": "약 9분"
      },
      {
        "pc_room_lat": 37.5731833863445,
        "pc_room_lon": 127.057770923489,
        "pc_room_type": "PC방",
        "pc_room_name": "행운피씨방",
        "distance": 708.142409712681,
        "walking_time": "약 11분"
      },
      {
        "pc_room_lat": 37.5731833863445,
        "pc_room_lon": 127.057770923489,
        "pc_room_type": "PC방",
        "pc_room_name": "에스PC",
        "distance": 708.142409712681,
        "walking_time": "약 11분"
      },
      {
        "pc_room_lat": 37.5731833863445,
        "pc_room_lon": 127.057770923489,
        "pc_room_type": "PC방",
        "pc_room_name": "세븐티PC방",
        "distance": 708.142409712681,
        "walking_time": "약 11분"
      }
    ],
    "police_office": [
      {
        "police_office_lat": 37.56478214,
        "police_office_lon": 127.0517587,
        "police_office_type": "경찰소",
        "police_office_name": "용답파출소",
        "distance": 535.2734383528433,
        "walking_time": "약 8분"
      },
      {
        "police_office_lat": 37.5712943,
        "police_office_lon": 127.0510676,
        "police_office_type": "경찰소",
        "police_office_name": "답십리지구대",
        "distance": 737.6447700305687,
        "walking_time": "약 12분"
      },
      {
        "police_office_lat": 37.5696343,
        "police_office_lon": 127.0650047,
        "police_office_type": "경찰소",
        "police_office_name": "장안1파출소",
        "distance": 750.8536535279674,
        "walking_time": "약 12분"
      },
      {
        "police_office_lat": 37.57612945,
        "police_office_lon": 127.0479381,
        "police_office_type": "경찰소",
        "police_office_name": "전농1파출소",
        "distance": 1320.6460878874727,
        "walking_time": "약 20분"
      },
      {
        "police_office_lat": 37.56030192,
        "police_office_lon": 127.0417943,
        "police_office_type": "경찰소",
        "police_office_name": "한양지구대",
        "distance": 1543.9795822674012,
        "walking_time": "약 24분"
      }
    ],
    "post_office": [
      {
        "post_office_lat": 37.56961978,
        "post_office_lon": 127.0515122,
        "post_office_type": "우체국",
        "post_office_name": "서울답십리우편취급국",
        "distance": 593.8379394561762,
        "walking_time": "약 9분"
      },
      {
        "post_office_lat": 37.56168108,
        "post_office_lon": 127.0608549,
        "post_office_type": "우체국",
        "post_office_name": "서울용답동우체국",
        "distance": 654.341417437129,
        "walking_time": "약 10분"
      },
      {
        "post_office_lat": 37.56712179,
        "post_office_lon": 127.0658005,
        "post_office_type": "우체국",
        "post_office_name": "서울장안동우체국",
        "distance": 753.8006140100028,
        "walking_time": "약 12분"
      },
      {
        "post_office_lat": 37.5767537,
        "post_office_lon": 127.0575286,
        "post_office_type": "우체국",
        "post_office_name": "서울전농동우체국",
        "distance": 1103.9489349439837,
        "walking_time": "약 17분"
      },
      {
        "post_office_lat": 37.55450355,
        "post_office_lon": 127.0466112,
        "post_office_type": "우체국",
        "post_office_name": "서울한양대학교우체국",
        "distance": 1660.8504358294936,
        "walking_time": "약 25분"
      }
    ],
    "school": [
      {
        "school_lat": 37.5688043221289,
        "school_lon": 127.055427038114,
        "school_type": "초등학교",
        "school_name": "서울답십리초등학교",
        "distance": 272.5401564501751,
        "walking_time": "약 5분"
      },
      {
        "school_lat": 37.5641223174494,
        "school_lon": 127.060523298508,
        "school_type": "초등학교",
        "school_name": "서울군자초등학교",
        "distance": 416.46958508589614,
        "walking_time": "약 7분"
      },
      {
        "school_lat": 37.5728706947252,
        "school_lon": 127.058958260045,
        "school_type": "초등학교",
        "school_name": "서울장평초등학교",
        "distance": 688.4625548625415,
        "walking_time": "약 11분"
      },
      {
        "school_lat": 37.5607271218686,
        "school_lon": 127.053760797077,
        "school_type": "초등학교",
        "school_name": "서울용답초등학교",
        "distance": 745.0617763782813,
        "walking_time": "약 12분"
      },
      {
        "school_lat": 37.5715014215127,
        "school_lon": 127.06403409435,
        "school_type": "초등학교",
        "school_name": "서울동답초등학교",
        "distance": 791.7825875330541,
        "walking_time": "약 12분"
      },
      {
        "school_lat": 37.5746852353644,
        "school_lon": 127.054397292161,
        "school_type": "초등학교",
        "school_name": "서울전농초등학교",
        "distance": 909.2867013426884,
        "walking_time": "약 14분"
      },
      {
        "school_lat": 37.5626797138007,
        "school_lon": 127.047573849243,
        "school_type": "초등학교",
        "school_name": "서울사근초등학교",
        "distance": 970.071731300908,
        "walking_time": "약 15분"
      },
      {
        "school_lat": 37.5745220668493,
        "school_lon": 127.051994343436,
        "school_type": "중학교",
        "school_name": "동대문중학교",
        "distance": 973.1359745739976,
        "walking_time": "약 15분"
      },
      {
        "school_lat": 37.5576210338606,
        "school_lon": 127.050263444631,
        "school_type": "초등학교",
        "school_name": "한양초등학교",
        "distance": 1194.9829586779792,
        "walking_time": "약 18분"
      },
      {
        "school_lat": 37.5683388716972,
        "school_lon": 127.041605053834,
        "school_type": "중학교",
        "school_name": "마장중학교",
        "distance": 1389.619642881272,
        "walking_time": "약 21분"
      }
    ],
    "self_laundromat": [
      {
        "self_laundromat_lat": 37.5662759,
        "self_laundromat_lon": 127.0523809,
        "self_laundromat_type": "셀프 빨래방",
        "self_laundromat_name": "AMPM워시큐 답십리점",
        "distance": 434.0458751587527,
        "walking_time": "약 7분"
      },
      {
        "self_laundromat_lat": 37.5662759,
        "self_laundromat_lon": 127.0523809,
        "self_laundromat_type": "셀프 빨래방",
        "self_laundromat_name": "AMPM워시큐 답십리점",
        "distance": 434.0458751587527,
        "walking_time": "약 7분"
      },
      {
        "self_laundromat_lat": 37.56490362,
        "self_laundromat_lon": 127.052308,
        "self_laundromat_type": "셀프 빨래방",
        "self_laundromat_name": "코인워시24 셀프빨래방 용답점",
        "distance": 485.7792062207959,
        "walking_time": "약 8분"
      },
      {
        "self_laundromat_lat": 37.56490362,
        "self_laundromat_lon": 127.052308,
        "self_laundromat_type": "셀프 빨래방",
        "self_laundromat_name": "코인워시24 셀프빨래방 용답점",
        "distance": 485.7792062207959,
        "walking_time": "약 8분"
      },
      {
        "self_laundromat_lat": 37.56307826,
        "self_laundromat_lon": 127.0535882,
        "self_laundromat_type": "셀프 빨래방",
        "self_laundromat_name": "우리셀프빨래방협동조합 용답점",
        "distance": 527.5974630338231,
        "walking_time": "약 8분"
      },
      {
        "self_laundromat_lat": 37.56307826,
        "self_laundromat_lon": 127.0535882,
        "self_laundromat_type": "셀프 빨래방",
        "self_laundromat_name": "우리셀프빨래방협동조합 용답점",
        "distance": 527.5974630338231,
        "walking_time": "약 8분"
      },
      {
        "self_laundromat_lat": 37.5609927,
        "self_laundromat_lon": 127.0651008,
        "self_laundromat_type": "셀프 빨래방",
        "self_laundromat_name": "AMPM워시큐 장한평역점",
        "distance": 948.218412761536,
        "walking_time": "약 15분"
      },
      {
        "self_laundromat_lat": 37.5609927,
        "self_laundromat_lon": 127.0651008,
        "self_laundromat_type": "셀프 빨래방",
        "self_laundromat_name": "AMPM워시큐 장한평역점",
        "distance": 948.218412761536,
        "walking_time": "약 15분"
      },
      {
        "self_laundromat_lat": 37.56110966,
        "self_laundromat_lon": 127.0477285,
        "self_laundromat_type": "셀프 빨래방",
        "self_laundromat_name": "화이트365 사근점",
        "distance": 1053.333774488254,
        "walking_time": "약 16분"
      },
      {
        "self_laundromat_lat": 37.56110966,
        "self_laundromat_lon": 127.0477285,
        "self_laundromat_type": "셀프 빨래방",
        "self_laundromat_name": "화이트365 사근점",
        "distance": 1053.333774488254,
        "walking_time": "약 16분"
      }
    ],
    "subway": [
      {
        "subway_lat": 37.5664458277827,
        "subway_lon": 127.05318095956,
        "subway_type": "지하철",
        "subway_name": "5호선-답십리역",
        "distance": 361.6714867523379,
        "walking_time": "약 6분"
      },
      {
        "subway_lat": 37.5620049052662,
        "subway_lon": 127.050729309179,
        "subway_type": "지하철",
        "subway_name": "2호선-용답역",
        "distance": 786.4819809667679,
        "walking_time": "약 12분"
      },
      {
        "subway_lat": 37.5620134073184,
        "subway_lon": 127.064178204478,
        "subway_type": "지하철",
        "subway_name": "5호선-장한평역",
        "distance": 811.7047595633994,
        "walking_time": "약 13분"
      },
      {
        "subway_lat": 37.5699910562183,
        "subway_lon": 127.046820203556,
        "subway_type": "지하철",
        "subway_name": "2호선-신답역",
        "distance": 984.7229723397232,
        "walking_time": "약 15분"
      },
      {
        "subway_lat": 37.5657022363224,
        "subway_lon": 127.042757434672,
        "subway_type": "지하철",
        "subway_name": "5호선-마장역",
        "distance": 1283.9986190517309,
        "walking_time": "약 20분"
      },
      {
        "subway_lat": 37.55557788354,
        "subway_lon": 127.043584493543,
        "subway_type": "지하철",
        "subway_name": "2호선-한양대역",
        "distance": 1736.974382753171,
        "walking_time": "약 26분"
      }
    ],
    "supermarket": [
      {
        "supermarket_lat": 37.56745985,
        "supermarket_lon": 127.0534875,
        "supermarket_type": "마트",
        "supermarket_name": "이마트에브리데이 답십리점",
        "distance": 339.4956342657695,
        "walking_time": "약 6분"
      },
      {
        "supermarket_lat": 37.565949,
        "supermarket_lon": 127.0617272,
        "supermarket_type": "마트",
        "supermarket_name": "노브랜드 동대문 장안점",
        "distance": 406.0241454242927,
        "walking_time": "약 7분"
      },
      {
        "supermarket_lat": 37.565949,
        "supermarket_lon": 127.0617272,
        "supermarket_type": "마트",
        "supermarket_name": "장안위더스빌",
        "distance": 406.0241454242927,
        "walking_time": "약 7분"
      },
      {
        "supermarket_lat": 37.56757575,
        "supermarket_lon": 127.0522092,
        "supermarket_type": "마트",
        "supermarket_name": "동부시장",
        "distance": 452.5161579027002,
        "walking_time": "약 7분"
      },
      {
        "supermarket_lat": 37.56036892,
        "supermarket_lon": 127.0651488,
        "supermarket_type": "마트",
        "supermarket_name": "자동차매매센타",
        "distance": 999.906310411566,
        "walking_time": "약 15분"
      },
      {
        "supermarket_lat": 37.57665904,
        "supermarket_lon": 127.0615677,
        "supermarket_type": "마트",
        "supermarket_name": "롯데쇼핑(주) 롯데슈퍼 전농점",
        "distance": 1157.3252893246574,
        "walking_time": "약 18분"
      },
      {
        "supermarket_lat": 37.57798602,
        "supermarket_lon": 127.0572688,
        "supermarket_type": "마트",
        "supermarket_name": "전농로타리시장",
        "distance": 1240.715728234917,
        "walking_time": "약 19분"
      },
      {
        "supermarket_lat": 37.57457267,
        "supermarket_lon": 127.0469013,
        "supermarket_type": "마트",
        "supermarket_name": "전농프라자",
        "distance": 1254.7658731670892,
        "walking_time": "약 19분"
      },
      {
        "supermarket_lat": 37.57789377,
        "supermarket_lon": 127.068569,
        "supermarket_type": "마트",
        "supermarket_name": "전곡시장",
        "distance": 1583.6961117738356,
        "walking_time": "약 24분"
      },
      {
        "supermarket_lat": 37.57758804,
        "supermarket_lon": 127.0428414,
        "supermarket_type": "마트",
        "supermarket_name": "청량리역 한양수자인 그라시엘 판매시설",
        "distance": 1745.1036242643836,
        "walking_time": "약 27분"
      }
    ],
    "university": [
      {
        "university_lat": 37.5545035492027,
        "university_lon": 127.046611216789,
        "university_type": "대학교",
        "university_name": "한양대학교",
        "distance": 1660.849672943527,
        "walking_time": "약 25분"
      },
      {
        "university_lat": 37.5545035492027,
        "university_lon": 127.046611216789,
        "university_type": "전문대학교(2년제)",
        "university_name": "한양여자대학교",
        "distance": 1660.849672943527,
        "walking_time": "약 25분"
      }
    ]
  }
}