{
  "클러스터_위도": 37.6570030001092,
  "클러스터_경도": 127.0408236663477,
  "클러스터_level": 4.0,
  "facilities": {
    "bus": [
      {
        "bus_lat": 37.65751282,
        "bus_lon": 127.0402286,
        "bus_type": "버스정류장",
        "bus_name": "도봉보건소",
        "distance": 77.18668196378628,
        "walking_time": "약 2분"
      },
      {
        "bus_lat": 37.65791384,
        "bus_lon": 127.0399994,
        "bus_type": "버스정류장",
        "bus_name": "도봉보건소",
        "distance": 124.59066480575368,
        "walking_time": "약 2분"
      },
      {
        "bus_lat": 37.65587,
        "bus_lon": 127.040602,
        "bus_type": "버스정류장",
        "bus_name": "창5동현대1차아파트",
        "distance": 127.48614549884702,
        "walking_time": "약 2분"
      },
      {
        "bus_lat": 37.658205,
        "bus_lon": 127.040517,
        "bus_type": "버스정류장",
        "bus_name": "도봉보건소.북한산아이파크아파트",
        "distance": 136.35536149155556,
        "walking_time": "약 3분"
      },
      {
        "bus_lat": 37.65562295,
        "bus_lon": 127.0404004,
        "bus_type": "버스정류장",
        "bus_name": "창5동현대아파트",
        "distance": 157.91352652284252,
        "walking_time": "약 3분"
      },
      {
        "bus_lat": 37.65893642,
        "bus_lon": 127.0407624,
        "bus_type": "버스정류장",
        "bus_name": "도봉보건소",
        "distance": 215.0541215826101,
        "walking_time": "약 4분"
      },
      {
        "bus_lat": 37.65907983,
        "bus_lon": 127.0421159,
        "bus_type": "버스정류장",
        "bus_name": "북한산아이파크",
        "distance": 257.4300811990232,
        "walking_time": "약 4분"
      },
      {
        "bus_lat": 37.65919257,
        "bus_lon": 127.0419097,
        "bus_type": "버스정류장",
        "bus_name": "북한산아이파크",
        "distance": 261.56676007992286,
        "walking_time": "약 4분"
      },
      {
        "bus_lat": 37.65738215,
        "bus_lon": 127.0377807,
        "bus_type": "버스정류장",
        "bus_name": "도봉구보건소앞",
        "distance": 271.1721800242284,
        "walking_time": "약 5분"
      },
      {
        "bus_lat": 37.65715781,
        "bus_lon": 127.037699,
        "bus_type": "버스정류장",
        "bus_name": "도봉구보건소앞",
        "distance": 275.6054760507443,
        "walking_time": "약 5분"
      }
    ],
    "community_center": [
      {
        "community_center_lat": 37.65793243,
        "community_center_lon": 127.0388203,
        "community_center_type": "주민센터",
        "community_center_name": "쌍문2동 자치회관",
        "distance": 204.40815770504256,
        "walking_time": "약 4분"
      },
      {
        "community_center_lat": 37.65633441,
        "community_center_lon": 127.0435868,
        "community_center_type": "주민센터",
        "community_center_name": "창5동 자치회관",
        "distance": 254.35012915923028,
        "walking_time": "약 4분"
      },
      {
        "community_center_lat": 37.65997188,
        "community_center_lon": 127.0454202,
        "community_center_type": "주민센터",
        "community_center_name": "창4동 자치회관",
        "distance": 522.2137526561744,
        "walking_time": "약 8분"
      },
      {
        "community_center_lat": 37.66422859,
        "community_center_lon": 127.0406591,
        "community_center_type": "주민센터",
        "community_center_name": "방학1동 자치회관",
        "distance": 803.5795212671532,
        "walking_time": "약 12분"
      },
      {
        "community_center_lat": 37.64837711,
        "community_center_lon": 127.0438238,
        "community_center_type": "주민센터",
        "community_center_name": "창1동 자치회관",
        "distance": 994.855887316602,
        "walking_time": "약 15분"
      },
      {
        "community_center_lat": 37.66821354,
        "community_center_lon": 127.0350512,
        "community_center_type": "주민센터",
        "community_center_name": "방학2동 자치회관",
        "distance": 1346.1365296567774,
        "walking_time": "약 21분"
      },
      {
        "community_center_lat": 37.66673618,
        "community_center_lon": 127.0515533,
        "community_center_type": "주민센터",
        "community_center_name": "상계8동 자치회관",
        "distance": 1436.4438721764136,
        "walking_time": "약 22분"
      },
      {
        "community_center_lat": 37.66967564,
        "community_center_lon": 127.046534,
        "community_center_type": "주민센터",
        "community_center_name": "도봉2동 자치회관",
        "distance": 1496.0973517121088,
        "walking_time": "약 23분"
      },
      {
        "community_center_lat": 37.64141508,
        "community_center_lon": 127.035653,
        "community_center_type": "주민센터",
        "community_center_name": "창2동 자치회관",
        "distance": 1792.0804267979338,
        "walking_time": "약 27분"
      }
    ],
    "convenience_store": [
      {
        "convenience_store_lat": 37.65693863,
        "convenience_store_lon": 127.0415177,
        "convenience_store_type": "편의점",
        "convenience_store_name": "GS25 도봉신동아점",
        "distance": 61.51437476151275,
        "walking_time": "약 1분"
      },
      {
        "convenience_store_lat": 37.65831433,
        "convenience_store_lon": 127.0410344,
        "convenience_store_type": "편의점",
        "convenience_store_name": "세븐일레븐 도봉에이치큐브점",
        "distance": 146.98855642770891,
        "walking_time": "약 3분"
      },
      {
        "convenience_store_lat": 37.656669,
        "convenience_store_lon": 127.039057,
        "convenience_store_type": "편의점",
        "convenience_store_name": "CU 쌍문사거리점",
        "distance": 159.89482820243222,
        "walking_time": "약 3분"
      },
      {
        "convenience_store_lat": 37.65575259,
        "convenience_store_lon": 127.0417263,
        "convenience_store_type": "편의점",
        "convenience_store_name": "세븐일레븐 창동어울림점",
        "distance": 160.1433099966184,
        "walking_time": "약 3분"
      },
      {
        "convenience_store_lat": 37.65884151,
        "convenience_store_lon": 127.0414976,
        "convenience_store_type": "편의점",
        "convenience_store_name": "GS25 창동파크점",
        "distance": 212.8672263848833,
        "walking_time": "약 4분"
      },
      {
        "convenience_store_lat": 37.65632683,
        "convenience_store_lon": 127.0431201,
        "convenience_store_type": "편의점",
        "convenience_store_name": "GS25 창동센터점",
        "distance": 215.6873845626621,
        "walking_time": "약 4분"
      },
      {
        "convenience_store_lat": 37.65620553,
        "convenience_store_lon": 127.0373954,
        "convenience_store_type": "편의점",
        "convenience_store_name": "GS25 쌍문보람점",
        "distance": 314.5531934683868,
        "walking_time": "약 5분"
      },
      {
        "convenience_store_lat": 37.65530592,
        "convenience_store_lon": 127.037598,
        "convenience_store_type": "편의점",
        "convenience_store_name": "GS25 쌍문명준점",
        "distance": 340.94670069120355,
        "walking_time": "약 6분"
      },
      {
        "convenience_store_lat": 37.66019445,
        "convenience_store_lon": 127.0419272,
        "convenience_store_type": "편의점",
        "convenience_store_name": "세븐일레븐 방학사거리점",
        "distance": 367.9288798812885,
        "walking_time": "약 6분"
      },
      {
        "convenience_store_lat": 37.66063107,
        "convenience_store_lon": 127.0379398,
        "convenience_store_type": "편의점",
        "convenience_store_name": "GS25 쌍문타운점",
        "distance": 476.6516563068226,
        "walking_time": "약 8분"
      }
    ],
    "daycare": [
      {
        "daycare_lat": 37.65743304,
        "daycare_lon": 127.0409518,
        "daycare_type": "어린이집",
        "daycare_name": "로뎀어린이집",
        "distance": 49.1306138121108,
        "walking_time": "약 1분"
      },
      {
        "daycare_lat": 37.65753727,
        "daycare_lon": 127.0405844,
        "daycare_type": "어린이집",
        "daycare_name": "신세인어린이집",
        "distance": 63.03144991463391,
        "walking_time": "약 1분"
      },
      {
        "daycare_lat": 37.65586588,
        "daycare_lon": 127.0406965,
        "daycare_type": "어린이집",
        "daycare_name": "꽃구름어린이집",
        "distance": 126.93658574219768,
        "walking_time": "약 2분"
      },
      {
        "daycare_lat": 37.65874718948224,
        "daycare_lon": 127.0401641439428,
        "daycare_type": "어린이집",
        "daycare_name": "쌍문2동소라어린이집",
        "distance": 202.4484399328796,
        "walking_time": "약 4분"
      },
      {
        "daycare_lat": 37.65880949876407,
        "daycare_lon": 127.03901089204844,
        "daycare_type": "어린이집",
        "daycare_name": "햇빛어린이집",
        "distance": 256.5452157483826,
        "walking_time": "약 4분"
      },
      {
        "daycare_lat": 37.65883769803541,
        "daycare_lon": 127.03894022750951,
        "daycare_type": "어린이집",
        "daycare_name": "세인어린이집",
        "distance": 262.88597605606395,
        "walking_time": "약 4분"
      },
      {
        "daycare_lat": 37.65443155,
        "daycare_lon": 127.0413746,
        "daycare_type": "어린이집",
        "daycare_name": "상아어린이집",
        "distance": 290.0163561894592,
        "walking_time": "약 5분"
      },
      {
        "daycare_lat": 37.65793995,
        "daycare_lon": 127.0440155,
        "daycare_type": "어린이집",
        "daycare_name": "리틀엔젤어린이집",
        "distance": 299.67205850901854,
        "walking_time": "약 5분"
      },
      {
        "daycare_lat": 37.65793995,
        "daycare_lon": 127.0440155,
        "daycare_type": "어린이집",
        "daycare_name": "튼튼유아스쿨어린이집",
        "distance": 299.67205850901854,
        "walking_time": "약 5분"
      },
      {
        "daycare_lat": 37.65793995,
        "daycare_lon": 127.0440155,
        "daycare_type": "어린이집",
        "daycare_name": "현대어린이집",
        "distance": 299.67205850901854,
        "walking_time": "약 5분"
      }
    ],
    "education": [
      {
        "education_lat": 37.65419928,
        "education_lon": 127.0388705,
        "education_type": "문화원",
        "education_name": "도봉문화원",
        "distance": 356.03116094141615,
        "walking_time": "약 6분"
      },
      {
        "education_lat": 37.65296162,
        "education_lon": 127.0347964,
        "education_type": "박물관/기념관",
        "education_name": "함석헌기념관",
        "distance": 695.3277491238185,
        "walking_time": "약 11분"
      },
      {
        "education_lat": 37.6590571,
        "education_lon": 127.049575,
        "education_type": "도서관",
        "education_name": "도봉아이나라도서관",
        "distance": 803.5247063608342,
        "walking_time": "약 12분"
      },
      {
        "education_lat": 37.64856049,
        "education_lon": 127.0338822,
        "education_type": "공연장",
        "education_name": "극단 대학로극장",
        "distance": 1120.143176282816,
        "walking_time": "약 17분"
      },
      {
        "education_lat": 37.64469094,
        "education_lon": 127.0437683,
        "education_type": "도서관",
        "education_name": "도봉문화정보도서관",
        "distance": 1393.3673138298782,
        "walking_time": "약 21분"
      },
      {
        "education_lat": 37.66943924,
        "education_lon": 127.0504402,
        "education_type": "도서관",
        "education_name": "상계숲속작은도서관",
        "distance": 1621.3568525352753,
        "walking_time": "약 25분"
      },
      {
        "education_lat": 37.66508643,
        "education_lon": 127.0576877,
        "education_type": "문화원",
        "education_name": "노원문화의집",
        "distance": 1735.3907182288117,
        "walking_time": "약 26분"
      }
    ],
    "electric_gas_station": [
      {
        "electric_gas_station_lat": 37.6446776,
        "electric_gas_station_lon": 127.0351607,
        "electric_gas_station_type": "전기차 충전소",
        "electric_gas_station_name": "빅마켓 도봉점",
        "distance": 1458.3863522856288,
        "walking_time": "약 22분"
      },
      {
        "electric_gas_station_lat": 37.64438255,
        "electric_gas_station_lon": 127.059922,
        "electric_gas_station_type": "전기차 충전소",
        "electric_gas_station_name": "노원에코센터",
        "distance": 2190.0695642605224,
        "walking_time": "약 33분"
      }
    ],
    "fitness": [
      {
        "fitness_lat": 37.65653619,
        "fitness_lon": 127.0404015,
        "fitness_type": "운동시설",
        "fitness_name": "N 피티짐",
        "distance": 63.839490739190815,
        "walking_time": "약 1분"
      },
      {
        "fitness_lat": 37.65638134,
        "fitness_lon": 127.0408239,
        "fitness_type": "운동시설",
        "fitness_name": "백곰 짐",
        "distance": 69.1254532999326,
        "walking_time": "약 2분"
      },
      {
        "fitness_lat": 37.65629406,
        "fitness_lon": 127.0397032,
        "fitness_type": "운동시설",
        "fitness_name": "카인드짐24시 휘트니스& 태닝",
        "distance": 126.26707231328764,
        "walking_time": "약 2분"
      },
      {
        "fitness_lat": 37.65601969,
        "fitness_lon": 127.0386993,
        "fitness_type": "운동시설",
        "fitness_name": "크로스핏 얼티메이트",
        "distance": 216.6294379989246,
        "walking_time": "약 4분"
      },
      {
        "fitness_lat": 37.65549785,
        "fitness_lon": 127.0392013,
        "fitness_type": "운동시설",
        "fitness_name": "창동점 스포애니",
        "distance": 220.0196132648563,
        "walking_time": "약 4분"
      },
      {
        "fitness_lat": 37.65565256,
        "fitness_lon": 127.0428049,
        "fitness_type": "운동시설",
        "fitness_name": "랠리포인트 짐",
        "distance": 230.1479514591184,
        "walking_time": "약 4분"
      },
      {
        "fitness_lat": 37.65477033,
        "fitness_lon": 127.0404777,
        "fitness_type": "운동시설",
        "fitness_name": "O2 Zone 헬스",
        "distance": 250.12276784075664,
        "walking_time": "약 4분"
      },
      {
        "fitness_lat": 37.65931618,
        "fitness_lon": 127.0416521,
        "fitness_type": "운동시설",
        "fitness_name": "존버짐",
        "distance": 267.3523597257846,
        "walking_time": "약 4분"
      },
      {
        "fitness_lat": 37.65470608,
        "fitness_lon": 127.0435476,
        "fitness_type": "운동시설",
        "fitness_name": "엠엠핏(MMFIT)",
        "distance": 350.33345298744587,
        "walking_time": "약 6분"
      },
      {
        "fitness_lat": 37.65821667,
        "fitness_lon": 127.0357594,
        "fitness_type": "운동시설",
        "fitness_name": "더나은내일PT스튜디오",
        "distance": 465.7877740666499,
        "walking_time": "약 7분"
      }
    ],
    "gas_station": [
      {
        "gas_station_lat": 37.65774076,
        "gas_station_lon": 127.0405236,
        "gas_station_type": "주유소",
        "gas_station_name": "한이에너지㈜ KLP제1주유소",
        "distance": 86.18306352638928,
        "walking_time": "약 2분"
      },
      {
        "gas_station_lat": 37.6540051,
        "gas_station_lon": 127.0375376,
        "gas_station_type": "주유소",
        "gas_station_name": "한이에너지㈜ 쌍문주유소",
        "distance": 441.3694369658232,
        "walking_time": "약 7분"
      },
      {
        "gas_station_lat": 37.66114444,
        "gas_station_lon": 127.0416939,
        "gas_station_type": "주유소",
        "gas_station_name": "정다운주유소",
        "distance": 466.8352894597406,
        "walking_time": "약 7분"
      },
      {
        "gas_station_lat": 37.66241831,
        "gas_station_lon": 127.0354277,
        "gas_station_type": "주유소",
        "gas_station_name": "현대오일뱅크㈜직영 영신주유소",
        "distance": 766.9492209131785,
        "walking_time": "약 12분"
      },
      {
        "gas_station_lat": 37.66151426,
        "gas_station_lon": 127.0474997,
        "gas_station_type": "주유소",
        "gas_station_name": "극동유화㈜ 대안주유소",
        "distance": 772.6578097829832,
        "walking_time": "약 12분"
      },
      {
        "gas_station_lat": 37.66310547,
        "gas_station_lon": 127.0364022,
        "gas_station_type": "주유소",
        "gas_station_name": "㈜자연에너지 햇살주유소",
        "distance": 782.2616907438172,
        "walking_time": "약 12분"
      },
      {
        "gas_station_lat": 37.66228012,
        "gas_station_lon": 127.0474415,
        "gas_station_type": "주유소",
        "gas_station_name": "오복주유소",
        "distance": 826.85584280394,
        "walking_time": "약 13분"
      },
      {
        "gas_station_lat": 37.66247972,
        "gas_station_lon": 127.0314238,
        "gas_station_type": "주유소",
        "gas_station_name": "GS칼텍스㈜ 방학동주유소",
        "distance": 1027.3916615350136,
        "walking_time": "약 16분"
      },
      {
        "gas_station_lat": 37.64684419,
        "gas_station_lon": 127.0394451,
        "gas_station_type": "주유소",
        "gas_station_name": "구도일주유소 파크빌",
        "distance": 1136.1091539420622,
        "walking_time": "약 17분"
      },
      {
        "gas_station_lat": 37.66745171,
        "gas_station_lon": 127.0435627,
        "gas_station_type": "주유소",
        "gas_station_name": "구도일주유소 도봉",
        "distance": 1186.5964181741656,
        "walking_time": "약 18분"
      }
    ],
    "hospital": [
      {
        "hospital_lat": 37.65674708,
        "hospital_lon": 127.0399447,
        "hospital_type": "병원",
        "hospital_name": "드림S치과의원",
        "distance": 82.44342658561452,
        "walking_time": "약 2분"
      },
      {
        "hospital_lat": 37.65722173,
        "hospital_lon": 127.039374,
        "hospital_type": "병원",
        "hospital_name": "효치과의원",
        "distance": 129.9124629195264,
        "walking_time": "약 2분"
      },
      {
        "hospital_lat": 37.65831433,
        "hospital_lon": 127.0410344,
        "hospital_type": "병원",
        "hospital_name": "에이치큐브병원",
        "distance": 146.98855642770891,
        "walking_time": "약 3분"
      },
      {
        "hospital_lat": 37.65831433,
        "hospital_lon": 127.0410344,
        "hospital_type": "병원",
        "hospital_name": "지인치과의원",
        "distance": 146.98855642770891,
        "walking_time": "약 3분"
      },
      {
        "hospital_lat": 37.656669,
        "hospital_lon": 127.039057,
        "hospital_type": "병원",
        "hospital_name": "고운이치과의원",
        "distance": 159.89482820243222,
        "walking_time": "약 3분"
      },
      {
        "hospital_lat": 37.656669,
        "hospital_lon": 127.039057,
        "hospital_type": "병원",
        "hospital_name": "성진한의원",
        "distance": 159.89482820243222,
        "walking_time": "약 3분"
      },
      {
        "hospital_lat": 37.656669,
        "hospital_lon": 127.039057,
        "hospital_type": "병원",
        "hospital_name": "왕영미산부인과의원",
        "distance": 159.89482820243222,
        "walking_time": "약 3분"
      },
      {
        "hospital_lat": 37.65562906,
        "hospital_lon": 127.0414879,
        "hospital_type": "병원",
        "hospital_name": "정다운가정의학과의원",
        "distance": 163.5830949423171,
        "walking_time": "약 3분"
      },
      {
        "hospital_lat": 37.65841917,
        "hospital_lon": 127.0400927,
        "hospital_type": "병원",
        "hospital_name": "정진영정형외과의원",
        "distance": 170.11066494093575,
        "walking_time": "약 3분"
      },
      {
        "hospital_lat": 37.65640546,
        "hospital_lon": 127.03879,
        "hospital_type": "병원",
        "hospital_name": "강북연세치과의원",
        "distance": 190.95867653696865,
        "walking_time": "약 3분"
      }
    ],
    "music_room": [
      {
        "music_room_lat": 37.65705048,
        "music_room_lon": 127.0401044,
        "music_room_type": "노래방",
        "music_room_name": "MS 노래연습장",
        "distance": 63.53747506632297,
        "walking_time": "약 1분"
      },
      {
        "music_room_lat": 37.6566157,
        "music_room_lon": 127.0402844,
        "music_room_type": "노래방",
        "music_room_name": "인코인노래연습장",
        "distance": 64.0958929031799,
        "walking_time": "약 1분"
      },
      {
        "music_room_lat": 37.65725751,
        "music_room_lon": 127.0401657,
        "music_room_type": "노래방",
        "music_room_name": "퀸 노래연습장",
        "distance": 64.46539051631967,
        "walking_time": "약 1분"
      },
      {
        "music_room_lat": 37.65638134,
        "music_room_lon": 127.0408239,
        "music_room_type": "노래방",
        "music_room_name": "드림 노래연습장",
        "distance": 69.1254532999326,
        "walking_time": "약 2분"
      },
      {
        "music_room_lat": 37.65685969,
        "music_room_lon": 127.0400051,
        "music_room_type": "노래방",
        "music_room_name": "큐 노래연습장",
        "distance": 73.8002811395934,
        "walking_time": "약 2분"
      },
      {
        "music_room_lat": 37.65623484,
        "music_room_lon": 127.0405729,
        "music_room_type": "노래방",
        "music_room_name": "팅가팅가",
        "distance": 88.2220459723134,
        "walking_time": "약 2분"
      },
      {
        "music_room_lat": 37.65630363,
        "music_room_lon": 127.0401708,
        "music_room_type": "노래방",
        "music_room_name": "에코노래연습장",
        "distance": 96.69919598250009,
        "walking_time": "약 2분"
      },
      {
        "music_room_lat": 37.65741592,
        "music_room_lon": 127.0395596,
        "music_room_type": "노래방",
        "music_room_name": "첼로 노래연습장",
        "distance": 120.37720190383143,
        "walking_time": "약 2분"
      },
      {
        "music_room_lat": 37.65629406,
        "music_room_lon": 127.0397032,
        "music_room_type": "노래방",
        "music_room_name": "큐코인 노래연습장 창동점",
        "distance": 126.26707231328764,
        "walking_time": "약 2분"
      },
      {
        "music_room_lat": 37.65722173,
        "music_room_lon": 127.039374,
        "music_room_type": "노래방",
        "music_room_name": "샤방 노래연습장",
        "distance": 129.9124629195264,
        "walking_time": "약 2분"
      }
    ],
    "park": [
      {
        "park_lat": 37.6597135,
        "park_lon": 127.031982,
        "park_type": "공원",
        "park_name": "발바닥공원",
        "distance": 834.6442742218211,
        "walking_time": "약 13분"
      },
      {
        "park_lat": 37.6479483,
        "park_lon": 127.0405382,
        "park_type": "공원",
        "park_name": "초안산생태공원",
        "distance": 1007.1503157329872,
        "walking_time": "약 16분"
      },
      {
        "park_lat": 37.648316,
        "park_lon": 127.0455446,
        "park_type": "공원",
        "park_name": "초안산근린공원",
        "distance": 1051.5675247902786,
        "walking_time": "약 16분"
      },
      {
        "park_lat": 37.6473889,
        "park_lon": 127.0509895,
        "park_type": "공원",
        "park_name": "월천근린공원",
        "distance": 1394.206043168373,
        "walking_time": "약 21분"
      }
    ],
    "park_station": [
      {
        "park_station_lat": 37.66006842,
        "park_station_lon": 127.0408691,
        "park_station_type": "주차장",
        "park_station_name": "쌍문2동 5공영주차장",
        "distance": 340.8826031987766,
        "walking_time": "약 6분"
      },
      {
        "park_station_lat": 37.65236462,
        "park_station_lon": 127.0456545,
        "park_station_type": "주차장",
        "park_station_name": "창동역 공영주차장",
        "distance": 668.4856461754396,
        "walking_time": "약 10분"
      },
      {
        "park_station_lat": 37.65325029,
        "park_station_lon": 127.0335631,
        "park_station_type": "주차장",
        "park_station_name": "쌍문2동 2공영주차장",
        "distance": 763.324719666815,
        "walking_time": "약 12분"
      },
      {
        "park_station_lat": 37.65255522,
        "park_station_lon": 127.0489165,
        "park_station_type": "주차장",
        "park_station_name": "창동역 구청별관주차장",
        "distance": 867.2794254564247,
        "walking_time": "약 13분"
      },
      {
        "park_station_lat": 37.64915283,
        "park_station_lon": 127.0400853,
        "park_station_type": "주차장",
        "park_station_name": "초안산 창골주차장",
        "distance": 875.3160332971576,
        "walking_time": "약 14분"
      },
      {
        "park_station_lat": 37.65328299,
        "park_station_lon": 127.0513494,
        "park_station_type": "주차장",
        "park_station_name": "노원세무서 앞 공영주차장",
        "distance": 1014.75010209426,
        "walking_time": "약 16분"
      },
      {
        "park_station_lat": 37.66459353,
        "park_station_lon": 127.0339793,
        "park_station_type": "주차장",
        "park_station_name": "방학동 도깨비시장 공영주차장",
        "distance": 1037.0020558959748,
        "walking_time": "약 16분"
      },
      {
        "park_station_lat": 37.65314745,
        "park_station_lon": 127.0520485,
        "park_station_type": "주차장",
        "park_station_name": "초안산근린공원주차장",
        "distance": 1077.1527330737547,
        "walking_time": "약 17분"
      },
      {
        "park_station_lat": 37.64756826,
        "park_station_lon": 127.0359277,
        "park_station_type": "주차장",
        "park_station_name": "창동 쌍리단길 상점가 공영주차장",
        "distance": 1134.1881963042854,
        "walking_time": "약 17분"
      },
      {
        "park_station_lat": 37.64712558,
        "park_station_lon": 127.0371832,
        "park_station_type": "주차장",
        "park_station_name": "창1동 1공영주차장",
        "distance": 1144.1249595490654,
        "walking_time": "약 18분"
      }
    ],
    "pc_room": [
      {
        "pc_room_lat": 37.657415922737,
        "pc_room_lon": 127.039559615486,
        "pc_room_type": "PC방",
        "pc_room_name": "버그버그pc방",
        "distance": 120.37605780286108,
        "walking_time": "약 2분"
      },
      {
        "pc_room_lat": 37.6562940617336,
        "pc_room_lon": 127.039703171252,
        "pc_room_type": "PC방",
        "pc_room_name": "MAXSPEED PC 창동본점",
        "distance": 126.26892891003156,
        "walking_time": "약 2분"
      },
      {
        "pc_room_lat": 37.657221733121,
        "pc_room_lon": 127.039373995084,
        "pc_room_type": "PC방",
        "pc_room_name": "미화pc게임랜드",
        "distance": 129.91295299592116,
        "walking_time": "약 2분"
      },
      {
        "pc_room_lat": 37.657221733121,
        "pc_room_lon": 127.039373995084,
        "pc_room_type": "PC방",
        "pc_room_name": "블루 PC방",
        "distance": 129.91295299592116,
        "walking_time": "약 2분"
      },
      {
        "pc_room_lat": 37.6570120913861,
        "pc_room_lon": 127.039323680367,
        "pc_room_type": "PC방",
        "pc_room_name": "PLAYER",
        "distance": 132.04919756571934,
        "walking_time": "약 2분"
      },
      {
        "pc_room_lat": 37.6572922851424,
        "pc_room_lon": 127.039087653089,
        "pc_room_type": "PC방",
        "pc_room_name": "유니넷 PC방",
        "distance": 156.1714305769019,
        "walking_time": "약 3분"
      },
      {
        "pc_room_lat": 37.6573355111957,
        "pc_room_lon": 127.038878812564,
        "pc_room_type": "PC방",
        "pc_room_name": "삼보인터넷플라자",
        "distance": 175.15400321598284,
        "walking_time": "약 3분"
      },
      {
        "pc_room_lat": 37.6552942248842,
        "pc_room_lon": 127.04080868818,
        "pc_room_type": "PC방",
        "pc_room_name": "팡팡PC",
        "distance": 190.01171082607613,
        "walking_time": "약 3분"
      },
      {
        "pc_room_lat": 37.6564054566286,
        "pc_room_lon": 127.038790046328,
        "pc_room_type": "PC방",
        "pc_room_name": "런PC",
        "distance": 190.954983507318,
        "walking_time": "약 3분"
      },
      {
        "pc_room_lat": 37.6585407619914,
        "pc_room_lon": 127.039129219623,
        "pc_room_type": "PC방",
        "pc_room_name": "마린 PC방",
        "distance": 226.9084513573836,
        "walking_time": "약 4분"
      }
    ],
    "police_office": [
      {
        "police_office_lat": 37.65759555,
        "police_office_lon": 127.0380024,
        "police_office_type": "경찰소",
        "police_office_name": "쌍문파출소",
        "distance": 256.949441337128,
        "walking_time": "약 4분"
      },
      {
        "police_office_lat": 37.66450334,
        "police_office_lon": 127.0400155,
        "police_office_type": "경찰소",
        "police_office_name": "방학파출소",
        "distance": 837.02836981238,
        "walking_time": "약 13분"
      },
      {
        "police_office_lat": 37.65228715,
        "police_office_lon": 127.051715,
        "police_office_type": "경찰소",
        "police_office_name": "창동지구대",
        "distance": 1092.831996077873,
        "walking_time": "약 17분"
      },
      {
        "police_office_lat": 37.64351954,
        "police_office_lon": 127.0346164,
        "police_office_type": "경찰소",
        "police_office_name": "신창파출소",
        "distance": 1595.7819062099766,
        "walking_time": "약 24분"
      }
    ],
    "post_office": [
      {
        "post_office_lat": 37.65634292,
        "post_office_lon": 127.0377161,
        "post_office_type": "우체국",
        "post_office_name": "서울쌍문2동우체국",
        "distance": 283.238784799867,
        "walking_time": "약 5분"
      },
      {
        "post_office_lat": 37.65183368,
        "post_office_lon": 127.0427337,
        "post_office_type": "우체국",
        "post_office_name": "서울창5동우체국",
        "distance": 598.8917461094978,
        "walking_time": "약 9분"
      },
      {
        "post_office_lat": 37.66535584,
        "post_office_lon": 127.0436071,
        "post_office_type": "우체국",
        "post_office_name": "서울방학동우체국",
        "distance": 960.5672617400036,
        "walking_time": "약 15분"
      },
      {
        "post_office_lat": 37.65276817,
        "post_office_lon": 127.0513356,
        "post_office_type": "우체국",
        "post_office_name": "서울창동동아우편취급국",
        "distance": 1038.320504848523,
        "walking_time": "약 16분"
      },
      {
        "post_office_lat": 37.66561618,
        "post_office_lon": 127.034146,
        "post_office_type": "우체국",
        "post_office_name": "서울방학2동우편취급국",
        "distance": 1123.738242465104,
        "walking_time": "약 17분"
      },
      {
        "post_office_lat": 37.6641671,
        "post_office_lon": 127.0545948,
        "post_office_type": "우체국",
        "post_office_name": "서울상계8동우편취급국",
        "distance": 1450.547720692574,
        "walking_time": "약 22분"
      },
      {
        "post_office_lat": 37.653426,
        "post_office_lon": 127.0579201,
        "post_office_type": "우체국",
        "post_office_name": "서울상계6동우체국",
        "distance": 1556.7227239405292,
        "walking_time": "약 24분"
      },
      {
        "post_office_lat": 37.64492915,
        "post_office_lon": 127.0316588,
        "post_office_type": "우체국",
        "post_office_name": "서울쌍문한양우편취급국",
        "distance": 1566.3534994053382,
        "walking_time": "약 24분"
      },
      {
        "post_office_lat": 37.6468005,
        "post_office_lon": 127.059593,
        "post_office_type": "우체국",
        "post_office_name": "서울상계미도우편취급국",
        "distance": 2004.3531356511303,
        "walking_time": "약 30분"
      }
    ],
    "public_health_center": [
      {
        "public_health_center_lat": 37.65793243,
        "public_health_center_lon": 127.0388203,
        "public_health_center_type": "보건소",
        "public_health_center_name": "도봉구 보건소",
        "distance": 204.40815770504256,
        "walking_time": "약 4분"
      },
      {
        "public_health_center_lat": 37.65452284,
        "public_health_center_lon": 127.0562683,
        "public_health_center_type": "보건소",
        "public_health_center_name": "노원구보건소",
        "distance": 1387.3171768257566,
        "walking_time": "약 21분"
      },
      {
        "public_health_center_lat": 37.64141508,
        "public_health_center_lon": 127.035653,
        "public_health_center_type": "보건소",
        "public_health_center_name": "창동 보건지소",
        "distance": 1792.0804267979338,
        "walking_time": "약 27분"
      }
    ],
    "school": [
      {
        "school_lat": 37.6594678039701,
        "school_lon": 127.042950889775,
        "school_type": "초등학교",
        "school_name": "서울가인초등학교",
        "distance": 331.93699190898354,
        "walking_time": "약 5분"
      },
      {
        "school_lat": 37.6553630407375,
        "school_lon": 127.044832890478,
        "school_type": "초등학교",
        "school_name": "서울창동초등학교",
        "distance": 397.2657997745738,
        "walking_time": "약 6분"
      },
      {
        "school_lat": 37.6562806786387,
        "school_lon": 127.035622286787,
        "school_type": "중학교",
        "school_name": "백운중학교",
        "distance": 464.876152446092,
        "walking_time": "약 7분"
      },
      {
        "school_lat": 37.6526440884387,
        "school_lon": 127.039979883482,
        "school_type": "초등학교",
        "school_name": "서울창원초등학교",
        "distance": 490.34783706607016,
        "walking_time": "약 8분"
      },
      {
        "school_lat": 37.6566021823161,
        "school_lon": 127.034602499962,
        "school_type": "초등학교",
        "school_name": "서울창경초등학교",
        "distance": 549.4678061386534,
        "walking_time": "약 9분"
      },
      {
        "school_lat": 37.6580556761129,
        "school_lon": 127.047017564524,
        "school_type": "초등학교",
        "school_name": "서울자운초등학교",
        "distance": 557.674094512238,
        "walking_time": "약 9분"
      },
      {
        "school_lat": 37.6510357712645,
        "school_lon": 127.038819095625,
        "school_type": "고등학교",
        "school_name": "창동고등학교",
        "distance": 686.5918691762519,
        "walking_time": "약 11분"
      },
      {
        "school_lat": 37.6533558400471,
        "school_lon": 127.032427255133,
        "school_type": "고등학교",
        "school_name": "정의여자고등학교",
        "distance": 843.1069233294742,
        "walking_time": "약 13분"
      },
      {
        "school_lat": 37.6533558400471,
        "school_lon": 127.032427255133,
        "school_type": "중학교",
        "school_name": "정의여자중학교",
        "distance": 843.1069233294742,
        "walking_time": "약 13분"
      },
      {
        "school_lat": 37.6533558400471,
        "school_lon": 127.032427255133,
        "school_type": "초등학교",
        "school_name": "한신초등학교",
        "distance": 843.1069233294742,
        "walking_time": "약 13분"
      }
    ],
    "subway": [
      {
        "subway_lat": 37.6532084846758,
        "subway_lon": 127.04768378525,
        "subway_type": "지하철",
        "subway_name": "4호선-창동역",
        "distance": 736.7113870222117,
        "walking_time": "약 11분"
      },
      {
        "subway_lat": 37.6488498649136,
        "subway_lon": 127.034880717215,
        "subway_type": "지하철",
        "subway_name": "4호선-쌍문역",
        "distance": 1046.724002430365,
        "walking_time": "약 16분"
      },
      {
        "subway_lat": 37.6650864331785,
        "subway_lon": 127.057687709213,
        "subway_type": "지하철",
        "subway_name": "7호선-마들역",
        "distance": 1735.3915949890463,
        "walking_time": "약 26분"
      }
    ],
    "supermarket": [
      {
        "supermarket_lat": 37.65371821,
        "supermarket_lon": 127.0413661,
        "supermarket_type": "마트",
        "supermarket_name": "GS THE FRESH 창동점",
        "distance": 368.3602572389495,
        "walking_time": "약 6분"
      },
      {
        "supermarket_lat": 37.65909265,
        "supermarket_lon": 127.0353085,
        "supermarket_type": "마트",
        "supermarket_name": "롯데슈퍼 쌍문점",
        "distance": 538.2376514874793,
        "walking_time": "약 9분"
      },
      {
        "supermarket_lat": 37.66141801,
        "supermarket_lon": 127.038134,
        "supermarket_type": "마트",
        "supermarket_name": "금강아미움쇼핑센터",
        "distance": 545.0391612448767,
        "walking_time": "약 9분"
      },
      {
        "supermarket_lat": 37.65163612,
        "supermarket_lon": 127.0466993,
        "supermarket_type": "마트",
        "supermarket_name": "(주) 이마트 창동점",
        "distance": 789.7397772049682,
        "walking_time": "약 12분"
      },
      {
        "supermarket_lat": 37.66481089,
        "supermarket_lon": 127.0436865,
        "supermarket_type": "마트",
        "supermarket_name": "홈플러스(주)방학점",
        "distance": 904.0319892279748,
        "walking_time": "약 14분"
      },
      {
        "supermarket_lat": 37.64641958,
        "supermarket_lon": 127.0371393,
        "supermarket_type": "마트",
        "supermarket_name": "롯데프레쉬 창동점",
        "distance": 1220.7055433583337,
        "walking_time": "약 19분"
      },
      {
        "supermarket_lat": 37.64333589,
        "supermarket_lon": 127.0350214,
        "supermarket_type": "마트",
        "supermarket_name": "(주)에브리데이리테일 창동점",
        "distance": 1603.2692637293485,
        "walking_time": "약 24분"
      },
      {
        "supermarket_lat": 37.64333589,
        "supermarket_lon": 127.0350214,
        "supermarket_type": "마트",
        "supermarket_name": "(주)이마트에브리데이 창동점",
        "distance": 1603.2692637293485,
        "walking_time": "약 24분"
      },
      {
        "supermarket_lat": 37.64333589,
        "supermarket_lon": 127.0350214,
        "supermarket_type": "마트",
        "supermarket_name": "(주)에브리데이리테일 창동점",
        "distance": 1603.2692637293485,
        "walking_time": "약 24분"
      },
      {
        "supermarket_lat": 37.64260638,
        "supermarket_lon": 127.0373306,
        "supermarket_type": "마트",
        "supermarket_name": "대우상가",
        "distance": 1630.1023876067215,
        "walking_time": "약 25분"
      }
    ],
    "tax_office": [
      {
        "tax_office_lat": 37.65345168,
        "tax_office_lon": 127.0515046,
        "tax_office_type": "세무서",
        "tax_office_name": "노원세무서",
        "distance": 1019.8316453928064,
        "walking_time": "약 16분"
      }
    ],
    "theater": [
      {
        "theater_lat": 37.6546022496976,
        "theater_lon": 127.038732219793,
        "theater_type": "영화관",
        "theater_name": "메가박스 창동",
        "distance": 324.28596560554485,
        "walking_time": "약 5분"
      }
    ]
  }
}