{
  "클러스터_위도": 37.47228299999999,
  "클러스터_경도": 126.97812100000002,
  "클러스터_level": 4.0,
  "facilities": {
    "bus": [
      {
        "bus_lat": 37.472373,
        "bus_lon": 126.98253,
        "bus_type": "버스정류장",
        "bus_name": "남현동홈플러스앞",
        "distance": 389.2209376428891,
        "walking_time": "약 6분"
      },
      {
        "bus_lat": 37.4748086,
        "bus_lon": 126.9815173,
        "bus_type": "버스정류장",
        "bus_name": "사당역4번출구B",
        "distance": 410.7286193309933,
        "walking_time": "약 7분"
      },
      {
        "bus_lat": 37.47423546,
        "bus_lon": 126.9821182,
        "bus_type": "버스정류장",
        "bus_name": "사당역",
        "distance": 414.2031250191577,
        "walking_time": "약 7분"
      },
      {
        "bus_lat": 37.47500152,
        "bus_lon": 126.981484,
        "bus_type": "버스정류장",
        "bus_name": "사당역4번출구A",
        "distance": 423.6198684334748,
        "walking_time": "약 7분"
      },
      {
        "bus_lat": 37.47482331,
        "bus_lon": 126.9817224,
        "bus_type": "버스정류장",
        "bus_name": "사당역",
        "distance": 425.20175278269016,
        "walking_time": "약 7분"
      },
      {
        "bus_lat": 37.47637096,
        "bus_lon": 126.9773009,
        "bus_type": "버스정류장",
        "bus_name": "남서울농협남현동지점",
        "distance": 460.2855692552639,
        "walking_time": "약 7분"
      },
      {
        "bus_lat": 37.47554085,
        "bus_lon": 126.981359,
        "bus_type": "버스정류장",
        "bus_name": "사당역4번출구",
        "distance": 461.3897055793174,
        "walking_time": "약 7분"
      },
      {
        "bus_lat": 37.47507949,
        "bus_lon": 126.9820179,
        "bus_type": "버스정류장",
        "bus_name": "사당역3번출구",
        "distance": 463.633499127529,
        "walking_time": "약 7분"
      },
      {
        "bus_lat": 37.47130059,
        "bus_lon": 126.9832946,
        "bus_type": "버스정류장",
        "bus_name": "사당자동차학원",
        "distance": 469.45752493840655,
        "walking_time": "약 8분"
      },
      {
        "bus_lat": 37.47683189,
        "bus_lon": 126.9778215,
        "bus_type": "버스정류장",
        "bus_name": "사당1동상점가",
        "distance": 506.50353292385313,
        "walking_time": "약 8분"
      }
    ],
    "community_center": [
      {
        "community_center_lat": 37.47468786,
        "community_center_lon": 126.9778753,
        "community_center_type": "주민센터",
        "community_center_name": "남현동 자치회관",
        "distance": 268.2858482429402,
        "walking_time": "약 5분"
      },
      {
        "community_center_lat": 37.47977264,
        "community_center_lon": 126.9855596,
        "community_center_type": "주민센터",
        "community_center_name": "방배2동 자치회관",
        "distance": 1060.405793371901,
        "walking_time": "약 16분"
      },
      {
        "community_center_lat": 37.48097575,
        "community_center_lon": 126.9716337,
        "community_center_type": "주민센터",
        "community_center_name": "사당4동 자치회관",
        "distance": 1123.3947015578638,
        "walking_time": "약 17분"
      },
      {
        "community_center_lat": 37.47509931,
        "community_center_lon": 126.9653243,
        "community_center_type": "주민센터",
        "community_center_name": "인헌동 자치회관",
        "distance": 1171.8991202601587,
        "walking_time": "약 18분"
      },
      {
        "community_center_lat": 37.48310498,
        "community_center_lon": 126.9787779,
        "community_center_type": "주민센터",
        "community_center_name": "사당1동 자치회관",
        "distance": 1204.7446369276072,
        "walking_time": "약 18분"
      },
      {
        "community_center_lat": 37.48663654,
        "community_center_lon": 126.9720917,
        "community_center_type": "주민센터",
        "community_center_name": "사당3동 자치회관",
        "distance": 1682.3806388001212,
        "walking_time": "약 26분"
      },
      {
        "community_center_lat": 37.48566276,
        "community_center_lon": 126.9669792,
        "community_center_type": "주민센터",
        "community_center_name": "사당5동 자치회관",
        "distance": 1783.2722933421278,
        "walking_time": "약 27분"
      },
      {
        "community_center_lat": 37.4887124,
        "community_center_lon": 126.9792525,
        "community_center_type": "주민센터",
        "community_center_name": "사당2동 자치회관",
        "distance": 1829.5922584997368,
        "walking_time": "약 28분"
      }
    ],
    "convenience_store": [
      {
        "convenience_store_lat": 37.47334533,
        "convenience_store_lon": 126.9759233,
        "convenience_store_type": "편의점",
        "convenience_store_name": "GS25 관악남현점",
        "distance": 227.0864528778658,
        "walking_time": "약 4분"
      },
      {
        "convenience_store_lat": 37.47430223,
        "convenience_store_lon": 126.9760143,
        "convenience_store_type": "편의점",
        "convenience_store_name": "세븐일레븐 관악남현길점",
        "distance": 291.50728578119515,
        "walking_time": "약 5분"
      },
      {
        "convenience_store_lat": 37.47207752,
        "convenience_store_lon": 126.9746146,
        "convenience_store_type": "편의점",
        "convenience_store_name": "세븐일레븐 남현영미점",
        "distance": 310.2812202352372,
        "walking_time": "약 5분"
      },
      {
        "convenience_store_lat": 37.47506072,
        "convenience_store_lon": 126.9800194,
        "convenience_store_type": "편의점",
        "convenience_store_name": "CU 사당남현점",
        "distance": 351.37721733552496,
        "walking_time": "약 6분"
      },
      {
        "convenience_store_lat": 37.47487635,
        "convenience_store_lon": 126.9804394,
        "convenience_store_type": "편의점",
        "convenience_store_name": "GS25 남현번영점",
        "distance": 353.5740021109913,
        "walking_time": "약 6분"
      },
      {
        "convenience_store_lat": 37.472657,
        "convenience_store_lon": 126.9822289,
        "convenience_store_type": "편의점",
        "convenience_store_name": "세븐일레븐 관악과천대로점",
        "distance": 364.8971837212673,
        "walking_time": "약 6분"
      },
      {
        "convenience_store_lat": 37.4728956,
        "convenience_store_lon": 126.9740523,
        "convenience_store_type": "편의점",
        "convenience_store_name": "CU 관악대성점",
        "distance": 365.4639794357603,
        "walking_time": "약 6분"
      },
      {
        "convenience_store_lat": 37.47437717,
        "convenience_store_lon": 126.9814302,
        "convenience_store_type": "편의점",
        "convenience_store_name": "세븐일레븐 남현르메이에르점",
        "distance": 373.5059229019973,
        "walking_time": "약 6분"
      },
      {
        "convenience_store_lat": 37.47218016,
        "convenience_store_lon": 126.973852,
        "convenience_store_type": "편의점",
        "convenience_store_name": "세븐일레븐 남현본점",
        "distance": 376.91132005811966,
        "walking_time": "약 6분"
      },
      {
        "convenience_store_lat": 37.47162808,
        "convenience_store_lon": 126.9737123,
        "convenience_store_type": "편의점",
        "convenience_store_name": "세븐일레븐 남현본점",
        "distance": 395.8244528697503,
        "walking_time": "약 6분"
      }
    ],
    "daycare": [
      {
        "daycare_lat": 37.47427975,
        "daycare_lon": 126.97762284478024,
        "daycare_type": "어린이집",
        "daycare_name": "남성교회어린이집",
        "distance": 226.3387885297089,
        "walking_time": "약 4분"
      },
      {
        "daycare_lat": 37.47455595,
        "daycare_lon": 126.9778736,
        "daycare_type": "어린이집",
        "daycare_name": "구립예촌어린이집",
        "distance": 253.6817453474536,
        "walking_time": "약 4분"
      },
      {
        "daycare_lat": 37.47269935,
        "daycare_lon": 126.9752695,
        "daycare_type": "어린이집",
        "daycare_name": "꿈꾸는새싹어린이집",
        "distance": 255.86625307172244,
        "walking_time": "약 4분"
      },
      {
        "daycare_lat": 37.47343088,
        "daycare_lon": 126.9810192,
        "daycare_type": "어린이집",
        "daycare_name": "남현한소망어린이집",
        "distance": 285.8431356105153,
        "walking_time": "약 5분"
      },
      {
        "daycare_lat": 37.47513111,
        "daycare_lon": 126.9774676,
        "daycare_type": "어린이집",
        "daycare_name": "남현어린이집",
        "distance": 321.9018146789662,
        "walking_time": "약 5분"
      },
      {
        "daycare_lat": 37.47162861861218,
        "daycare_lon": 126.9737143435629,
        "daycare_type": "어린이집",
        "daycare_name": "선한어린이집",
        "distance": 395.6361676704552,
        "walking_time": "약 6분"
      },
      {
        "daycare_lat": 37.471629949898094,
        "daycare_lon": 126.97371229811264,
        "daycare_type": "어린이집",
        "daycare_name": "큰나무이야기어린이집",
        "distance": 395.7864108791469,
        "walking_time": "약 6분"
      },
      {
        "daycare_lat": 37.47579561,
        "daycare_lon": 126.9771814,
        "daycare_type": "어린이집",
        "daycare_name": "꼬마숲어린이집",
        "distance": 399.2887098730162,
        "walking_time": "약 6분"
      },
      {
        "daycare_lat": 37.47410984,
        "daycare_lon": 126.9825993,
        "daycare_type": "어린이집",
        "daycare_name": "우성어린이집",
        "distance": 444.3530849545723,
        "walking_time": "약 7분"
      },
      {
        "daycare_lat": 37.47421546,
        "daycare_lon": 126.9828739,
        "daycare_type": "어린이집",
        "daycare_name": "방배안데르센어린이집",
        "distance": 471.27482122897374,
        "walking_time": "약 8분"
      }
    ],
    "education": [
      {
        "education_lat": 37.47605354,
        "education_lon": 126.9794659,
        "education_type": "미술관/갤러리",
        "education_name": "서울시립 남서울미술관",
        "distance": 435.73953138436457,
        "walking_time": "약 7분"
      },
      {
        "education_lat": 37.47888804,
        "education_lon": 126.9732442,
        "education_type": "도서관",
        "education_name": "다울작은도서관",
        "distance": 851.2456426272131,
        "walking_time": "약 13분"
      },
      {
        "education_lat": 37.48471669,
        "education_lon": 126.9696126,
        "education_type": "문화원",
        "education_name": "동작문화원 사당분원",
        "distance": 1573.2712580174634,
        "walking_time": "약 24분"
      },
      {
        "education_lat": 37.48408142,
        "education_lon": 126.9673507,
        "education_type": "도서관",
        "education_name": "사당솔밭도서관",
        "distance": 1620.0016262888842,
        "walking_time": "약 25분"
      },
      {
        "education_lat": 37.48838656,
        "education_lon": 126.9775464,
        "education_type": "도서관",
        "education_name": "구립동작샘터도서관",
        "distance": 1791.351866850576,
        "walking_time": "약 27분"
      }
    ],
    "electric_gas_station": [
      {
        "electric_gas_station_lat": 37.4752427,
        "electric_gas_station_lon": 126.9839861,
        "electric_gas_station_type": "전기차 충전소",
        "electric_gas_station_name": "사당역 공영주차장",
        "distance": 613.3521271729555,
        "walking_time": "약 10분"
      }
    ],
    "fitness": [
      {
        "fitness_lat": 37.47537657,
        "fitness_lon": 126.9792451,
        "fitness_type": "운동시설",
        "fitness_name": "교통문화교육원 헬스크럽",
        "distance": 358.00717464320974,
        "walking_time": "약 6분"
      },
      {
        "fitness_lat": 37.47437717,
        "fitness_lon": 126.9814302,
        "fitness_type": "운동시설",
        "fitness_name": "피트니스메이트",
        "distance": 373.5059229019973,
        "walking_time": "약 6분"
      },
      {
        "fitness_lat": 37.47501216,
        "fitness_lon": 126.9811766,
        "fitness_type": "운동시설",
        "fitness_name": "크로스핏 타우너",
        "distance": 405.9614570599072,
        "walking_time": "약 7분"
      },
      {
        "fitness_lat": 37.47598964,
        "fitness_lon": 126.9769285,
        "fitness_type": "운동시설",
        "fitness_name": "프리원핏 사당점",
        "distance": 425.382086015859,
        "walking_time": "약 7분"
      },
      {
        "fitness_lat": 37.47613564,
        "fitness_lon": 126.9790706,
        "fitness_type": "운동시설",
        "fitness_name": "짐박스피트니스 사당2호점",
        "distance": 436.513254813615,
        "walking_time": "약 7분"
      },
      {
        "fitness_lat": 37.47640216,
        "fitness_lon": 126.9780989,
        "fitness_type": "운동시설",
        "fitness_name": "사당역점 스포애니 (주)케이디헬스케어",
        "distance": 458.03384606829854,
        "walking_time": "약 7분"
      },
      {
        "fitness_lat": 37.47640995,
        "fitness_lon": 126.9778009,
        "fitness_type": "운동시설",
        "fitness_name": "근육터짐 지방빠짐",
        "distance": 459.7644986298448,
        "walking_time": "약 7분"
      },
      {
        "fitness_lat": 37.4755296,
        "fitness_lon": 126.9739662,
        "fitness_type": "운동시설",
        "fitness_name": "천프로짐",
        "distance": 514.5466392003907,
        "walking_time": "약 8분"
      },
      {
        "fitness_lat": 37.47692141,
        "fitness_lon": 126.9785639,
        "fitness_type": "운동시설",
        "fitness_name": "주-포스트",
        "distance": 517.2464400409862,
        "walking_time": "약 8분"
      },
      {
        "fitness_lat": 37.47701279,
        "fitness_lon": 126.9824758,
        "fitness_type": "운동시설",
        "fitness_name": "닥터 펠리체 짐",
        "distance": 651.3718523114688,
        "walking_time": "약 10분"
      }
    ],
    "gas_station": [
      {
        "gas_station_lat": 37.472657,
        "gas_station_lon": 126.9822289,
        "gas_station_type": "주유소",
        "gas_station_name": "SK에너지㈜대공원주유소",
        "distance": 364.8971837212673,
        "walking_time": "약 6분"
      },
      {
        "gas_station_lat": 37.46683359,
        "gas_station_lon": 126.9879728,
        "gas_station_type": "주유소",
        "gas_station_name": "(주)대농석유 남태령주유소",
        "distance": 1059.7703666366026,
        "walking_time": "약 16분"
      },
      {
        "gas_station_lat": 37.47816413,
        "gas_station_lon": 126.9877632,
        "gas_station_type": "주유소",
        "gas_station_name": "방배동주유소",
        "distance": 1073.154874067652,
        "walking_time": "약 17분"
      },
      {
        "gas_station_lat": 37.4831195,
        "gas_station_lon": 126.9815309,
        "gas_station_type": "주유소",
        "gas_station_name": "현대오일뱅크㈜직영사당셀프주유소",
        "distance": 1241.96575044779,
        "walking_time": "약 19분"
      },
      {
        "gas_station_lat": 37.47722191,
        "gas_station_lon": 126.9623899,
        "gas_station_type": "주유소",
        "gas_station_name": "서일석유㈜락성주유소",
        "distance": 1492.899275465058,
        "walking_time": "약 23분"
      },
      {
        "gas_station_lat": 37.48870348,
        "gas_station_lon": 126.98197,
        "gas_station_type": "주유소",
        "gas_station_name": "㈜성림에너지 남성주유소",
        "distance": 1857.1936681570887,
        "walking_time": "약 28분"
      }
    ],
    "hospital": [
      {
        "hospital_lat": 37.47430223,
        "hospital_lon": 126.9760143,
        "hospital_type": "병원",
        "hospital_name": "남현한의원",
        "distance": 291.50728578119515,
        "walking_time": "약 5분"
      },
      {
        "hospital_lat": 37.47496784,
        "hospital_lon": 126.9766505,
        "hospital_type": "병원",
        "hospital_name": "본디올홍제한의원",
        "distance": 325.5248067472982,
        "walking_time": "약 5분"
      },
      {
        "hospital_lat": 37.47496784,
        "hospital_lon": 126.9766505,
        "hospital_type": "병원",
        "hospital_name": "신일치과의원",
        "distance": 325.5248067472982,
        "walking_time": "약 5분"
      },
      {
        "hospital_lat": 37.47437717,
        "hospital_lon": 126.9814302,
        "hospital_type": "병원",
        "hospital_name": "BJ라임의원",
        "distance": 373.5059229019973,
        "walking_time": "약 6분"
      },
      {
        "hospital_lat": 37.47437717,
        "hospital_lon": 126.9814302,
        "hospital_type": "병원",
        "hospital_name": "오씨전통한의원",
        "distance": 373.5059229019973,
        "walking_time": "약 6분"
      },
      {
        "hospital_lat": 37.47596335,
        "hospital_lon": 126.9784472,
        "hospital_type": "병원",
        "hospital_name": "약손한의원",
        "distance": 410.2474358581681,
        "walking_time": "약 7분"
      },
      {
        "hospital_lat": 37.47606258,
        "hospital_lon": 126.9776715,
        "hospital_type": "병원",
        "hospital_name": "늘푸른소아청소년과의원",
        "distance": 422.1379640414772,
        "walking_time": "약 7분"
      },
      {
        "hospital_lat": 37.47606258,
        "hospital_lon": 126.9776715,
        "hospital_type": "병원",
        "hospital_name": "더웰샘한방병원",
        "distance": 422.1379640414772,
        "walking_time": "약 7분"
      },
      {
        "hospital_lat": 37.47606258,
        "hospital_lon": 126.9776715,
        "hospital_type": "병원",
        "hospital_name": "박진억신경정신과의원",
        "distance": 422.1379640414772,
        "walking_time": "약 7분"
      },
      {
        "hospital_lat": 37.47606258,
        "hospital_lon": 126.9776715,
        "hospital_type": "병원",
        "hospital_name": "서울하이안치과의원",
        "distance": 422.1379640414772,
        "walking_time": "약 7분"
      }
    ],
    "music_room": [
      {
        "music_room_lat": 37.47573084,
        "music_room_lon": 126.9797135,
        "music_room_type": "노래방",
        "music_room_name": "짱노래연습장",
        "distance": 408.3281467673884,
        "walking_time": "약 7분"
      },
      {
        "music_room_lat": 37.47537856,
        "music_room_lon": 126.9808621,
        "music_room_type": "노래방",
        "music_room_name": "몰디브 노래연습장",
        "distance": 420.707234330406,
        "walking_time": "약 7분"
      },
      {
        "music_room_lat": 37.47559258,
        "music_room_lon": 126.9804987,
        "music_room_type": "노래방",
        "music_room_name": "세븐",
        "distance": 423.6241163151109,
        "walking_time": "약 7분"
      },
      {
        "music_room_lat": 37.47624562,
        "music_room_lon": 126.9774208,
        "music_room_type": "노래방",
        "music_room_name": "윈스타코인 노래연습장",
        "distance": 444.9347531232205,
        "walking_time": "약 7분"
      },
      {
        "music_room_lat": 37.47628876,
        "music_room_lon": 126.9778021,
        "music_room_type": "노래방",
        "music_room_name": "꾀꼬리 노래연습장",
        "distance": 446.3083236084472,
        "walking_time": "약 7분"
      },
      {
        "music_room_lat": 37.47600347,
        "music_room_lon": 126.9801454,
        "music_room_type": "노래방",
        "music_room_name": "궁노래연습장",
        "distance": 450.6225187419553,
        "walking_time": "약 7분"
      },
      {
        "music_room_lat": 37.47571067,
        "music_room_lon": 126.980899,
        "music_room_type": "노래방",
        "music_room_name": "영상",
        "distance": 453.1740515122856,
        "walking_time": "약 7분"
      },
      {
        "music_room_lat": 37.4755281,
        "music_room_lon": 126.9812752,
        "music_room_type": "노래방",
        "music_room_name": "ON코인노래연습장",
        "distance": 455.723307091508,
        "walking_time": "약 7분"
      },
      {
        "music_room_lat": 37.47637403,
        "music_room_lon": 126.9775254,
        "music_room_type": "노래방",
        "music_room_name": "앵콜",
        "distance": 457.9281453437769,
        "walking_time": "약 7분"
      },
      {
        "music_room_lat": 37.47595506,
        "music_room_lon": 126.9805723,
        "music_room_type": "노래방",
        "music_room_name": "밀레니엄",
        "distance": 462.07729961324657,
        "walking_time": "약 7분"
      }
    ],
    "park": [
      {
        "park_lat": 37.4860183,
        "park_lon": 126.9743686,
        "park_type": "공원",
        "park_name": "삼일근린공원",
        "distance": 1562.7766308534574,
        "walking_time": "약 24분"
      },
      {
        "park_lat": 37.4845836,
        "park_lon": 126.9640735,
        "park_type": "공원",
        "park_name": "까치산근린공원",
        "distance": 1845.90042032697,
        "walking_time": "약 28분"
      }
    ],
    "park_station": [
      {
        "park_station_lat": 37.47739102,
        "park_station_lon": 126.977131,
        "park_station_type": "주차장",
        "park_station_name": "한누리",
        "distance": 574.665539761736,
        "walking_time": "약 9분"
      },
      {
        "park_station_lat": 37.47539826,
        "park_station_lon": 126.983669,
        "park_station_type": "주차장",
        "park_station_name": "사당노외 공영주차장",
        "distance": 599.750368473355,
        "walking_time": "약 9분"
      },
      {
        "park_station_lat": 37.47808581,
        "park_station_lon": 126.982573,
        "park_station_type": "주차장",
        "park_station_name": "방배복개도로 제1지역 공영주차장",
        "distance": 755.4382570101928,
        "walking_time": "약 12분"
      },
      {
        "park_station_lat": 37.47808581,
        "park_station_lon": 126.982573,
        "park_station_type": "주차장",
        "park_station_name": "방배복개도로 제1지역 공영주차장",
        "distance": 755.4382570101928,
        "walking_time": "약 12분"
      },
      {
        "park_station_lat": 37.48108063,
        "park_station_lon": 126.9716232,
        "park_station_type": "주차장",
        "park_station_name": "공유) 은행나무골",
        "distance": 1133.9126491216998,
        "walking_time": "약 17분"
      },
      {
        "park_station_lat": 37.48341726,
        "park_station_lon": 126.9797329,
        "park_station_type": "주차장",
        "park_station_name": "공유) 사당1동 가블럭",
        "distance": 1246.2171652828674,
        "walking_time": "약 19분"
      },
      {
        "park_station_lat": 37.48350209,
        "park_station_lon": 126.9775051,
        "park_station_type": "주차장",
        "park_station_name": "공유) 사당1동 가블럭",
        "distance": 1248.689209541928,
        "walking_time": "약 19분"
      },
      {
        "park_station_lat": 37.4826613,
        "park_station_lon": 126.9702992,
        "park_station_type": "주차장",
        "park_station_name": "엔젤데이케이센터 지하주차장",
        "distance": 1344.6771161522347,
        "walking_time": "약 21분"
      },
      {
        "park_station_lat": 37.48485179,
        "park_station_lon": 126.973501,
        "park_station_type": "주차장",
        "park_station_name": "공유) 사당3동 다블럭",
        "distance": 1455.8323409232014,
        "walking_time": "약 22분"
      },
      {
        "park_station_lat": 37.48585551,
        "park_station_lon": 126.9727367,
        "park_station_type": "주차장",
        "park_station_name": "공유) 사당3동 다112",
        "distance": 1582.215388216429,
        "walking_time": "약 24분"
      }
    ],
    "pc_room": [
      {
        "pc_room_lat": 37.4760625825389,
        "pc_room_lon": 126.977671473431,
        "pc_room_type": "PC방",
        "pc_room_name": "레드포스PC아레나 사당점",
        "distance": 422.13846543182586,
        "walking_time": "약 7분"
      },
      {
        "pc_room_lat": 37.4769040573805,
        "pc_room_lon": 126.977787556475,
        "pc_room_type": "PC방",
        "pc_room_name": "쇼PC방",
        "distance": 514.6799798039203,
        "walking_time": "약 8분"
      },
      {
        "pc_room_lat": 37.4769214100582,
        "pc_room_lon": 126.97856389888,
        "pc_room_type": "PC방",
        "pc_room_name": "아이센스리그PC방 사당점",
        "distance": 517.2464390262274,
        "walking_time": "약 8분"
      },
      {
        "pc_room_lat": 37.4768743718646,
        "pc_room_lon": 126.977094087349,
        "pc_room_type": "PC방",
        "pc_room_name": "굿센스 PC방",
        "distance": 518.5177055997904,
        "walking_time": "약 8분"
      },
      {
        "pc_room_lat": 37.4775674793661,
        "pc_room_lon": 126.977833486886,
        "pc_room_type": "PC방",
        "pc_room_name": "인터넷카페 YAK",
        "distance": 588.1548037143243,
        "walking_time": "약 9분"
      },
      {
        "pc_room_lat": 37.4779140699266,
        "pc_room_lon": 126.980214576913,
        "pc_room_type": "PC방",
        "pc_room_name": "몽키아일랜드 PC방",
        "distance": 652.8338398408989,
        "walking_time": "약 10분"
      },
      {
        "pc_room_lat": 37.478418816822,
        "pc_room_lon": 126.979691780913,
        "pc_room_type": "PC방",
        "pc_room_name": "돼지PC",
        "distance": 696.2103278266593,
        "walking_time": "약 11분"
      },
      {
        "pc_room_lat": 37.4782852413538,
        "pc_room_lon": 126.98048898118,
        "pc_room_type": "PC방",
        "pc_room_name": "파라다이스 PC방",
        "distance": 699.3670071953571,
        "walking_time": "약 11분"
      },
      {
        "pc_room_lat": 37.4785067233821,
        "pc_room_lon": 126.981129392759,
        "pc_room_type": "PC방",
        "pc_room_name": "3POP PC CAFE",
        "distance": 741.220004810257,
        "walking_time": "약 12분"
      },
      {
        "pc_room_lat": 37.4790901756328,
        "pc_room_lon": 126.979789394488,
        "pc_room_type": "PC방",
        "pc_room_name": "시즌아이 PC방",
        "distance": 771.1090979629173,
        "walking_time": "약 12분"
      }
    ],
    "police_office": [
      {
        "police_office_lat": 37.47468786,
        "police_office_lon": 126.9778753,
        "police_office_type": "경찰소",
        "police_office_name": "남현파출소",
        "distance": 268.2858482429402,
        "walking_time": "약 5분"
      },
      {
        "police_office_lat": 37.47951548,
        "police_office_lon": 126.982172,
        "police_office_type": "경찰소",
        "police_office_name": "남태령지구대",
        "distance": 880.0881578494993,
        "walking_time": "약 14분"
      },
      {
        "police_office_lat": 37.480544,
        "police_office_lon": 126.9795302,
        "police_office_type": "경찰소",
        "police_office_name": "사당지구대",
        "distance": 926.9604186494272,
        "walking_time": "약 14분"
      },
      {
        "police_office_lat": 37.48412318,
        "police_office_lon": 126.9732631,
        "police_office_type": "경찰소",
        "police_office_name": "남성지구대",
        "distance": 1384.598269762521,
        "walking_time": "약 21분"
      }
    ],
    "post_office": [
      {
        "post_office_lat": 37.4748411,
        "post_office_lon": 126.9782377,
        "post_office_type": "우체국",
        "post_office_name": "서울남현동우편취급국",
        "distance": 284.6341125437095,
        "walking_time": "약 5분"
      },
      {
        "post_office_lat": 37.47720022,
        "post_office_lon": 126.98462,
        "post_office_type": "우체국",
        "post_office_name": "서울방배2동우편취급국",
        "distance": 792.3869872172,
        "walking_time": "약 12분"
      },
      {
        "post_office_lat": 37.4665469,
        "post_office_lon": 126.9872769,
        "post_office_type": "우체국",
        "post_office_name": "제22군사우편출장소",
        "distance": 1029.4379203131234,
        "walking_time": "약 16분"
      },
      {
        "post_office_lat": 37.48337906,
        "post_office_lon": 126.9814111,
        "post_office_type": "우체국",
        "post_office_name": "서울사당동우체국",
        "distance": 1267.523637473005,
        "walking_time": "약 19분"
      },
      {
        "post_office_lat": 37.47601646,
        "post_office_lon": 126.9630057,
        "post_office_type": "우체국",
        "post_office_name": "서울낙성대우편취급국",
        "distance": 1396.9947364880045,
        "walking_time": "약 21분"
      },
      {
        "post_office_lat": 37.48459793,
        "post_office_lon": 126.9706653,
        "post_office_type": "우체국",
        "post_office_name": "서울사당5동우편취급국",
        "distance": 1519.205057595767,
        "walking_time": "약 23분"
      },
      {
        "post_office_lat": 37.48864862,
        "post_office_lon": 126.9778247,
        "post_office_type": "우체국",
        "post_office_name": "서울사당우성우편취급국",
        "distance": 1819.9617276192248,
        "walking_time": "약 28분"
      }
    ],
    "school": [
      {
        "school_lat": 37.4738196175948,
        "school_lon": 126.973366964486,
        "school_type": "초등학교",
        "school_name": "서울사당초등학교",
        "distance": 452.9968968381917,
        "walking_time": "약 7분"
      },
      {
        "school_lat": 37.4723107319026,
        "school_lon": 126.970485117895,
        "school_type": "고등학교",
        "school_name": "인헌고등학교",
        "distance": 673.8704866429301,
        "walking_time": "약 11분"
      },
      {
        "school_lat": 37.4726853122526,
        "school_lon": 126.968848481233,
        "school_type": "중학교",
        "school_name": "인헌중학교",
        "distance": 819.5157803624148,
        "walking_time": "약 13분"
      },
      {
        "school_lat": 37.4781887381851,
        "school_lon": 126.984058772938,
        "school_type": "초등학교",
        "school_name": "서울이수초등학교",
        "distance": 840.1190314845084,
        "walking_time": "약 13분"
      },
      {
        "school_lat": 37.4790082237647,
        "school_lon": 126.97241407945,
        "school_type": "중학교",
        "school_name": "남성중학교",
        "distance": 901.5790498171076,
        "walking_time": "약 14분"
      },
      {
        "school_lat": 37.4694909673091,
        "school_lon": 126.988245947982,
        "school_type": "고등학교",
        "school_name": "서울웹툰애니메이션고등학교",
        "distance": 945.9375464973624,
        "walking_time": "약 15분"
      },
      {
        "school_lat": 37.48194132287,
        "school_lon": 126.978234357795,
        "school_type": "초등학교",
        "school_name": "서울남사초등학교",
        "distance": 1074.0030880354584,
        "walking_time": "약 17분"
      },
      {
        "school_lat": 37.4766963066016,
        "school_lon": 126.966748525059,
        "school_type": "고등학교",
        "school_name": "서울미술고등학교",
        "distance": 1117.14344501775,
        "walking_time": "약 17분"
      },
      {
        "school_lat": 37.4806300322796,
        "school_lon": 126.989859045395,
        "school_type": "중학교",
        "school_name": "이수중학교",
        "distance": 1390.820294437379,
        "walking_time": "약 21분"
      },
      {
        "school_lat": 37.4846330175369,
        "school_lon": 126.975577985193,
        "school_type": "초등학교",
        "school_name": "서울남성초등학교",
        "distance": 1391.4730046333766,
        "walking_time": "약 21분"
      }
    ],
    "subway": [
      {
        "subway_lat": 37.4765228347619,
        "subway_lon": 126.981408909449,
        "subway_type": "지하철",
        "subway_name": "2호선-사당역",
        "distance": 553.5787750963328,
        "walking_time": "약 9분"
      },
      {
        "subway_lat": 37.4768632653727,
        "subway_lon": 126.981595139341,
        "subway_type": "지하철",
        "subway_name": "4호선-사당역",
        "distance": 594.4588624773096,
        "walking_time": "약 9분"
      },
      {
        "subway_lat": 37.4648575576518,
        "subway_lon": 126.988656544337,
        "subway_type": "지하철",
        "subway_name": "4호선-남태령역",
        "distance": 1243.49045474295,
        "walking_time": "약 19분"
      },
      {
        "subway_lat": 37.4770651843603,
        "subway_lon": 126.963409959152,
        "subway_type": "지하철",
        "subway_name": "2호선-낙성대(강감찬)역",
        "distance": 1402.8867868977006,
        "walking_time": "약 21분"
      },
      {
        "subway_lat": 37.485015143952,
        "subway_lon": 126.981021812089,
        "subway_type": "지하철",
        "subway_name": "7호선-이수역",
        "distance": 1438.7043026082565,
        "walking_time": "약 22분"
      },
      {
        "subway_lat": 37.4844433924857,
        "subway_lon": 126.971706096071,
        "subway_type": "지하철",
        "subway_name": "7호선-남성역",
        "distance": 1465.880573752274,
        "walking_time": "약 22분"
      },
      {
        "subway_lat": 37.4875538278198,
        "subway_lon": 126.982199707405,
        "subway_type": "지하철",
        "subway_name": "4호선-총신대입구(이수)역",
        "distance": 1735.7616328370189,
        "walking_time": "약 26분"
      }
    ],
    "supermarket": [
      {
        "supermarket_lat": 37.4714704,
        "supermarket_lon": 126.9824665,
        "supermarket_type": "마트",
        "supermarket_name": "홈플러스 서울남현점",
        "distance": 393.9917852780214,
        "walking_time": "약 6분"
      },
      {
        "supermarket_lat": 37.47441669,
        "supermarket_lon": 126.965908,
        "supermarket_type": "마트",
        "supermarket_name": "원당종합시장",
        "distance": 1103.58209664178,
        "walking_time": "약 17분"
      },
      {
        "supermarket_lat": 37.48207758,
        "supermarket_lon": 126.9840211,
        "supermarket_type": "마트",
        "supermarket_name": "방배종합시장",
        "distance": 1207.1574235204655,
        "walking_time": "약 19분"
      },
      {
        "supermarket_lat": 37.48443595,
        "supermarket_lon": 126.9803085,
        "supermarket_type": "마트",
        "supermarket_name": "(주)이마트에브리데이 이수점",
        "distance": 1365.0632764734237,
        "walking_time": "약 21분"
      },
      {
        "supermarket_lat": 37.48445931,
        "supermarket_lon": 126.9723448,
        "supermarket_type": "마트",
        "supermarket_name": "홈플러스(주) 익스프레스 남성점",
        "distance": 1446.708023268198,
        "walking_time": "약 22분"
      },
      {
        "supermarket_lat": 37.47697388,
        "supermarket_lon": 126.961321,
        "supermarket_type": "마트",
        "supermarket_name": "(주)지에스리테일 낙성대점",
        "distance": 1571.6277158902328,
        "walking_time": "약 24분"
      },
      {
        "supermarket_lat": 37.48982442,
        "supermarket_lon": 126.9777452,
        "supermarket_type": "마트",
        "supermarket_name": "(주)이마트에브리데이 사당동점",
        "distance": 1950.798765322341,
        "walking_time": "약 30분"
      }
    ],
    "theater": [
      {
        "theater_lat": 37.4846140265703,
        "theater_lon": 126.981665713772,
        "theater_type": "영화관",
        "theater_name": "메가박스(주) 이수지점",
        "distance": 1406.373233145724,
        "walking_time": "약 21분"
      }
    ]
  }
}