{
  "클러스터_위도": 37.510368,
  "클러스터_경도": 126.909108,
  "클러스터_level": 4.0,
  "facilities": {
    "bus": [
      {
        "bus_lat": 37.51088808,
        "bus_lon": 126.910017,
        "bus_type": "버스정류장",
        "bus_name": "우신사거리",
        "distance": 98.85749798137589,
        "walking_time": "약 2분"
      },
      {
        "bus_lat": 37.5095426,
        "bus_lon": 126.9074866,
        "bus_type": "버스정류장",
        "bus_name": "도림동자치회관",
        "distance": 169.9327168623659,
        "walking_time": "약 3분"
      },
      {
        "bus_lat": 37.509355,
        "bus_lon": 126.910608,
        "bus_type": "버스정류장",
        "bus_name": "우신초등학교",
        "distance": 173.76200120545823,
        "walking_time": "약 3분"
      },
      {
        "bus_lat": 37.50929403,
        "bus_lon": 126.9076717,
        "bus_type": "버스정류장",
        "bus_name": "도림동자치회관",
        "distance": 174.10138938854803,
        "walking_time": "약 3분"
      },
      {
        "bus_lat": 37.50958,
        "bus_lon": 126.910838,
        "bus_type": "버스정류장",
        "bus_name": "우신초등학교",
        "distance": 175.96225566191825,
        "walking_time": "약 3분"
      },
      {
        "bus_lat": 37.51082057,
        "bus_lon": 126.911472,
        "bus_type": "버스정류장",
        "bus_name": "신길동홍어거리",
        "distance": 214.5017295585541,
        "walking_time": "약 4분"
      },
      {
        "bus_lat": 37.51228562,
        "bus_lon": 126.9099271,
        "bus_type": "버스정류장",
        "bus_name": "대성병원",
        "distance": 225.13677207410245,
        "walking_time": "약 4분"
      },
      {
        "bus_lat": 37.51250602,
        "bus_lon": 126.9092502,
        "bus_type": "버스정류장",
        "bus_name": "선의원",
        "distance": 238.0676059228828,
        "walking_time": "약 4분"
      },
      {
        "bus_lat": 37.51194733,
        "bus_lon": 126.9062762,
        "bus_type": "버스정류장",
        "bus_name": "고추말",
        "distance": 305.3321806325825,
        "walking_time": "약 5분"
      },
      {
        "bus_lat": 37.51195846,
        "bus_lon": 126.9061093,
        "bus_type": "버스정류장",
        "bus_name": "고추말",
        "distance": 318.1739021338668,
        "walking_time": "약 5분"
      }
    ],
    "community_center": [
      {
        "community_center_lat": 37.50845067,
        "community_center_lon": 126.9113577,
        "community_center_type": "주민센터",
        "community_center_name": "신길4동 자치회관",
        "distance": 291.2561618875815,
        "walking_time": "약 5분"
      },
      {
        "community_center_lat": 37.50729949,
        "community_center_lon": 126.9077531,
        "community_center_type": "주민센터",
        "community_center_name": "신길3동 자치회관",
        "distance": 361.52754488902696,
        "walking_time": "약 6분"
      },
      {
        "community_center_lat": 37.51466633,
        "community_center_lon": 126.9093394,
        "community_center_type": "주민센터",
        "community_center_name": "영등포본동 자치회관",
        "distance": 478.3880728733576,
        "walking_time": "약 8분"
      },
      {
        "community_center_lat": 37.5016416,
        "community_center_lon": 126.905219,
        "community_center_type": "주민센터",
        "community_center_name": "신길5동 자치회관",
        "distance": 1029.1864918738254,
        "walking_time": "약 16분"
      },
      {
        "community_center_lat": 37.52038937,
        "community_center_lon": 126.9106976,
        "community_center_type": "주민센터",
        "community_center_name": "영등포동 자치회관",
        "distance": 1123.110655759978,
        "walking_time": "약 17분"
      },
      {
        "community_center_lat": 37.51710975,
        "community_center_lon": 126.8995233,
        "community_center_type": "주민센터",
        "community_center_name": "문래동 자치회관",
        "distance": 1129.8824334318788,
        "walking_time": "약 17분"
      },
      {
        "community_center_lat": 37.5094934,
        "community_center_lon": 126.8959996,
        "community_center_type": "주민센터",
        "community_center_name": "도림동 자치회관",
        "distance": 1160.3108772415078,
        "walking_time": "약 18분"
      },
      {
        "community_center_lat": 37.50094613,
        "community_center_lon": 126.8990356,
        "community_center_type": "주민센터",
        "community_center_name": "대림3동 자치회관",
        "distance": 1373.6853752629972,
        "walking_time": "약 21분"
      },
      {
        "community_center_lat": 37.52512811,
        "community_center_lon": 126.8974049,
        "community_center_type": "주민센터",
        "community_center_name": "당산1동 자치회관",
        "distance": 1938.8307698482447,
        "walking_time": "약 29분"
      }
    ],
    "convenience_store": [
      {
        "convenience_store_lat": 37.51034489,
        "convenience_store_lon": 126.910226,
        "convenience_store_type": "편의점",
        "convenience_store_name": "GS25 영등포우신점",
        "distance": 98.64625182163952,
        "walking_time": "약 2분"
      },
      {
        "convenience_store_lat": 37.50976524,
        "convenience_store_lon": 126.9078306,
        "convenience_store_type": "편의점",
        "convenience_store_name": "GS25 도림현대점",
        "distance": 131.1007589193595,
        "walking_time": "약 2분"
      },
      {
        "convenience_store_lat": 37.50992236,
        "convenience_store_lon": 126.90588,
        "convenience_store_type": "편의점",
        "convenience_store_name": "세븐일레븐 영등포아트자이점",
        "distance": 289.00521729121886,
        "walking_time": "약 5분"
      },
      {
        "convenience_store_lat": 37.50779716,
        "convenience_store_lon": 126.9097979,
        "convenience_store_type": "편의점",
        "convenience_store_name": "이마트24 신길대박점",
        "distance": 292.2696924190971,
        "walking_time": "약 5분"
      },
      {
        "convenience_store_lat": 37.51311719,
        "convenience_store_lon": 126.9086888,
        "convenience_store_type": "편의점",
        "convenience_store_name": "GS25 편의점",
        "distance": 307.92395233429744,
        "walking_time": "약 5분"
      },
      {
        "convenience_store_lat": 37.51144328,
        "convenience_store_lon": 126.91271,
        "convenience_store_type": "편의점",
        "convenience_store_name": "GS25 영등포칠성점",
        "distance": 339.4643796763128,
        "walking_time": "약 6분"
      },
      {
        "convenience_store_lat": 37.50849652,
        "convenience_store_lon": 126.9059853,
        "convenience_store_type": "편의점",
        "convenience_store_name": "세븐일레븐 신길행촌주유소점",
        "distance": 345.2135935054279,
        "walking_time": "약 6분"
      },
      {
        "convenience_store_lat": 37.50698138,
        "convenience_store_lon": 126.9093155,
        "convenience_store_type": "편의점",
        "convenience_store_name": "GS25 신길행복점",
        "distance": 377.01949223016754,
        "walking_time": "약 6분"
      },
      {
        "convenience_store_lat": 37.50821054,
        "convenience_store_lon": 126.905419,
        "convenience_store_type": "편의점",
        "convenience_store_name": "CU 신길도림점",
        "distance": 404.2659885938872,
        "walking_time": "약 7분"
      },
      {
        "convenience_store_lat": 37.51267196,
        "convenience_store_lon": 126.9130584,
        "convenience_store_type": "편의점",
        "convenience_store_name": "CU 문래벽산점",
        "distance": 432.4832555997333,
        "walking_time": "약 7분"
      }
    ],
    "daycare": [
      {
        "daycare_lat": 37.5096237,
        "daycare_lon": 126.9101432568504,
        "daycare_type": "어린이집",
        "daycare_name": "123목화어린이집",
        "distance": 123.23968916953206,
        "walking_time": "약 2분"
      },
      {
        "daycare_lat": 37.50920382,
        "daycare_lon": 126.907481,
        "daycare_type": "어린이집",
        "daycare_name": "새봄어린이집",
        "distance": 193.2683795055272,
        "walking_time": "약 3분"
      },
      {
        "daycare_lat": 37.5089507,
        "daycare_lon": 126.9071963,
        "daycare_type": "어린이집",
        "daycare_name": "리틀동심원어린이집",
        "distance": 230.80333782660972,
        "walking_time": "약 4분"
      },
      {
        "daycare_lat": 37.51086622301359,
        "daycare_lon": 126.90640478459892,
        "daycare_type": "어린이집",
        "daycare_name": "리틀영일우리어린이집",
        "distance": 244.7867004402206,
        "walking_time": "약 4분"
      },
      {
        "daycare_lat": 37.50936991,
        "daycare_lon": 126.9064414,
        "daycare_type": "어린이집",
        "daycare_name": "미루나무어린이집",
        "distance": 260.0767753078492,
        "walking_time": "약 4분"
      },
      {
        "daycare_lat": 37.5085586,
        "daycare_lon": 126.9115713,
        "daycare_type": "어린이집",
        "daycare_name": "튼튼아이어린이집",
        "distance": 296.12361142064054,
        "walking_time": "약 5분"
      },
      {
        "daycare_lat": 37.50862568,
        "daycare_lon": 126.9117128,
        "daycare_type": "어린이집",
        "daycare_name": "탄탄어린이집",
        "distance": 300.5376010518297,
        "walking_time": "약 5분"
      },
      {
        "daycare_lat": 37.50763271,
        "daycare_lon": 126.90837,
        "daycare_type": "어린이집",
        "daycare_name": "명신어린이집",
        "distance": 311.0385237805867,
        "walking_time": "약 5분"
      },
      {
        "daycare_lat": 37.5078418,
        "daycare_lon": 126.9118136,
        "daycare_type": "어린이집",
        "daycare_name": "예승아트스쿨어린이집",
        "distance": 368.59082506159,
        "walking_time": "약 6분"
      },
      {
        "daycare_lat": 37.51311767,
        "daycare_lon": 126.9067702,
        "daycare_type": "어린이집",
        "daycare_name": "영일우리어린이집",
        "distance": 368.78381255089295,
        "walking_time": "약 6분"
      }
    ],
    "education": [
      {
        "education_lat": 37.51612662,
        "education_lon": 126.9121264,
        "education_type": "문화원",
        "education_name": "영등포문화원",
        "distance": 693.4682548705034,
        "walking_time": "약 11분"
      },
      {
        "education_lat": 37.51417644,
        "education_lon": 126.9010171,
        "education_type": "미술관/갤러리",
        "education_name": "공간투",
        "distance": 829.8263193535936,
        "walking_time": "약 13분"
      },
      {
        "education_lat": 37.50429681,
        "education_lon": 126.896056,
        "education_type": "도서관",
        "education_name": "대림도서관",
        "distance": 1334.622458482849,
        "walking_time": "약 20분"
      },
      {
        "education_lat": 37.50701416,
        "education_lon": 126.8914492,
        "education_type": "도서관",
        "education_name": "구로미래도서관",
        "distance": 1601.6445095672418,
        "walking_time": "약 24분"
      },
      {
        "education_lat": 37.50818811797741,
        "education_lon": 126.89081137277203,
        "education_type": "공연장",
        "education_name": "신도림 오페라하우스",
        "distance": 1631.971787713902,
        "walking_time": "약 25분"
      },
      {
        "education_lat": 37.52603749755506,
        "education_lon": 126.90721167448456,
        "education_type": "도서관",
        "education_name": "영등포평생학습관",
        "distance": 1750.3771138476452,
        "walking_time": "약 27분"
      },
      {
        "education_lat": 37.51685657,
        "education_lon": 126.8908946,
        "education_type": "도서관",
        "education_name": "문래도서관",
        "distance": 1761.0206050939848,
        "walking_time": "약 27분"
      },
      {
        "education_lat": 37.52596989,
        "education_lon": 126.9167168,
        "education_type": "공연장",
        "education_name": "KBS홀",
        "distance": 1860.11587770301,
        "walking_time": "약 28분"
      },
      {
        "education_lat": 37.52600873,
        "education_lon": 126.9001093,
        "education_type": "문화예술회관",
        "education_name": "영등포아트홀",
        "distance": 1911.69610712028,
        "walking_time": "약 29분"
      }
    ],
    "electric_gas_station": [
      {
        "electric_gas_station_lat": 37.51107647,
        "electric_gas_station_lon": 126.9175847,
        "electric_gas_station_type": "전기차 충전소",
        "electric_gas_station_name": "영등포구 대신시장(공중전화부스)",
        "distance": 751.8192432303083,
        "walking_time": "약 12분"
      },
      {
        "electric_gas_station_lat": 37.52472308,
        "electric_gas_station_lon": 126.895522,
        "electric_gas_station_type": "전기차 충전소",
        "electric_gas_station_name": "영등포구청 환승공영주차장",
        "distance": 1995.9094344071325,
        "walking_time": "약 30분"
      }
    ],
    "fitness": [
      {
        "fitness_lat": 37.51381438,
        "fitness_lon": 126.9081031,
        "fitness_type": "운동시설",
        "fitness_name": "휴 휘트니스",
        "distance": 393.336585170037,
        "walking_time": "약 6분"
      },
      {
        "fitness_lat": 37.50705834,
        "fitness_lon": 126.9107483,
        "fitness_type": "운동시설",
        "fitness_name": "투핏 신길점",
        "distance": 395.4372589627431,
        "walking_time": "약 6분"
      },
      {
        "fitness_lat": 37.51335913,
        "fitness_lon": 126.9053976,
        "fitness_type": "운동시설",
        "fitness_name": "바디피티 PT센터",
        "distance": 466.6111814332789,
        "walking_time": "약 7분"
      },
      {
        "fitness_lat": 37.51355431,
        "fitness_lon": 126.9054235,
        "fitness_type": "운동시설",
        "fitness_name": "GT휘트니스클럽",
        "distance": 480.7738436798655,
        "walking_time": "약 8분"
      },
      {
        "fitness_lat": 37.51020338,
        "fitness_lon": 126.9034209,
        "fitness_type": "운동시설",
        "fitness_name": "더 루트짐 영등포",
        "distance": 501.962894765292,
        "walking_time": "약 8분"
      },
      {
        "fitness_lat": 37.50563105,
        "fitness_lon": 126.9083858,
        "fitness_type": "운동시설",
        "fitness_name": "짐블랙 피트니스",
        "distance": 530.5630458627809,
        "walking_time": "약 8분"
      },
      {
        "fitness_lat": 37.50560595,
        "fitness_lon": 126.9104393,
        "fitness_type": "운동시설",
        "fitness_name": "이지휘트니스",
        "distance": 542.3807861405322,
        "walking_time": "약 9분"
      },
      {
        "fitness_lat": 37.50585598,
        "fitness_lon": 126.906481,
        "fitness_type": "운동시설",
        "fitness_name": "신길PT",
        "distance": 552.6400939377368,
        "walking_time": "약 9분"
      },
      {
        "fitness_lat": 37.5121498,
        "fitness_lon": 126.9162518,
        "fitness_type": "운동시설",
        "fitness_name": "건강더하기헬스",
        "distance": 660.5234449178029,
        "walking_time": "약 10분"
      },
      {
        "fitness_lat": 37.50708498,
        "fitness_lon": 126.9027325,
        "fitness_type": "운동시설",
        "fitness_name": "진풍헬스",
        "distance": 670.458837247971,
        "walking_time": "약 11분"
      }
    ],
    "gas_station": [
      {
        "gas_station_lat": 37.51001487,
        "gas_station_lon": 126.9082519,
        "gas_station_type": "주유소",
        "gas_station_name": "㈜강서오일",
        "distance": 85.11124701802247,
        "walking_time": "약 2분"
      },
      {
        "gas_station_lat": 37.50849652,
        "gas_station_lon": 126.9059853,
        "gas_station_type": "주유소",
        "gas_station_name": "행촌주유소",
        "distance": 345.2135935054279,
        "walking_time": "약 6분"
      },
      {
        "gas_station_lat": 37.51532916,
        "gas_station_lon": 126.9044808,
        "gas_station_type": "주유소",
        "gas_station_name": "현대오일뱅크㈜직영 영등포현대셀프주유소",
        "distance": 686.2154610724627,
        "walking_time": "약 11분"
      },
      {
        "gas_station_lat": 37.50776985,
        "gas_station_lon": 126.9002568,
        "gas_station_type": "주유소",
        "gas_station_name": "도림주유소",
        "distance": 832.4683900876848,
        "walking_time": "약 13분"
      },
      {
        "gas_station_lat": 37.51304064,
        "gas_station_lon": 126.9183332,
        "gas_station_type": "주유소",
        "gas_station_name": "매봉주유소",
        "distance": 866.2625558628014,
        "walking_time": "약 13분"
      },
      {
        "gas_station_lat": 37.51525021,
        "gas_station_lon": 126.916967,
        "gas_station_type": "주유소",
        "gas_station_name": "SK에너지(주)신길동주유소",
        "distance": 880.4602957822613,
        "walking_time": "약 14분"
      },
      {
        "gas_station_lat": 37.5146713,
        "gas_station_lon": 126.9007278,
        "gas_station_type": "주유소",
        "gas_station_name": "㈜지에스이앤알 모드니주유소",
        "distance": 880.5176760947404,
        "walking_time": "약 14분"
      },
      {
        "gas_station_lat": 37.50373331,
        "gas_station_lon": 126.9028133,
        "gas_station_type": "주유소",
        "gas_station_name": "㈜정수에너지개발",
        "distance": 923.3441585094344,
        "walking_time": "약 14분"
      },
      {
        "gas_station_lat": 37.51325696,
        "gas_station_lon": 126.8964817,
        "gas_station_type": "주유소",
        "gas_station_name": "지에스칼텍스㈜화일주유소",
        "distance": 1159.080995414529,
        "walking_time": "약 18분"
      },
      {
        "gas_station_lat": 37.50240207,
        "gas_station_lon": 126.8994644,
        "gas_station_type": "주유소",
        "gas_station_name": "현대오일뱅크㈜직영 영등포제일셀프주유소",
        "distance": 1228.0899440902265,
        "walking_time": "약 19분"
      }
    ],
    "hospital": [
      {
        "hospital_lat": 37.51035488,
        "hospital_lon": 126.9075189,
        "hospital_type": "병원",
        "hospital_name": "하나의원",
        "distance": 140.1735594318533,
        "walking_time": "약 3분"
      },
      {
        "hospital_lat": 37.51186633,
        "hospital_lon": 126.9095121,
        "hospital_type": "병원",
        "hospital_name": "영일한의원",
        "distance": 170.3767095959375,
        "walking_time": "약 3분"
      },
      {
        "hospital_lat": 37.51237209,
        "hospital_lon": 126.9091946,
        "hospital_type": "병원",
        "hospital_name": "선의원",
        "distance": 222.97551263363425,
        "walking_time": "약 4분"
      },
      {
        "hospital_lat": 37.5094674,
        "hospital_lon": 126.9066184,
        "hospital_type": "병원",
        "hospital_name": "영생한의원",
        "distance": 241.35171446273563,
        "walking_time": "약 4분"
      },
      {
        "hospital_lat": 37.50858386,
        "hospital_lon": 126.9106682,
        "hospital_type": "병원",
        "hospital_name": "노박의원",
        "distance": 241.44642289790167,
        "walking_time": "약 4분"
      },
      {
        "hospital_lat": 37.50858386,
        "hospital_lon": 126.9106682,
        "hospital_type": "병원",
        "hospital_name": "제일진단방사선과의원",
        "distance": 241.44642289790167,
        "walking_time": "약 4분"
      },
      {
        "hospital_lat": 37.50883195,
        "hospital_lon": 126.911085,
        "hospital_type": "병원",
        "hospital_name": "유기종치과의원",
        "distance": 244.0945797481551,
        "walking_time": "약 4분"
      },
      {
        "hospital_lat": 37.50760739,
        "hospital_lon": 126.9107268,
        "hospital_type": "병원",
        "hospital_name": "재단법인한국산업보건환경연구소부설해상병원",
        "distance": 338.5506009572815,
        "walking_time": "약 6분"
      },
      {
        "hospital_lat": 37.51012647,
        "hospital_lon": 126.9047851,
        "hospital_type": "병원",
        "hospital_name": "더클래식치과의원",
        "distance": 382.2450148412906,
        "walking_time": "약 6분"
      },
      {
        "hospital_lat": 37.51012647,
        "hospital_lon": 126.9047851,
        "hospital_type": "병원",
        "hospital_name": "웃는아이소아청소년과의원",
        "distance": 382.2450148412906,
        "walking_time": "약 6분"
      }
    ],
    "music_room": [
      {
        "music_room_lat": 37.51072641,
        "music_room_lon": 126.909912,
        "music_room_type": "노래방",
        "music_room_name": "쿨(Cool)노래연습장",
        "distance": 81.34751873487441,
        "walking_time": "약 2분"
      },
      {
        "music_room_lat": 37.50969203,
        "music_room_lon": 126.907663,
        "music_room_type": "노래방",
        "music_room_name": "월드노래연습장",
        "distance": 147.96887226321226,
        "walking_time": "약 3분"
      },
      {
        "music_room_lat": 37.51198583,
        "music_room_lon": 126.9094366,
        "music_room_type": "노래방",
        "music_room_name": "자기야노래연습장",
        "distance": 182.2143876191112,
        "walking_time": "약 3분"
      },
      {
        "music_room_lat": 37.5123253,
        "music_room_lon": 126.9098684,
        "music_room_type": "노래방",
        "music_room_name": "삼거리 노래연습장",
        "distance": 227.7418253890032,
        "walking_time": "약 4분"
      },
      {
        "music_room_lat": 37.51291307,
        "music_room_lon": 126.9087585,
        "music_room_type": "노래방",
        "music_room_name": "행운노래연습장",
        "distance": 284.67290826138645,
        "walking_time": "약 5분"
      },
      {
        "music_room_lat": 37.51140658,
        "music_room_lon": 126.9123135,
        "music_room_type": "노래방",
        "music_room_name": "차차차노래연습장",
        "distance": 305.41362426087136,
        "walking_time": "약 5분"
      },
      {
        "music_room_lat": 37.51310683,
        "music_room_lon": 126.9084673,
        "music_room_type": "노래방",
        "music_room_name": "코러스노래연습장",
        "distance": 309.7428228233896,
        "walking_time": "약 5분"
      },
      {
        "music_room_lat": 37.51144328,
        "music_room_lon": 126.91271,
        "music_room_type": "노래방",
        "music_room_name": "아리노래연습장",
        "distance": 339.4643796763128,
        "walking_time": "약 6분"
      },
      {
        "music_room_lat": 37.51150632,
        "music_room_lon": 126.9130319,
        "music_room_type": "노래방",
        "music_room_name": "딱이야노래연습장",
        "distance": 368.5226376597959,
        "walking_time": "약 6분"
      },
      {
        "music_room_lat": 37.51362422,
        "music_room_lon": 126.9082727,
        "music_room_type": "노래방",
        "music_room_name": "수 노래연습장",
        "distance": 369.49495254968457,
        "walking_time": "약 6분"
      }
    ],
    "outdoor_sports": [
      {
        "outdoor_sports_lat": 37.5079895530212,
        "outdoor_sports_lon": 126.890926686339,
        "outdoor_sports_type": "야외 체육시설",
        "outdoor_sports_name": "신도림테크노근린공원",
        "distance": 1625.3624242333328,
        "walking_time": "약 25분"
      }
    ],
    "park": [
      {
        "park_lat": 37.515423,
        "park_lon": 126.910662,
        "park_type": "공원",
        "park_name": "영등포근린공원",
        "distance": 578.560689429674,
        "walking_time": "약 9분"
      },
      {
        "park_lat": 37.519832,
        "park_lon": 126.9112668,
        "park_type": "공원",
        "park_name": "중마루근린공원",
        "distance": 1069.4352106962135,
        "walking_time": "약 16분"
      }
    ],
    "park_station": [
      {
        "park_station_lat": 37.50811471,
        "park_station_lon": 126.907406,
        "park_station_type": "주차장",
        "park_station_name": "도림초교공영",
        "distance": 292.0881513969469,
        "walking_time": "약 5분"
      },
      {
        "park_station_lat": 37.5071576,
        "park_station_lon": 126.9116715,
        "park_station_type": "주차장",
        "park_station_name": "신길4동1마을공원 공영",
        "distance": 422.56825998201714,
        "walking_time": "약 7분"
      },
      {
        "park_station_lat": 37.51437697,
        "park_station_lon": 126.9091587,
        "park_station_type": "주차장",
        "park_station_name": "영등포본동제1공영",
        "distance": 445.799554411765,
        "walking_time": "약 7분"
      },
      {
        "park_station_lat": 37.51331747,
        "park_station_lon": 126.9140769,
        "park_station_type": "주차장",
        "park_station_name": "영등포본동제2공영",
        "distance": 547.3969830959076,
        "walking_time": "약 9분"
      },
      {
        "park_station_lat": 37.50527056,
        "park_station_lon": 126.9120634,
        "park_station_type": "주차장",
        "park_station_name": "신길4동 공영주차장",
        "distance": 623.8843113785108,
        "walking_time": "약 10분"
      },
      {
        "park_station_lat": 37.50576543,
        "park_station_lon": 126.9148182,
        "park_station_type": "주차장",
        "park_station_name": "대신시장앞",
        "distance": 718.0642997249593,
        "walking_time": "약 11분"
      },
      {
        "park_station_lat": 37.51039457,
        "park_station_lon": 126.9173087,
        "park_station_type": "주차장",
        "park_station_name": "대신시장앞",
        "distance": 723.3454984798893,
        "walking_time": "약 11분"
      },
      {
        "park_station_lat": 37.51523235,
        "park_station_lon": 126.9152916,
        "park_station_type": "주차장",
        "park_station_name": "영등포여고 공영",
        "distance": 768.1334244172964,
        "walking_time": "약 12분"
      },
      {
        "park_station_lat": 37.51772772,
        "park_station_lon": 126.9106968,
        "park_station_type": "주차장",
        "park_station_name": "영등포로터리 공영주차장",
        "distance": 830.2746540049266,
        "walking_time": "약 13분"
      },
      {
        "park_station_lat": 37.51029411,
        "park_station_lon": 126.9186008,
        "park_station_type": "주차장",
        "park_station_name": "신길1동공영",
        "distance": 837.349502336243,
        "walking_time": "약 13분"
      }
    ],
    "pc_room": [
      {
        "pc_room_lat": 37.5113609532519,
        "pc_room_lon": 126.909748053975,
        "pc_room_type": "PC방",
        "pc_room_name": "파우(POW) PC",
        "distance": 124.00755888952986,
        "walking_time": "약 2분"
      },
      {
        "pc_room_lat": 37.5113180664152,
        "pc_room_lon": 126.914471892191,
        "pc_room_type": "PC방",
        "pc_room_name": "ZOOM PC방",
        "distance": 484.7680730196711,
        "walking_time": "약 8분"
      },
      {
        "pc_room_lat": 37.5145951895027,
        "pc_room_lon": 126.907525588394,
        "pc_room_type": "PC방",
        "pc_room_name": "SKY PC",
        "distance": 490.3262847212852,
        "walking_time": "약 8분"
      },
      {
        "pc_room_lat": 37.5052191180452,
        "pc_room_lon": 126.910395805911,
        "pc_room_type": "PC방",
        "pc_room_name": "사러가 PC CAFE",
        "distance": 583.6897822634633,
        "walking_time": "약 9분"
      },
      {
        "pc_room_lat": 37.5067509124905,
        "pc_room_lon": 126.90308671235,
        "pc_room_type": "PC방",
        "pc_room_name": "원투쓰리 PC CAFE",
        "distance": 666.2228223123834,
        "walking_time": "약 10분"
      },
      {
        "pc_room_lat": 37.5170420928318,
        "pc_room_lon": 126.90781802619,
        "pc_room_type": "PC방",
        "pc_room_name": "PC 카페",
        "distance": 750.7962511383685,
        "walking_time": "약 12분"
      },
      {
        "pc_room_lat": 37.5063427806294,
        "pc_room_lon": 126.901914175609,
        "pc_room_type": "PC방",
        "pc_room_name": "도깨비PC cafe 도림사거리점",
        "distance": 776.5175875538964,
        "walking_time": "약 12분"
      },
      {
        "pc_room_lat": 37.5173457918599,
        "pc_room_lon": 126.908708552297,
        "pc_room_type": "PC방",
        "pc_room_name": "역전PC",
        "distance": 776.6945295979991,
        "walking_time": "약 12분"
      },
      {
        "pc_room_lat": 37.5175940346352,
        "pc_room_lon": 126.909432079999,
        "pc_room_type": "PC방",
        "pc_room_name": "겜노리PC",
        "distance": 804.0066591007477,
        "walking_time": "약 13분"
      },
      {
        "pc_room_lat": 37.5174876421571,
        "pc_room_lon": 126.906903161752,
        "pc_room_type": "PC방",
        "pc_room_name": "바다PC",
        "distance": 815.203055491195,
        "walking_time": "약 13분"
      }
    ],
    "police_office": [
      {
        "police_office_lat": 37.51545334,
        "police_office_lon": 126.9088443,
        "police_office_type": "경찰소",
        "police_office_name": "영등포역파출소",
        "distance": 565.9421479113046,
        "walking_time": "약 9분"
      },
      {
        "police_office_lat": 37.51801061,
        "police_office_lon": 126.9075138,
        "police_office_type": "경찰소",
        "police_office_name": "중앙지구대",
        "distance": 861.3732581827621,
        "walking_time": "약 13분"
      },
      {
        "police_office_lat": 37.51358216,
        "police_office_lon": 126.8976501,
        "police_office_type": "경찰소",
        "police_office_name": "문래지구대",
        "distance": 1071.952466142298,
        "walking_time": "약 16분"
      }
    ],
    "post_office": [
      {
        "post_office_lat": 37.51150632,
        "post_office_lon": 126.9130319,
        "post_office_type": "우체국",
        "post_office_name": "서울신길2동우편취급국",
        "distance": 368.5226376597959,
        "walking_time": "약 6분"
      },
      {
        "post_office_lat": 37.51653019,
        "post_office_lon": 126.9060431,
        "post_office_type": "우체국",
        "post_office_name": "서울영등포동4가우체국",
        "distance": 736.6014269761914,
        "walking_time": "약 11분"
      },
      {
        "post_office_lat": 37.50343511,
        "post_office_lon": 126.9006872,
        "post_office_type": "우체국",
        "post_office_name": "서울신길3동우편취급국",
        "distance": 1070.5251470200271,
        "walking_time": "약 16분"
      },
      {
        "post_office_lat": 37.50041961,
        "post_office_lon": 126.9115445,
        "post_office_type": "우체국",
        "post_office_name": "서울신길7동우편취급국",
        "distance": 1126.8958960619057,
        "walking_time": "약 17분"
      },
      {
        "post_office_lat": 37.51389666,
        "post_office_lon": 126.895143,
        "post_office_type": "우체국",
        "post_office_name": "서울문래동우체국",
        "distance": 1292.7325645093574,
        "walking_time": "약 20분"
      },
      {
        "post_office_lat": 37.5222008,
        "post_office_lon": 126.9068069,
        "post_office_type": "우체국",
        "post_office_name": "서울영등포3동우편취급국",
        "distance": 1331.307764342978,
        "walking_time": "약 20분"
      },
      {
        "post_office_lat": 37.52375154,
        "post_office_lon": 126.9049109,
        "post_office_type": "우체국",
        "post_office_name": "우편고객센터",
        "distance": 1533.5289501656512,
        "walking_time": "약 23분"
      },
      {
        "post_office_lat": 37.52218032,
        "post_office_lon": 126.9199166,
        "post_office_type": "우체국",
        "post_office_name": "서울FKI타워우편취급국",
        "distance": 1622.951343407478,
        "walking_time": "약 25분"
      },
      {
        "post_office_lat": 37.52596989,
        "post_office_lon": 126.9167168,
        "post_office_type": "우체국",
        "post_office_name": "한국방송공사우편취급국",
        "distance": 1860.11587770301,
        "walking_time": "약 28분"
      },
      {
        "post_office_lat": 37.52840131,
        "post_office_lon": 126.9077172,
        "post_office_type": "우체국",
        "post_office_name": "서울영등포시범A우편취급국",
        "distance": 2008.9606804923849,
        "walking_time": "약 30분"
      }
    ],
    "public_health_center": [
      {
        "public_health_center_lat": 37.52596316,
        "public_health_center_lon": 126.8963671,
        "public_health_center_type": "보건소",
        "public_health_center_name": "영등포구보건소",
        "distance": 2066.346662036636,
        "walking_time": "약 31분"
      }
    ],
    "school": [
      {
        "school_lat": 37.5098647213535,
        "school_lon": 126.911863664868,
        "school_type": "초등학교",
        "school_name": "서울우신초등학교",
        "distance": 249.4222501493178,
        "walking_time": "약 4분"
      },
      {
        "school_lat": 37.5086786949617,
        "school_lon": 126.907115425568,
        "school_type": "초등학교",
        "school_name": "서울도림초등학교",
        "distance": 257.244889389388,
        "walking_time": "약 4분"
      },
      {
        "school_lat": 37.5123057802523,
        "school_lon": 126.915519617033,
        "school_type": "초등학교",
        "school_name": "서현초등학교",
        "distance": 605.1847185087064,
        "walking_time": "약 10분"
      },
      {
        "school_lat": 37.5107193620837,
        "school_lon": 126.902182504089,
        "school_type": "초등학교",
        "school_name": "서울영원초등학교",
        "distance": 612.1074142007037,
        "walking_time": "약 10분"
      },
      {
        "school_lat": 37.5149741902707,
        "school_lon": 126.913646864883,
        "school_type": "중학교",
        "school_name": "영원중학교",
        "distance": 650.0790417628373,
        "walking_time": "약 10분"
      },
      {
        "school_lat": 37.5133455931748,
        "school_lon": 126.916228547854,
        "school_type": "고등학교",
        "school_name": "장훈고등학교",
        "distance": 709.9809066959856,
        "walking_time": "약 11분"
      },
      {
        "school_lat": 37.5153884476796,
        "school_lon": 126.915356313843,
        "school_type": "고등학교",
        "school_name": "영등포여자고등학교",
        "distance": 784.4521389892444,
        "walking_time": "약 12분"
      },
      {
        "school_lat": 37.5101719627186,
        "school_lon": 126.918122078214,
        "school_type": "초등학교",
        "school_name": "서울영신초등학교",
        "distance": 795.383110609433,
        "walking_time": "약 12분"
      },
      {
        "school_lat": 37.5036530645899,
        "school_lon": 126.905518076656,
        "school_type": "고등학교",
        "school_name": "대영고등학교",
        "distance": 811.0401292250702,
        "walking_time": "약 13분"
      },
      {
        "school_lat": 37.5034378363342,
        "school_lon": 126.905208015838,
        "school_type": "중학교",
        "school_name": "대영중학교",
        "distance": 843.9001906142996,
        "walking_time": "약 13분"
      }
    ],
    "self_laundromat": [
      {
        "self_laundromat_lat": 37.51120601,
        "self_laundromat_lon": 126.9169112,
        "self_laundromat_type": "셀프 빨래방",
        "self_laundromat_name": "호텔런드리셀프빨래방",
        "distance": 694.5535356048119,
        "walking_time": "약 11분"
      },
      {
        "self_laundromat_lat": 37.51120601,
        "self_laundromat_lon": 126.9169112,
        "self_laundromat_type": "셀프 빨래방",
        "self_laundromat_name": "호텔런드리셀프빨래방",
        "distance": 694.5535356048119,
        "walking_time": "약 11분"
      },
      {
        "self_laundromat_lat": 37.51676248,
        "self_laundromat_lon": 126.9146045,
        "self_laundromat_type": "셀프 빨래방",
        "self_laundromat_name": "뽀송한빨래방",
        "distance": 860.5788976829373,
        "walking_time": "약 13분"
      },
      {
        "self_laundromat_lat": 37.51676248,
        "self_laundromat_lon": 126.9146045,
        "self_laundromat_type": "셀프 빨래방",
        "self_laundromat_name": "뽀송한빨래방",
        "distance": 860.5788976829373,
        "walking_time": "약 13분"
      },
      {
        "self_laundromat_lat": 37.51769214,
        "self_laundromat_lon": 126.9126477,
        "self_laundromat_type": "셀프 빨래방",
        "self_laundromat_name": "에코런드렛 셀프빨래방 영등포점",
        "distance": 872.1981093778622,
        "walking_time": "약 14분"
      },
      {
        "self_laundromat_lat": 37.51769214,
        "self_laundromat_lon": 126.9126477,
        "self_laundromat_type": "셀프 빨래방",
        "self_laundromat_name": "에코런드렛 셀프빨래방 영등포점",
        "distance": 872.1981093778622,
        "walking_time": "약 14분"
      },
      {
        "self_laundromat_lat": 37.51774067,
        "self_laundromat_lon": 126.9134607,
        "self_laundromat_type": "셀프 빨래방",
        "self_laundromat_name": "워시팡팡무인셀프빨래방 신길역점",
        "distance": 905.2425670187898,
        "walking_time": "약 14분"
      },
      {
        "self_laundromat_lat": 37.51774067,
        "self_laundromat_lon": 126.9134607,
        "self_laundromat_type": "셀프 빨래방",
        "self_laundromat_name": "워시팡팡무인셀프빨래방 신길역점",
        "distance": 905.2425670187898,
        "walking_time": "약 14분"
      },
      {
        "self_laundromat_lat": 37.51368016,
        "self_laundromat_lon": 126.9187163,
        "self_laundromat_type": "셀프 빨래방",
        "self_laundromat_name": "워시프렌즈 셀프빨래방 신길삼거리점",
        "distance": 924.0453379989926,
        "walking_time": "약 14분"
      },
      {
        "self_laundromat_lat": 37.51368016,
        "self_laundromat_lon": 126.9187163,
        "self_laundromat_type": "셀프 빨래방",
        "self_laundromat_name": "워시프렌즈 셀프빨래방 신길삼거리점",
        "distance": 924.0453379989926,
        "walking_time": "약 14분"
      }
    ],
    "subway": [
      {
        "subway_lat": 37.5176677017212,
        "subway_lon": 126.914336937521,
        "subway_type": "지하철",
        "subway_name": "5호선-신길역",
        "distance": 933.5631279931736,
        "walking_time": "약 14분"
      },
      {
        "subway_lat": 37.5001172036762,
        "subway_lon": 126.909841656125,
        "subway_type": "지하철",
        "subway_name": "7호선-신풍역",
        "distance": 1141.6722600646308,
        "walking_time": "약 18분"
      },
      {
        "subway_lat": 37.5227345248969,
        "subway_lon": 126.904959169819,
        "subway_type": "지하철",
        "subway_name": "5호선-영등포시장역",
        "distance": 1422.9476637234468,
        "walking_time": "약 22분"
      },
      {
        "subway_lat": 37.5179214637526,
        "subway_lon": 126.894763060556,
        "subway_type": "지하철",
        "subway_name": "2호선-문래역",
        "distance": 1518.6309474186532,
        "walking_time": "약 23분"
      },
      {
        "subway_lat": 37.5087701449787,
        "subway_lon": 126.891080501385,
        "subway_type": "지하철",
        "subway_name": "2호선-신도림역",
        "distance": 1600.0210242039004,
        "walking_time": "약 24분"
      },
      {
        "subway_lat": 37.5242266062117,
        "subway_lon": 126.895289064995,
        "subway_type": "지하철",
        "subway_name": "5호선-영등포구청역",
        "distance": 1964.7208454908823,
        "walking_time": "약 30분"
      },
      {
        "subway_lat": 37.5256996614804,
        "subway_lon": 126.896626898379,
        "subway_type": "지하철",
        "subway_name": "2호선-영등포구청역",
        "distance": 2029.301531136275,
        "walking_time": "약 31분"
      }
    ],
    "supermarket": [
      {
        "supermarket_lat": 37.50667661,
        "supermarket_lon": 126.911387,
        "supermarket_type": "마트",
        "supermarket_name": "GS THE FRESH 신길사러가점",
        "distance": 457.0458700802958,
        "walking_time": "약 7분"
      },
      {
        "supermarket_lat": 37.5061325,
        "supermarket_lon": 126.9096066,
        "supermarket_type": "마트",
        "supermarket_name": "홈플러스(주) 익스프레스 신길3점",
        "distance": 473.0151424168941,
        "walking_time": "약 8분"
      },
      {
        "supermarket_lat": 37.51566803,
        "supermarket_lon": 126.907666,
        "supermarket_type": "마트",
        "supermarket_name": "롯데백화점 영등포점",
        "distance": 602.9045229928312,
        "walking_time": "약 9분"
      },
      {
        "supermarket_lat": 37.51115621,
        "supermarket_lon": 126.9175856,
        "supermarket_type": "마트",
        "supermarket_name": "대신시장",
        "distance": 752.8784183932485,
        "walking_time": "약 12분"
      },
      {
        "supermarket_lat": 37.51718997,
        "supermarket_lon": 126.9055671,
        "supermarket_type": "마트",
        "supermarket_name": "(주)신세계 타임스퀘어점",
        "distance": 820.3433988417385,
        "walking_time": "약 13분"
      },
      {
        "supermarket_lat": 37.50671773,
        "supermarket_lon": 126.9007733,
        "supermarket_type": "마트",
        "supermarket_name": "홈플러스(주) 익스프레스 도림점",
        "distance": 839.7815887225329,
        "walking_time": "약 13분"
      },
      {
        "supermarket_lat": 37.51723326,
        "supermarket_lon": 126.903716,
        "supermarket_type": "마트",
        "supermarket_name": "타임스퀘어",
        "distance": 899.4031805889394,
        "walking_time": "약 14분"
      },
      {
        "supermarket_lat": 37.51412159,
        "supermarket_lon": 126.918361,
        "supermarket_type": "마트",
        "supermarket_name": "홈플러스(주) 익스프레스 신길2점",
        "distance": 916.6708565426392,
        "walking_time": "약 14분"
      },
      {
        "supermarket_lat": 37.51992006,
        "supermarket_lon": 126.9066547,
        "supermarket_type": "마트",
        "supermarket_name": "영신상가",
        "distance": 1083.9568020257525,
        "walking_time": "약 17분"
      },
      {
        "supermarket_lat": 37.5177939,
        "supermarket_lon": 126.9000769,
        "supermarket_type": "마트",
        "supermarket_name": "룩스쇼핑센터",
        "distance": 1147.301857797724,
        "walking_time": "약 18분"
      }
    ],
    "tax_office": [
      {
        "tax_office_lat": 37.51361958,
        "tax_office_lon": 126.8994697,
        "tax_office_type": "세무서",
        "tax_office_name": "구로세무서",
        "distance": 923.8159576057428,
        "walking_time": "약 14분"
      },
      {
        "tax_office_lat": 37.52530828,
        "tax_office_lon": 126.8927976,
        "tax_office_type": "세무서",
        "tax_office_name": "영등포세무서",
        "distance": 2197.537078659881,
        "walking_time": "약 33분"
      }
    ],
    "theater": [
      {
        "theater_lat": 37.5156680341198,
        "theater_lon": 126.907665995469,
        "theater_type": "영화관",
        "theater_name": "롯데시네마 영등포",
        "distance": 602.9050550901139,
        "walking_time": "약 9분"
      },
      {
        "theater_lat": 37.5172332566615,
        "theater_lon": 126.903715993779,
        "theater_type": "영화관",
        "theater_name": "CGV 영등포",
        "distance": 899.4031556474764,
        "walking_time": "약 14분"
      },
      {
        "theater_lat": 37.5070438414784,
        "theater_lon": 126.890227293528,
        "theater_type": "영화관",
        "theater_name": "CINE Q 신도림점",
        "distance": 1705.928381090259,
        "walking_time": "약 26분"
      }
    ]
  }
}