{
  "클러스터_위도": 37.55852000062193,
  "클러스터_경도": 126.93005633408234,
  "클러스터_level": 4.0,
  "facilities": {
    "bus": [
      {
        "bus_lat": 37.55776469,
        "bus_lon": 126.9295196,
        "bus_type": "버스정류장",
        "bus_name": "동교동삼거리",
        "distance": 96.39607175814442,
        "walking_time": "약 2분"
      },
      {
        "bus_lat": 37.5580671,
        "bus_lon": 126.9285427,
        "bus_type": "버스정류장",
        "bus_name": "동교동삼거리",
        "distance": 142.6115354309041,
        "walking_time": "약 3분"
      },
      {
        "bus_lat": 37.55865826,
        "bus_lon": 126.9274995,
        "bus_type": "버스정류장",
        "bus_name": "동교동삼거리연희동방면",
        "distance": 225.90252618715903,
        "walking_time": "약 4분"
      },
      {
        "bus_lat": 37.55666649,
        "bus_lon": 126.9330023,
        "bus_type": "버스정류장",
        "bus_name": "현대백화점",
        "distance": 331.5313394015878,
        "walking_time": "약 5분"
      },
      {
        "bus_lat": 37.55865155,
        "bus_lon": 126.9259252,
        "bus_type": "버스정류장",
        "bus_name": "홍대입구역(가상)",
        "distance": 364.443247936632,
        "walking_time": "약 6분"
      },
      {
        "bus_lat": 37.55618812,
        "bus_lon": 126.9332008,
        "bus_type": "버스정류장",
        "bus_name": "신촌농협.하나로마트",
        "distance": 379.55595056602914,
        "walking_time": "약 6분"
      },
      {
        "bus_lat": 37.55495817,
        "bus_lon": 126.9301572,
        "bus_type": "버스정류장",
        "bus_name": "산울림소극장",
        "distance": 396.15728506772246,
        "walking_time": "약 6분"
      },
      {
        "bus_lat": 37.55492495,
        "bus_lon": 126.9303701,
        "bus_type": "버스정류장",
        "bus_name": "경의선책거리.산울림소극장",
        "distance": 400.7070767663334,
        "walking_time": "약 6분"
      },
      {
        "bus_lat": 37.56195243,
        "bus_lon": 126.9319882,
        "bus_type": "버스정류장",
        "bus_name": "서대문우체국",
        "distance": 417.933249603127,
        "walking_time": "약 7분"
      },
      {
        "bus_lat": 37.55466981,
        "bus_lon": 126.9303703,
        "bus_type": "버스정류장",
        "bus_name": "산울림포스트극장",
        "distance": 429.0152964299697,
        "walking_time": "약 7분"
      }
    ],
    "community_center": [
      {
        "community_center_lat": 37.55781754,
        "community_center_lon": 126.939546,
        "community_center_type": "주민센터",
        "community_center_name": "신촌동 자치회관",
        "distance": 840.1349581851118,
        "walking_time": "약 13분"
      },
      {
        "community_center_lat": 37.56450401,
        "community_center_lon": 126.9220214,
        "community_center_type": "주민센터",
        "community_center_name": "연남동 자치회관",
        "distance": 971.771027892072,
        "walking_time": "약 15분"
      },
      {
        "community_center_lat": 37.55585899,
        "community_center_lon": 126.9423208,
        "community_center_type": "주민센터",
        "community_center_name": "대흥동 자치회관",
        "distance": 1120.8640919840095,
        "walking_time": "약 17분"
      },
      {
        "community_center_lat": 37.56933601,
        "community_center_lon": 126.9307755,
        "community_center_type": "주민센터",
        "community_center_name": "연희동 자치회관",
        "distance": 1204.3546664523583,
        "walking_time": "약 18분"
      },
      {
        "community_center_lat": 37.54773473,
        "community_center_lon": 126.9320618,
        "community_center_type": "주민센터",
        "community_center_name": "서강동 자치회관",
        "distance": 1212.228085168735,
        "walking_time": "약 19분"
      },
      {
        "community_center_lat": 37.54704643,
        "community_center_lon": 126.9352334,
        "community_center_type": "주민센터",
        "community_center_name": "신수동 자치회관",
        "distance": 1354.974894764098,
        "walking_time": "약 21분"
      },
      {
        "community_center_lat": 37.54707412,
        "community_center_lon": 126.9456478,
        "community_center_type": "주민센터",
        "community_center_name": "염리동 자치회관",
        "distance": 1873.2214067879984,
        "walking_time": "약 28분"
      },
      {
        "community_center_lat": 37.54231555,
        "community_center_lon": 126.9427071,
        "community_center_type": "주민센터",
        "community_center_name": "용강동 자치회관",
        "distance": 2119.073189994781,
        "walking_time": "약 32분"
      },
      {
        "community_center_lat": 37.54153106,
        "community_center_lon": 126.9498753,
        "community_center_type": "주민센터",
        "community_center_name": "도화동 자치회관",
        "distance": 2573.1943004600307,
        "walking_time": "약 39분"
      }
    ],
    "convenience_store": [
      {
        "convenience_store_lat": 37.55761456,
        "convenience_store_lon": 126.9311859,
        "convenience_store_type": "편의점",
        "convenience_store_name": "GS25 창천제일점",
        "distance": 141.60004905955486,
        "walking_time": "약 3분"
      },
      {
        "convenience_store_lat": 37.55866539,
        "convenience_store_lon": 126.9322712,
        "convenience_store_type": "편의점",
        "convenience_store_name": "CU 창천블루점",
        "distance": 195.903305701028,
        "walking_time": "약 3분"
      },
      {
        "convenience_store_lat": 37.55871513,
        "convenience_store_lon": 126.9275695,
        "convenience_store_type": "편의점",
        "convenience_store_name": "GS25 서대문창천점",
        "distance": 220.2795696321604,
        "walking_time": "약 4분"
      },
      {
        "convenience_store_lat": 37.55717517,
        "convenience_store_lon": 126.9282065,
        "convenience_store_type": "편의점",
        "convenience_store_name": "GS25 경의선책거리점",
        "distance": 221.2471443795752,
        "walking_time": "약 4분"
      },
      {
        "convenience_store_lat": 37.55631322,
        "convenience_store_lon": 126.9297543,
        "convenience_store_type": "편의점",
        "convenience_store_name": "세븐일레븐 홍대6번출구점",
        "distance": 246.8229333911568,
        "walking_time": "약 4분"
      },
      {
        "convenience_store_lat": 37.55757559,
        "convenience_store_lon": 126.9273355,
        "convenience_store_type": "편의점",
        "convenience_store_name": "세븐일레븐 홍대5번출구점",
        "distance": 261.81965679750886,
        "walking_time": "약 4분"
      },
      {
        "convenience_store_lat": 37.5573598,
        "convenience_store_lon": 126.9328163,
        "convenience_store_type": "편의점",
        "convenience_store_name": "세븐일레븐 신촌제일점",
        "distance": 275.3751835671437,
        "walking_time": "약 5분"
      },
      {
        "convenience_store_lat": 37.56098805,
        "convenience_store_lon": 126.9309812,
        "convenience_store_type": "편의점",
        "convenience_store_name": "CU 창천중앙점",
        "distance": 286.28727499095635,
        "walking_time": "약 5분"
      },
      {
        "convenience_store_lat": 37.55587367,
        "convenience_store_lon": 126.9307425,
        "convenience_store_type": "편의점",
        "convenience_store_name": "GS25 동교행복점",
        "distance": 300.41059303900005,
        "walking_time": "약 5분"
      },
      {
        "convenience_store_lat": 37.55644046,
        "convenience_store_lon": 126.9277041,
        "convenience_store_type": "편의점",
        "convenience_store_name": "세븐일레븐 홍대7번출구점",
        "distance": 310.58341878251264,
        "walking_time": "약 5분"
      }
    ],
    "daycare": [
      {
        "daycare_lat": 37.56002506,
        "daycare_lon": 126.9299264,
        "daycare_type": "어린이집",
        "daycare_name": "내일어린이집",
        "distance": 167.74642315191696,
        "walking_time": "약 3분"
      },
      {
        "daycare_lat": 37.55625753,
        "daycare_lon": 126.9300912,
        "daycare_type": "어린이집",
        "daycare_name": "구립 동교어린이집",
        "distance": 251.59402738170604,
        "walking_time": "약 4분"
      },
      {
        "daycare_lat": 37.56209232,
        "daycare_lon": 126.9285767,
        "daycare_type": "어린이집",
        "daycare_name": "천사어린이집",
        "distance": 418.0872499946525,
        "walking_time": "약 7분"
      },
      {
        "daycare_lat": 37.557012506783806,
        "daycare_lon": 126.92567071559252,
        "daycare_type": "어린이집",
        "daycare_name": "마포어린이집",
        "distance": 421.3633989974276,
        "walking_time": "약 7분"
      },
      {
        "daycare_lat": 37.555532274626415,
        "daycare_lon": 126.9331608528343,
        "daycare_type": "어린이집",
        "daycare_name": "구립 키움어린이집",
        "distance": 430.4193224940922,
        "walking_time": "약 7분"
      },
      {
        "daycare_lat": 37.56213796,
        "daycare_lon": 126.9281361,
        "daycare_type": "어린이집",
        "daycare_name": "리틀빌리지어린이집",
        "distance": 436.455312083564,
        "walking_time": "약 7분"
      },
      {
        "daycare_lat": 37.55552153779792,
        "daycare_lon": 126.93353096080013,
        "daycare_type": "어린이집",
        "daycare_name": "신촌방과후교실어린이집",
        "distance": 452.7429639784552,
        "walking_time": "약 7분"
      },
      {
        "daycare_lat": 37.55419006,
        "daycare_lon": 126.93073,
        "daycare_type": "어린이집",
        "daycare_name": "홍익몬테소리어린이집",
        "distance": 485.11578357569647,
        "walking_time": "약 8분"
      },
      {
        "daycare_lat": 37.56287732097153,
        "daycare_lon": 126.92748137787709,
        "daycare_type": "어린이집",
        "daycare_name": "해찬솔어린이집",
        "distance": 535.0393268244991,
        "walking_time": "약 8분"
      },
      {
        "daycare_lat": 37.55693532,
        "daycare_lon": 126.92331674012144,
        "daycare_type": "어린이집",
        "daycare_name": "the KIDS 홍대 어린이집",
        "distance": 619.6672359441123,
        "walking_time": "약 10분"
      }
    ],
    "education": [
      {
        "education_lat": 37.55698238,
        "education_lon": 126.92959,
        "education_type": "도서관",
        "education_name": "연세대학교 김대중도서관",
        "distance": 175.84771876676453,
        "walking_time": "약 3분"
      },
      {
        "education_lat": 37.5550833,
        "education_lon": 126.9301095,
        "education_type": "공연장",
        "education_name": "소극장 산울림",
        "distance": 382.17241015986224,
        "walking_time": "약 6분"
      },
      {
        "education_lat": 37.5541249,
        "education_lon": 126.9296484,
        "education_type": "공연장",
        "education_name": "포스트극장",
        "distance": 490.0340560074675,
        "walking_time": "약 8분"
      },
      {
        "education_lat": 37.55504357,
        "education_lon": 126.9338654,
        "education_type": "박물관/기념관",
        "education_name": "이한열기념관",
        "distance": 512.0254048194074,
        "walking_time": "약 8분"
      },
      {
        "education_lat": 37.55432192,
        "education_lon": 126.9242041,
        "education_type": "도서관",
        "education_name": "서울특별시교육청 마포평생학습관",
        "distance": 695.725945678132,
        "walking_time": "약 11분"
      },
      {
        "education_lat": 37.55760078,
        "education_lon": 126.9381984,
        "education_type": "공연장",
        "education_name": "극장PLOT",
        "distance": 724.9504586596871,
        "walking_time": "약 11분"
      },
      {
        "education_lat": 37.55251925,
        "education_lon": 126.9249906,
        "education_type": "박물관/기념관",
        "education_name": "홍익대학교 박물관",
        "distance": 802.8911062103969,
        "walking_time": "약 12분"
      },
      {
        "education_lat": 37.5656579,
        "education_lon": 126.9285381,
        "education_type": "공연장",
        "education_name": "연희예술극장",
        "distance": 804.9007798628792,
        "walking_time": "약 13분"
      },
      {
        "education_lat": 37.55886566,
        "education_lon": 126.9400664,
        "education_type": "미술관/갤러리",
        "education_name": "ANDNEW GALLERY(앤드뉴 갤러리)",
        "distance": 883.1987971177336,
        "walking_time": "약 14분"
      },
      {
        "education_lat": 37.55656393,
        "education_lon": 126.9403281,
        "education_type": "박물관/기념관",
        "education_name": "우석뮤지엄",
        "distance": 931.2023250449104,
        "walking_time": "약 14분"
      }
    ],
    "fitness": [
      {
        "fitness_lat": 37.55840604,
        "fitness_lon": 126.928533,
        "fitness_type": "운동시설",
        "fitness_name": "클라우드 짐",
        "distance": 134.87506722162738,
        "walking_time": "약 3분"
      },
      {
        "fitness_lat": 37.5580882,
        "fitness_lon": 126.9276921,
        "fitness_type": "운동시설",
        "fitness_name": "주식회사 홀리핏(Holyfit) 홍대점",
        "distance": 213.86185170671365,
        "walking_time": "약 4분"
      },
      {
        "fitness_lat": 37.55766848,
        "fitness_lon": 126.9258931,
        "fitness_type": "운동시설",
        "fitness_name": "에이블짐 홍대입구역점",
        "distance": 378.99954243842296,
        "walking_time": "약 6분"
      },
      {
        "fitness_lat": 37.56140069,
        "fitness_lon": 126.9272054,
        "fitness_type": "운동시설",
        "fitness_name": "SPERO GYM",
        "distance": 407.12961445559,
        "walking_time": "약 7분"
      },
      {
        "fitness_lat": 37.55676498,
        "fitness_lon": 126.9342994,
        "fitness_type": "운동시설",
        "fitness_name": "크로스핏 스팀펑크 신촌",
        "distance": 421.870677257717,
        "walking_time": "약 7분"
      },
      {
        "fitness_lat": 37.56182893,
        "fitness_lon": 126.9275011,
        "fitness_type": "운동시설",
        "fitness_name": "헬로바디 피트니스",
        "distance": 431.4010950163496,
        "walking_time": "약 7분"
      },
      {
        "fitness_lat": 37.56139737,
        "fitness_lon": 126.9263569,
        "fitness_type": "운동시설",
        "fitness_name": "아르케GYM(PT샵)",
        "distance": 456.8392851074798,
        "walking_time": "약 7분"
      },
      {
        "fitness_lat": 37.55724678,
        "fitness_lon": 126.9249862,
        "fitness_type": "운동시설",
        "fitness_name": "헬스보이짐필라걸홍대점",
        "distance": 468.8124162977023,
        "walking_time": "약 7분"
      },
      {
        "fitness_lat": 37.55653314,
        "fitness_lon": 126.92406,
        "fitness_type": "운동시설",
        "fitness_name": "휘트니스피플우먼 홍대점",
        "distance": 572.8837504085022,
        "walking_time": "약 9분"
      },
      {
        "fitness_lat": 37.55749388,
        "fitness_lon": 126.923364,
        "fitness_type": "운동시설",
        "fitness_name": "지투짐",
        "distance": 600.8508059717888,
        "walking_time": "약 9분"
      }
    ],
    "gas_station": [
      {
        "gas_station_lat": 37.55986958,
        "gas_station_lon": 126.9268498,
        "gas_station_type": "주유소",
        "gas_station_name": "㈜중앙에너비스 동교지점",
        "distance": 320.01355284561504,
        "walking_time": "약 5분"
      },
      {
        "gas_station_lat": 37.56502434,
        "gas_station_lon": 126.929929,
        "gas_station_type": "주유소",
        "gas_station_name": "㈜안국에너지 삼보주유소",
        "distance": 723.3366221185843,
        "walking_time": "약 11분"
      },
      {
        "gas_station_lat": 37.56607084,
        "gas_station_lon": 126.9249412,
        "gas_station_type": "주유소",
        "gas_station_name": "구도일주유소 두꺼비",
        "distance": 953.0121088051214,
        "walking_time": "약 15분"
      },
      {
        "gas_station_lat": 37.54983427,
        "gas_station_lon": 126.9325913,
        "gas_station_type": "주유소",
        "gas_station_name": "주식회사 에스에스 오토",
        "distance": 991.3242186827628,
        "walking_time": "약 15분"
      },
      {
        "gas_station_lat": 37.56101556,
        "gas_station_lon": 126.9415693,
        "gas_station_type": "주유소",
        "gas_station_name": "행촌제2주유소",
        "distance": 1052.0793566331229,
        "walking_time": "약 16분"
      },
      {
        "gas_station_lat": 37.5693078,
        "gas_station_lon": 126.9324582,
        "gas_station_type": "주유소",
        "gas_station_name": "연희주유소",
        "distance": 1218.086679122767,
        "walking_time": "약 19분"
      },
      {
        "gas_station_lat": 37.54615484,
        "gas_station_lon": 126.9400827,
        "gas_station_type": "주유소",
        "gas_station_name": "대흥주유소",
        "distance": 1634.5342732578308,
        "walking_time": "약 25분"
      },
      {
        "gas_station_lat": 37.54302819,
        "gas_station_lon": 126.9388476,
        "gas_station_type": "주유소",
        "gas_station_name": "그린에너지컴퍼니 용강주유소",
        "distance": 1888.922627467342,
        "walking_time": "약 29분"
      },
      {
        "gas_station_lat": 37.5462257,
        "gas_station_lon": 126.9449699,
        "gas_station_type": "주유소",
        "gas_station_name": "에쓰-오일(주) 염리동 주유소",
        "distance": 1896.658134732134,
        "walking_time": "약 29분"
      },
      {
        "gas_station_lat": 37.54211838,
        "gas_station_lon": 126.9485221,
        "gas_station_type": "주유소",
        "gas_station_name": "에스케이에너지(주) 양지주유소",
        "distance": 2444.626781620643,
        "walking_time": "약 37분"
      }
    ],
    "hospital": [
      {
        "hospital_lat": 37.55799702,
        "hospital_lon": 126.9296313,
        "hospital_type": "병원",
        "hospital_name": "오흥근마취통증의학과의원",
        "distance": 69.17688157090284,
        "walking_time": "약 2분"
      },
      {
        "hospital_lat": 37.55802944,
        "hospital_lon": 126.9294448,
        "hospital_type": "병원",
        "hospital_name": "위풍환이비인후과의원",
        "distance": 76.68943887351607,
        "walking_time": "약 2분"
      },
      {
        "hospital_lat": 37.55840604,
        "hospital_lon": 126.928533,
        "hospital_type": "병원",
        "hospital_name": "재단법인화강문화재단서울이웃린치과의원",
        "distance": 134.87506722162738,
        "walking_time": "약 3분"
      },
      {
        "hospital_lat": 37.55757678,
        "hospital_lon": 126.9284145,
        "hospital_type": "병원",
        "hospital_name": "마인치과의원",
        "distance": 178.73265190710296,
        "walking_time": "약 3분"
      },
      {
        "hospital_lat": 37.55801013,
        "hospital_lon": 126.9279138,
        "hospital_type": "병원",
        "hospital_name": "동교치과의원",
        "distance": 197.1863299662145,
        "walking_time": "약 3분"
      },
      {
        "hospital_lat": 37.5580882,
        "hospital_lon": 126.9276921,
        "hospital_type": "병원",
        "hospital_name": "고려정형외과의원",
        "distance": 213.86185170671365,
        "walking_time": "약 4분"
      },
      {
        "hospital_lat": 37.5580882,
        "hospital_lon": 126.9276921,
        "hospital_type": "병원",
        "hospital_name": "진오비산부인과의원",
        "distance": 213.86185170671365,
        "walking_time": "약 4분"
      },
      {
        "hospital_lat": 37.55596182,
        "hospital_lon": 126.9312644,
        "hospital_type": "병원",
        "hospital_name": "최근해산부인과의원",
        "distance": 303.7363106927262,
        "walking_time": "약 5분"
      },
      {
        "hospital_lat": 37.55837832,
        "hospital_lon": 126.9265181,
        "hospital_type": "병원",
        "hospital_name": "드림페이스의원",
        "distance": 312.28506910077067,
        "walking_time": "약 5분"
      },
      {
        "hospital_lat": 37.55638754,
        "hospital_lon": 126.9325159,
        "hospital_type": "병원",
        "hospital_name": "경희사랑담아한의원",
        "distance": 321.2959626495479,
        "walking_time": "약 5분"
      }
    ],
    "music_room": [
      {
        "music_room_lat": 37.55677329,
        "music_room_lon": 126.9258154,
        "music_room_type": "노래방",
        "music_room_name": "스토리엠 노래연습장",
        "distance": 421.2772522460572,
        "walking_time": "약 7분"
      },
      {
        "music_room_lat": 37.55458925,
        "music_room_lon": 126.931286,
        "music_room_type": "노래방",
        "music_room_name": "땡땡이 노래연습장",
        "distance": 450.31988862305707,
        "walking_time": "약 7분"
      },
      {
        "music_room_lat": 37.55620136,
        "music_room_lon": 126.9258514,
        "music_room_type": "노래방",
        "music_room_name": "퀸 노래연습장",
        "distance": 451.509973028643,
        "walking_time": "약 7분"
      },
      {
        "music_room_lat": 37.5555999,
        "music_room_lon": 126.9336425,
        "music_room_type": "노래방",
        "music_room_name": "FM 노래연습장",
        "distance": 453.16794073768426,
        "walking_time": "약 7분"
      },
      {
        "music_room_lat": 37.55877125,
        "music_room_lon": 126.9248162,
        "music_room_type": "노래방",
        "music_room_name": "락휴 코인노래연습장 홍대연남점",
        "distance": 462.7490121822845,
        "walking_time": "약 7분"
      },
      {
        "music_room_lat": 37.5597239,
        "music_room_lon": 126.9249929,
        "music_room_type": "노래방",
        "music_room_name": "애플 노래연습장 동교점",
        "distance": 465.9696798953588,
        "walking_time": "약 7분"
      },
      {
        "music_room_lat": 37.55609466,
        "music_room_lon": 126.9256685,
        "music_room_type": "노래방",
        "music_room_name": "뉴코인싱어 노래연습장",
        "distance": 471.5208799909624,
        "walking_time": "약 8분"
      },
      {
        "music_room_lat": 37.55663956,
        "music_room_lon": 126.9251991,
        "music_room_type": "노래방",
        "music_room_name": "? 노래연습장",
        "distance": 476.4885350929665,
        "walking_time": "약 8분"
      },
      {
        "music_room_lat": 37.55490217,
        "music_room_lon": 126.9334902,
        "music_room_type": "노래방",
        "music_room_name": "궁 노래연습장",
        "distance": 503.4449439927678,
        "walking_time": "약 8분"
      },
      {
        "music_room_lat": 37.55778471,
        "music_room_lon": 126.9357282,
        "music_room_type": "노래방",
        "music_room_name": "럭셔리노래연습장",
        "distance": 506.6054680451445,
        "walking_time": "약 8분"
      }
    ],
    "park": [
      {
        "park_lat": 37.5517298,
        "park_lon": 126.9289936,
        "park_type": "공원",
        "park_name": "와우근린공원",
        "distance": 760.825494078931,
        "walking_time": "약 12분"
      },
      {
        "park_lat": 37.5690506,
        "park_lon": 126.9229851,
        "park_type": "공원",
        "park_name": "궁동근린공원",
        "distance": 1326.493930033053,
        "walking_time": "약 20분"
      }
    ],
    "park_station": [
      {
        "park_station_lat": 37.5569955,
        "park_station_lon": 126.9289222,
        "park_station_type": "주차장",
        "park_station_name": "공유) 9-88",
        "distance": 196.8003734579342,
        "walking_time": "약 3분"
      },
      {
        "park_station_lat": 37.55665923,
        "park_station_lon": 126.9272697,
        "park_station_type": "주차장",
        "park_station_name": "동교3공영주차장",
        "distance": 321.16857087559265,
        "walking_time": "약 5분"
      },
      {
        "park_station_lat": 37.55558374,
        "park_station_lon": 126.9352179,
        "park_station_type": "주차장",
        "park_station_name": "신촌노외 공영주차장",
        "distance": 560.0138423437998,
        "walking_time": "약 9분"
      },
      {
        "park_station_lat": 37.56136972,
        "park_station_lon": 126.9241056,
        "park_station_type": "주차장",
        "park_station_name": "연남 유료 주차장",
        "distance": 612.8169571733754,
        "walking_time": "약 10분"
      },
      {
        "park_station_lat": 37.56147992,
        "park_station_lon": 126.924116,
        "park_station_type": "주차장",
        "park_station_name": "연남 유료 주차장",
        "distance": 618.4652502656611,
        "walking_time": "약 10분"
      },
      {
        "park_station_lat": 37.56158877,
        "park_station_lon": 126.9241269,
        "park_station_type": "주차장",
        "park_station_name": "연남 유료 주차장",
        "distance": 624.1853582372945,
        "walking_time": "약 10분"
      },
      {
        "park_station_lat": 37.56258735,
        "park_station_lon": 126.9248387,
        "park_station_type": "주차장",
        "park_station_name": "연남 유료 주차장",
        "distance": 645.030174654846,
        "walking_time": "약 10분"
      },
      {
        "park_station_lat": 37.55369411,
        "park_station_lon": 126.9341263,
        "park_station_type": "주차장",
        "park_station_name": "신촌노외 공영주차장",
        "distance": 645.5004758779478,
        "walking_time": "약 10분"
      },
      {
        "park_station_lat": 37.5620216,
        "park_station_lon": 126.9241215,
        "park_station_type": "주차장",
        "park_station_name": "연남 유료 주차장",
        "distance": 652.1240942544707,
        "walking_time": "약 10분"
      },
      {
        "park_station_lat": 37.56314258,
        "park_station_lon": 126.9254671,
        "park_station_type": "주차장",
        "park_station_name": "연남 유료 주차장",
        "distance": 654.0934440580573,
        "walking_time": "약 10분"
      }
    ],
    "pc_room": [
      {
        "pc_room_lat": 37.5582028873199,
        "pc_room_lon": 126.9290107594,
        "pc_room_type": "PC방",
        "pc_room_name": "GEEKSTAR PC방 창천점",
        "distance": 98.6802228052937,
        "walking_time": "약 2분"
      },
      {
        "pc_room_lat": 37.5583280533329,
        "pc_room_lon": 126.926246501876,
        "pc_room_type": "PC방",
        "pc_room_name": "칵투스 PC CAFE",
        "distance": 336.5058754677515,
        "walking_time": "약 6분"
      },
      {
        "pc_room_lat": 37.5576684824211,
        "pc_room_lon": 126.92589313527,
        "pc_room_type": "PC방",
        "pc_room_name": "원신PC라운지 인 서울",
        "distance": 378.9964647756535,
        "walking_time": "약 6분"
      },
      {
        "pc_room_lat": 37.5548638155738,
        "pc_room_lon": 126.929956540282,
        "pc_room_type": "PC방",
        "pc_room_name": "GEEKSTAR PC CAFE",
        "distance": 406.6443886287903,
        "walking_time": "약 7분"
      },
      {
        "pc_room_lat": 37.5547912647987,
        "pc_room_lon": 126.92886732437,
        "pc_room_type": "PC방",
        "pc_room_name": "두근두근 플스방",
        "distance": 427.6589861724503,
        "walking_time": "약 7분"
      },
      {
        "pc_room_lat": 37.5623999133101,
        "pc_room_lon": 126.927239750975,
        "pc_room_type": "PC방",
        "pc_room_name": "샘 피시방 (SAEM PC방)",
        "distance": 497.7613075248024,
        "walking_time": "약 8분"
      },
      {
        "pc_room_lat": 37.5553097221974,
        "pc_room_lon": 126.935331733458,
        "pc_room_type": "PC방",
        "pc_room_name": "아이센스리그PC신촌본점",
        "distance": 586.2360941621438,
        "walking_time": "약 9분"
      },
      {
        "pc_room_lat": 37.5614156250297,
        "pc_room_lon": 126.924450876158,
        "pc_room_type": "PC방",
        "pc_room_name": "으뜸 플스방",
        "distance": 589.748815535644,
        "walking_time": "약 9분"
      },
      {
        "pc_room_lat": 37.5542515086762,
        "pc_room_lon": 126.934204893562,
        "pc_room_type": "PC방",
        "pc_room_name": "3POP PC방",
        "distance": 599.1760107774243,
        "walking_time": "약 9분"
      },
      {
        "pc_room_lat": 37.5587839163385,
        "pc_room_lon": 126.937240313986,
        "pc_room_type": "PC방",
        "pc_room_name": "아크PC",
        "distance": 633.9296751577691,
        "walking_time": "약 10분"
      }
    ],
    "police_office": [
      {
        "police_office_lat": 37.56033561,
        "police_office_lon": 126.9237621,
        "police_office_type": "경찰소",
        "police_office_name": "연남파출소",
        "distance": 590.4051975061345,
        "walking_time": "약 9분"
      },
      {
        "police_office_lat": 37.55855258,
        "police_office_lon": 126.9430099,
        "police_office_type": "경찰소",
        "police_office_name": "신촌지구대",
        "distance": 1141.8323179145473,
        "walking_time": "약 18분"
      },
      {
        "police_office_lat": 37.54734721,
        "police_office_lon": 126.9293114,
        "police_office_type": "경찰소",
        "police_office_name": "서강지구대",
        "distance": 1244.0920083378046,
        "walking_time": "약 19분"
      },
      {
        "police_office_lat": 37.54256134,
        "police_office_lon": 126.9430834,
        "police_office_type": "경찰소",
        "police_office_name": "용강지구대",
        "distance": 2113.721121256533,
        "walking_time": "약 32분"
      }
    ],
    "post_office": [
      {
        "post_office_lat": 37.55769106,
        "post_office_lon": 126.928758,
        "post_office_type": "우체국",
        "post_office_name": "서울동교동우편취급국",
        "distance": 146.94856501410433,
        "walking_time": "약 3분"
      },
      {
        "post_office_lat": 37.56084354,
        "post_office_lon": 126.9320908,
        "post_office_type": "우체국",
        "post_office_name": "서대문우체국",
        "distance": 314.50336658915137,
        "walking_time": "약 5분"
      },
      {
        "post_office_lat": 37.55462944,
        "post_office_lon": 126.9379735,
        "post_office_type": "우체국",
        "post_office_name": "서울노고산동우편취급국",
        "distance": 821.1051222425241,
        "walking_time": "약 13분"
      },
      {
        "post_office_lat": 37.54822168,
        "post_office_lon": 126.9258614,
        "post_office_type": "우체국",
        "post_office_name": "서울창전동우체국",
        "distance": 1203.3509956549108,
        "walking_time": "약 18분"
      },
      {
        "post_office_lat": 37.55694048,
        "post_office_lon": 126.943879,
        "post_office_type": "우체국",
        "post_office_name": "서울신촌우체국",
        "distance": 1231.0423341606345,
        "walking_time": "약 19분"
      },
      {
        "post_office_lat": 37.56958301,
        "post_office_lon": 126.9316141,
        "post_office_type": "우체국",
        "post_office_name": "서울연희동우체국",
        "distance": 1237.7893513119438,
        "walking_time": "약 19분"
      },
      {
        "post_office_lat": 37.55146496,
        "post_office_lon": 126.94298,
        "post_office_type": "우체국",
        "post_office_name": "서강대학교우편취급국",
        "distance": 1383.2193443052215,
        "walking_time": "약 21분"
      },
      {
        "post_office_lat": 37.54574778,
        "post_office_lon": 126.9344967,
        "post_office_type": "우체국",
        "post_office_name": "서울신수동우편취급국",
        "distance": 1473.163915144714,
        "walking_time": "약 22분"
      },
      {
        "post_office_lat": 37.56605084,
        "post_office_lon": 126.9439162,
        "post_office_type": "우체국",
        "post_office_name": "서울연세대학교우체국",
        "distance": 1481.1011938554566,
        "walking_time": "약 23분"
      },
      {
        "post_office_lat": 37.54743639,
        "post_office_lon": 126.9436701,
        "post_office_type": "우체국",
        "post_office_name": "서울대흥동우편취급국",
        "distance": 1720.226230710959,
        "walking_time": "약 26분"
      }
    ],
    "public_health_center": [
      {
        "public_health_center_lat": 37.54773473,
        "public_health_center_lon": 126.9320618,
        "public_health_center_type": "보건소",
        "public_health_center_name": "서강보건지소",
        "distance": 1212.228085168735,
        "walking_time": "약 19분"
      }
    ],
    "school": [
      {
        "school_lat": 37.5581430512569,
        "school_lon": 126.933480871339,
        "school_type": "초등학교",
        "school_name": "서울창서초등학교",
        "distance": 304.7618892634097,
        "walking_time": "약 5분"
      },
      {
        "school_lat": 37.554881730967,
        "school_lon": 126.924382439365,
        "school_type": "초등학교",
        "school_name": "서울서교초등학교",
        "distance": 643.2879412057297,
        "walking_time": "약 10분"
      },
      {
        "school_lat": 37.5549178201995,
        "school_lon": 126.939295148137,
        "school_type": "중학교",
        "school_name": "창천중학교",
        "distance": 907.5695988601088,
        "walking_time": "약 14분"
      },
      {
        "school_lat": 37.5549178201995,
        "school_lon": 126.939295148137,
        "school_type": "초등학교",
        "school_name": "서울창천초등학교",
        "distance": 907.5695988601088,
        "walking_time": "약 14분"
      },
      {
        "school_lat": 37.5682162296874,
        "school_lon": 126.927137653568,
        "school_type": "중학교",
        "school_name": "서연중학교",
        "distance": 1108.4383214152522,
        "walking_time": "약 17분"
      },
      {
        "school_lat": 37.5611502235257,
        "school_lon": 126.942775077877,
        "school_type": "초등학교",
        "school_name": "이화여자대학교사범대학부속초등학교",
        "distance": 1158.6286581603506,
        "walking_time": "약 18분"
      },
      {
        "school_lat": 37.5481050750929,
        "school_lon": 126.927430860042,
        "school_type": "초등학교",
        "school_name": "서울서강초등학교",
        "distance": 1180.9878490995857,
        "walking_time": "약 18분"
      },
      {
        "school_lat": 37.5486975552073,
        "school_lon": 126.935969575594,
        "school_type": "고등학교",
        "school_name": "광성고등학교",
        "distance": 1210.2229485335272,
        "walking_time": "약 19분"
      },
      {
        "school_lat": 37.5486975552073,
        "school_lon": 126.935969575594,
        "school_type": "중학교",
        "school_name": "광성중학교",
        "distance": 1210.2229485335272,
        "walking_time": "약 19분"
      },
      {
        "school_lat": 37.5690459271047,
        "school_lon": 126.934142303217,
        "school_type": "초등학교",
        "school_name": "서울연희초등학교",
        "distance": 1224.585104027513,
        "walking_time": "약 19분"
      }
    ],
    "self_laundromat": [
      {
        "self_laundromat_lat": 37.5590628,
        "self_laundromat_lon": 126.9284147,
        "self_laundromat_type": "셀프 빨래방",
        "self_laundromat_name": "워시엔조이 홍대역점",
        "distance": 156.78856811922105,
        "walking_time": "약 3분"
      },
      {
        "self_laundromat_lat": 37.5590628,
        "self_laundromat_lon": 126.9284147,
        "self_laundromat_type": "셀프 빨래방",
        "self_laundromat_name": "워시엔조이 홍대역점",
        "distance": 156.78856811922105,
        "walking_time": "약 3분"
      },
      {
        "self_laundromat_lat": 37.55840085,
        "self_laundromat_lon": 126.9338351,
        "self_laundromat_type": "셀프 빨래방",
        "self_laundromat_name": "런드리데이 신촌점",
        "distance": 333.35311660403835,
        "walking_time": "약 5분"
      },
      {
        "self_laundromat_lat": 37.55840085,
        "self_laundromat_lon": 126.9338351,
        "self_laundromat_type": "셀프 빨래방",
        "self_laundromat_name": "런드리데이 신촌점",
        "distance": 333.35311660403835,
        "walking_time": "약 5분"
      },
      {
        "self_laundromat_lat": 37.5617072,
        "self_laundromat_lon": 126.9279347,
        "self_laundromat_type": "셀프 빨래방",
        "self_laundromat_name": "코인워시24빨래터 연희점",
        "distance": 400.7163017615408,
        "walking_time": "약 6분"
      },
      {
        "self_laundromat_lat": 37.5617072,
        "self_laundromat_lon": 126.9279347,
        "self_laundromat_type": "셀프 빨래방",
        "self_laundromat_name": "코인워시24빨래터 연희점",
        "distance": 400.7163017615408,
        "walking_time": "약 6분"
      },
      {
        "self_laundromat_lat": 37.55475911,
        "self_laundromat_lon": 126.9314807,
        "self_laundromat_type": "셀프 빨래방",
        "self_laundromat_name": "경의선 빨래방",
        "distance": 436.63400550056775,
        "walking_time": "약 7분"
      },
      {
        "self_laundromat_lat": 37.55475911,
        "self_laundromat_lon": 126.9314807,
        "self_laundromat_type": "셀프 빨래방",
        "self_laundromat_name": "경의선 빨래방",
        "distance": 436.63400550056775,
        "walking_time": "약 7분"
      },
      {
        "self_laundromat_lat": 37.56138278,
        "self_laundromat_lon": 126.9266646,
        "self_laundromat_type": "셀프 빨래방",
        "self_laundromat_name": "호스텔클레오 코인런드리",
        "distance": 436.7075768393765,
        "walking_time": "약 7분"
      },
      {
        "self_laundromat_lat": 37.56138278,
        "self_laundromat_lon": 126.9266646,
        "self_laundromat_type": "셀프 빨래방",
        "self_laundromat_name": "호스텔클레오 코인런드리",
        "distance": 436.7075768393765,
        "walking_time": "약 7분"
      }
    ],
    "subway": [
      {
        "subway_lat": 37.5568904093718,
        "subway_lon": 126.923674307594,
        "subway_type": "지하철",
        "subway_name": "2호선-홍대입구역",
        "distance": 591.0295207926816,
        "walking_time": "약 9분"
      },
      {
        "subway_lat": 37.5553118177651,
        "subway_lon": 126.935539064832,
        "subway_type": "지하철",
        "subway_name": "2호선-신촌(지하)역",
        "distance": 600.6980890455197,
        "walking_time": "약 9분"
      },
      {
        "subway_lat": 37.5477347268018,
        "subway_lon": 126.932061794829,
        "subway_type": "지하철",
        "subway_name": "6호선-광흥창(서강)역",
        "distance": 1212.2283705110267,
        "walking_time": "약 19분"
      },
      {
        "subway_lat": 37.5479338964558,
        "subway_lon": 126.922761170836,
        "subway_type": "지하철",
        "subway_name": "6호선-상수역",
        "distance": 1341.3382530184306,
        "walking_time": "약 21분"
      },
      {
        "subway_lat": 37.5565092992834,
        "subway_lon": 126.945485771834,
        "subway_type": "지하철",
        "subway_name": "2호선-이대역",
        "distance": 1378.341767151101,
        "walking_time": "약 21분"
      },
      {
        "subway_lat": 37.5477273573601,
        "subway_lon": 126.9415226828,
        "subway_type": "지하철",
        "subway_name": "6호선-대흥(서강대앞)역",
        "distance": 1569.0559286304704,
        "walking_time": "약 24분"
      }
    ],
    "supermarket": [
      {
        "supermarket_lat": 37.55840604,
        "supermarket_lon": 126.928533,
        "supermarket_type": "마트",
        "supermarket_name": "롯데슈퍼 창천점",
        "distance": 134.87506722162738,
        "walking_time": "약 3분"
      },
      {
        "supermarket_lat": 37.55653513,
        "supermarket_lon": 126.9283908,
        "supermarket_type": "마트",
        "supermarket_name": "홍대복합역사 상업시설",
        "distance": 265.0781809496518,
        "walking_time": "약 4분"
      },
      {
        "supermarket_lat": 37.55774581,
        "supermarket_lon": 126.9264983,
        "supermarket_type": "마트",
        "supermarket_name": "AK PLAZA 홍대",
        "distance": 325.23399803858,
        "walking_time": "약 5분"
      },
      {
        "supermarket_lat": 37.55724678,
        "supermarket_lon": 126.9249862,
        "supermarket_type": "마트",
        "supermarket_name": "스타피카소 아울렛",
        "distance": 468.8124162977023,
        "walking_time": "약 7분"
      },
      {
        "supermarket_lat": 37.55724678,
        "supermarket_lon": 126.9249862,
        "supermarket_type": "마트",
        "supermarket_name": "YZ Park 홍대점",
        "distance": 468.8124162977023,
        "walking_time": "약 7분"
      },
      {
        "supermarket_lat": 37.56237655,
        "supermarket_lon": 126.9267634,
        "supermarket_type": "마트",
        "supermarket_name": "동진시장",
        "distance": 517.8254533321968,
        "walking_time": "약 8분"
      },
      {
        "supermarket_lat": 37.55608306,
        "supermarket_lon": 126.9358449,
        "supermarket_type": "마트",
        "supermarket_name": "현대백화점 신촌점",
        "distance": 577.7455400212784,
        "walking_time": "약 9분"
      },
      {
        "supermarket_lat": 37.55499393,
        "supermarket_lon": 126.9360018,
        "supermarket_type": "마트",
        "supermarket_name": "정도진흥기업(주)",
        "distance": 654.5223307887379,
        "walking_time": "약 10분"
      },
      {
        "supermarket_lat": 37.56271074,
        "supermarket_lon": 126.921857,
        "supermarket_type": "마트",
        "supermarket_name": "홈플러스익스프레스 연남점",
        "distance": 859.9344258081417,
        "walking_time": "약 13분"
      },
      {
        "supermarket_lat": 37.55351606,
        "supermarket_lon": 126.9217154,
        "supermarket_type": "마트",
        "supermarket_name": "서교시장",
        "distance": 922.063213950743,
        "walking_time": "약 14분"
      }
    ],
    "tax_office": [
      {
        "tax_office_lat": 37.54652242,
        "tax_office_lon": 126.9394936,
        "tax_office_type": "세무서",
        "tax_office_name": "마포세무서",
        "distance": 1572.2173301932992,
        "walking_time": "약 24분"
      }
    ],
    "theater": [
      {
        "theater_lat": 37.5576684824211,
        "theater_lon": 126.92589313527,
        "theater_type": "영화관",
        "theater_name": "CGV연남",
        "distance": 378.9964647756535,
        "walking_time": "약 6분"
      },
      {
        "theater_lat": 37.5572467836494,
        "theater_lon": 126.924986220455,
        "theater_type": "영화관",
        "theater_name": "독립영화전용관 인디스페이스",
        "distance": 468.81057484948593,
        "walking_time": "약 7분"
      },
      {
        "theater_lat": 37.5564943733388,
        "theater_lon": 126.922631917858,
        "theater_type": "영화관",
        "theater_name": "CGV홍대",
        "distance": 692.1292058969519,
        "walking_time": "약 11분"
      },
      {
        "theater_lat": 37.5651674709792,
        "theater_lon": 126.930936157626,
        "theater_type": "영화관",
        "theater_name": "라이카시네마",
        "distance": 743.2220497261919,
        "walking_time": "약 12분"
      },
      {
        "theater_lat": 37.5560502523992,
        "theater_lon": 126.922054509333,
        "theater_type": "영화관",
        "theater_name": "메가박스중앙(주) 홍대지점",
        "distance": 756.9295324627781,
        "walking_time": "약 12분"
      },
      {
        "theater_lat": 37.5543349117636,
        "theater_lon": 126.921207395382,
        "theater_type": "영화관",
        "theater_name": "모노플렉스 앳 라이즈",
        "distance": 908.3037356689535,
        "walking_time": "약 14분"
      },
      {
        "theater_lat": 37.5565639285478,
        "theater_lon": 126.940328119434,
        "theater_type": "영화관",
        "theater_name": "CGV신촌아트레온",
        "distance": 931.2040284674404,
        "walking_time": "약 14분"
      },
      {
        "theater_lat": 37.5598241279561,
        "theater_lon": 126.942386979371,
        "theater_type": "영화관",
        "theater_name": "메가박스중앙(주) 신촌지점",
        "distance": 1096.5392057647512,
        "walking_time": "약 17분"
      },
      {
        "theater_lat": 37.5509576951977,
        "theater_lon": 126.921063042067,
        "theater_type": "영화관",
        "theater_name": "KT&G 상상마당 cinema",
        "distance": 1155.6786177653437,
        "walking_time": "약 18분"
      },
      {
        "theater_lat": 37.5637750959193,
        "theater_lon": 126.944090214952,
        "theater_type": "영화관",
        "theater_name": "필름포럼",
        "distance": 1368.081878578191,
        "walking_time": "약 21분"
      }
    ],
    "university": [
      {
        "university_lat": 37.5525245968145,
        "university_lon": 126.9250355422,
        "university_type": "대학교",
        "university_name": "홍익대학교",
        "distance": 800.1990618289101,
        "walking_time": "약 12분"
      },
      {
        "university_lat": 37.5514649610226,
        "university_lon": 126.942979960696,
        "university_type": "대학교",
        "university_name": "서강대학교",
        "distance": 1383.2164262011242,
        "walking_time": "약 21분"
      },
      {
        "university_lat": 37.5660508394158,
        "university_lon": 126.943916239886,
        "university_type": "대학교",
        "university_name": "연세대학교",
        "distance": 1481.1040569636225,
        "walking_time": "약 23분"
      },
      {
        "university_lat": 37.5631740311778,
        "university_lon": 126.947807434256,
        "university_type": "대학교",
        "university_name": "이화여자대학교",
        "distance": 1648.029603806113,
        "walking_time": "약 25분"
      },
      {
        "university_lat": 37.5429684534294,
        "university_lon": 126.947855469473,
        "university_type": "대학교",
        "university_name": "서울디지털대학교",
        "distance": 2335.0465177982574,
        "walking_time": "약 35분"
      }
    ]
  }
}