{
  "클러스터_위도": 37.54893600026495,
  "클러스터_경도": 127.05665400061544,
  "클러스터_level": 4.0,
  "facilities": {
    "bus": [
      {
        "bus_lat": 37.54935113,
        "bus_lon": 127.0568367,
        "bus_type": "버스정류장",
        "bus_name": "제인병원",
        "distance": 48.88963343581199,
        "walking_time": "약 1분"
      },
      {
        "bus_lat": 37.54962437,
        "bus_lon": 127.0553884,
        "bus_type": "버스정류장",
        "bus_name": "성수2가3동주민센터",
        "distance": 135.30532810072964,
        "walking_time": "약 3분"
      },
      {
        "bus_lat": 37.55042513,
        "bus_lon": 127.0542376,
        "bus_type": "버스정류장",
        "bus_name": "성수2가3동주민센터",
        "distance": 269.8106102692228,
        "walking_time": "약 5분"
      },
      {
        "bus_lat": 37.54515802,
        "bus_lon": 127.0546184,
        "bus_type": "버스정류장",
        "bus_name": "성수역수제화거리",
        "distance": 456.8191940629917,
        "walking_time": "약 7분"
      },
      {
        "bus_lat": 37.54541968,
        "bus_lon": 127.0538294,
        "bus_type": "버스정류장",
        "bus_name": "성수역1번출구",
        "distance": 463.5617990210682,
        "walking_time": "약 7분"
      },
      {
        "bus_lat": 37.54477028,
        "bus_lon": 127.0546618,
        "bus_type": "버스정류장",
        "bus_name": "지하철2호선성수역",
        "distance": 495.3871890556276,
        "walking_time": "약 8분"
      },
      {
        "bus_lat": 37.54478786,
        "bus_lon": 127.0545807,
        "bus_type": "버스정류장",
        "bus_name": "성수역4번출구",
        "distance": 496.1491615167109,
        "walking_time": "약 8분"
      },
      {
        "bus_lat": 37.54799468,
        "bus_lon": 127.0621854,
        "bus_type": "버스정류장",
        "bus_name": "성동세무서앞",
        "distance": 498.7527128317764,
        "walking_time": "약 8분"
      },
      {
        "bus_lat": 37.5442691,
        "bus_lon": 127.0576391,
        "bus_type": "버스정류장",
        "bus_name": "성수역2번출구",
        "distance": 526.1528160297422,
        "walking_time": "약 8분"
      },
      {
        "bus_lat": 37.55090026,
        "bus_lon": 127.0510061,
        "bus_type": "버스정류장",
        "bus_name": "리버하우스",
        "distance": 543.7063797343818,
        "walking_time": "약 9분"
      }
    ],
    "community_center": [
      {
        "community_center_lat": 37.5482232,
        "community_center_lon": 127.0552456,
        "community_center_type": "주민센터",
        "community_center_name": "성수2가제3동 자치회관",
        "distance": 147.30500215204432,
        "walking_time": "약 3분"
      },
      {
        "community_center_lat": 37.54203238,
        "community_center_lon": 127.0496885,
        "community_center_type": "주민센터",
        "community_center_name": "성수1가제1동 자치회관",
        "distance": 983.0573444248712,
        "walking_time": "약 15분"
      },
      {
        "community_center_lat": 37.53954093,
        "community_center_lon": 127.0540233,
        "community_center_type": "주민센터",
        "community_center_name": "성수2가제1동 자치회관",
        "distance": 1070.1208485969976,
        "walking_time": "약 16분"
      },
      {
        "community_center_lat": 37.54640255,
        "community_center_lon": 127.0443497,
        "community_center_type": "주민센터",
        "community_center_name": "성수1가제2동 자치회관",
        "distance": 1120.7358807343082,
        "walking_time": "약 17분"
      },
      {
        "community_center_lat": 37.55453307,
        "community_center_lon": 127.0695685,
        "community_center_type": "주민센터",
        "community_center_name": "송정동 자치회관",
        "distance": 1297.4942992385168,
        "walking_time": "약 20분"
      },
      {
        "community_center_lat": 37.53409779,
        "community_center_lon": 127.0662584,
        "community_center_type": "주민센터",
        "community_center_name": "자양4동 자치회관",
        "distance": 1854.548261940764,
        "walking_time": "약 28분"
      }
    ],
    "convenience_store": [
      {
        "convenience_store_lat": 37.54922298,
        "convenience_store_lon": 127.056137,
        "convenience_store_type": "편의점",
        "convenience_store_name": "미니스톱 성수2가점",
        "distance": 55.63867931763253,
        "walking_time": "약 1분"
      },
      {
        "convenience_store_lat": 37.54807181,
        "convenience_store_lon": 127.0575676,
        "convenience_store_type": "편의점",
        "convenience_store_name": "CU 성수IS비즈타워점",
        "distance": 125.38368304108349,
        "walking_time": "약 2분"
      },
      {
        "convenience_store_lat": 37.54770173,
        "convenience_store_lon": 127.0574603,
        "convenience_store_type": "편의점",
        "convenience_store_name": "GS25 성수에이펙점",
        "distance": 154.56031957560054,
        "walking_time": "약 3분"
      },
      {
        "convenience_store_lat": 37.54838923,
        "convenience_store_lon": 127.0545245,
        "convenience_store_type": "편의점",
        "convenience_store_name": "CU 성수행운점",
        "distance": 197.33468412643165,
        "walking_time": "약 3분"
      },
      {
        "convenience_store_lat": 37.5471006,
        "convenience_store_lon": 127.0553551,
        "convenience_store_type": "편의점",
        "convenience_store_name": "세븐일레븐 성수캐슬점",
        "distance": 234.01795359771987,
        "walking_time": "약 4분"
      },
      {
        "convenience_store_lat": 37.5468383,
        "convenience_store_lon": 127.0603452,
        "convenience_store_type": "편의점",
        "convenience_store_name": "세븐일레븐 성수본점",
        "distance": 400.3792479785455,
        "walking_time": "약 6분"
      },
      {
        "convenience_store_lat": 37.54749056,
        "convenience_store_lon": 127.0523702,
        "convenience_store_type": "편의점",
        "convenience_store_name": "세븐일레븐 성수공단점",
        "distance": 410.4379265365884,
        "walking_time": "약 7분"
      },
      {
        "convenience_store_lat": 37.54514224,
        "convenience_store_lon": 127.0571277,
        "convenience_store_type": "편의점",
        "convenience_store_name": "미니스톱 성수역점",
        "distance": 423.9090251372786,
        "walking_time": "약 7분"
      },
      {
        "convenience_store_lat": 37.54569149,
        "convenience_store_lon": 127.054064,
        "convenience_store_type": "편의점",
        "convenience_store_name": "GS25 성수역점",
        "distance": 426.96012543723407,
        "walking_time": "약 7분"
      },
      {
        "convenience_store_lat": 37.54517369,
        "convenience_store_lon": 127.0578573,
        "convenience_store_type": "편의점",
        "convenience_store_name": "CU 성수아카데미점",
        "distance": 431.5906169437116,
        "walking_time": "약 7분"
      }
    ],
    "daycare": [
      {
        "daycare_lat": 37.54875479737704,
        "daycare_lon": 127.05656351125164,
        "daycare_type": "어린이집",
        "daycare_name": "구립 성삼보듬이나눔이어린이집",
        "distance": 21.670619459001,
        "walking_time": "약 1분"
      },
      {
        "daycare_lat": 37.54792592227876,
        "daycare_lon": 127.05647235534344,
        "daycare_type": "어린이집",
        "daycare_name": "가온누리어린이집",
        "distance": 113.45141383600796,
        "walking_time": "약 2분"
      },
      {
        "daycare_lat": 37.54792592227876,
        "daycare_lon": 127.05647235534344,
        "daycare_type": "어린이집",
        "daycare_name": "옹달샘어린이집",
        "distance": 113.45141383600796,
        "walking_time": "약 2분"
      },
      {
        "daycare_lat": 37.54756725393239,
        "daycare_lon": 127.05662032623452,
        "daycare_type": "어린이집",
        "daycare_name": "온누리어린이집",
        "distance": 152.2265989051782,
        "walking_time": "약 3분"
      },
      {
        "daycare_lat": 37.54708974374037,
        "daycare_lon": 127.05658035881122,
        "daycare_type": "어린이집",
        "daycare_name": "구립 성수아이파크어린이집",
        "distance": 205.39698957837592,
        "walking_time": "약 4분"
      },
      {
        "daycare_lat": 37.54678747480276,
        "daycare_lon": 127.05559789936572,
        "daycare_type": "어린이집",
        "daycare_name": "롯데어린이집",
        "distance": 256.40675655591224,
        "walking_time": "약 4분"
      },
      {
        "daycare_lat": 37.54948034,
        "daycare_lon": 127.0532689,
        "daycare_type": "어린이집",
        "daycare_name": "구립 성수어린이집",
        "distance": 304.50243197821635,
        "walking_time": "약 5분"
      },
      {
        "daycare_lat": 37.54668076,
        "daycare_lon": 127.0545016,
        "daycare_type": "어린이집",
        "daycare_name": "큰별어린이집",
        "distance": 314.4737248724014,
        "walking_time": "약 5분"
      },
      {
        "daycare_lat": 37.54624562624995,
        "daycare_lon": 127.05538023082865,
        "daycare_type": "어린이집",
        "daycare_name": "구립 성수롯데캐슬어린이집",
        "distance": 319.53832502744734,
        "walking_time": "약 5분"
      },
      {
        "daycare_lat": 37.54604486588695,
        "daycare_lon": 127.0559911416078,
        "daycare_type": "어린이집",
        "daycare_name": "베스트베이비어린이집",
        "distance": 326.74771361653507,
        "walking_time": "약 5분"
      }
    ],
    "education": [
      {
        "education_lat": 37.54378977,
        "education_lon": 127.0544169,
        "education_type": "공연장",
        "education_name": "우란2경",
        "distance": 605.269524689727,
        "walking_time": "약 10분"
      },
      {
        "education_lat": 37.54542883,
        "education_lon": 127.0469481,
        "education_type": "문화예술회관",
        "education_name": "성수아트홀",
        "distance": 940.3600998874658,
        "walking_time": "약 15분"
      },
      {
        "education_lat": 37.55127807,
        "education_lon": 127.0670116,
        "education_type": "공연장",
        "education_name": "더라이트스튜디오",
        "distance": 949.51362379172,
        "walking_time": "약 15분"
      },
      {
        "education_lat": 37.55450355,
        "education_lon": 127.0466112,
        "education_type": "박물관/기념관",
        "education_name": "한양대학교 박물관",
        "distance": 1080.3119964365662,
        "walking_time": "약 17분"
      },
      {
        "education_lat": 37.55791759,
        "education_lon": 127.0493219,
        "education_type": "미술관/갤러리",
        "education_name": "한양여자대학교 미술관",
        "distance": 1189.6162464803597,
        "walking_time": "약 18분"
      },
      {
        "education_lat": 37.54767653,
        "education_lon": 127.0424904,
        "education_type": "미술관/갤러리",
        "education_name": "알비",
        "distance": 1256.488801436558,
        "walking_time": "약 19분"
      },
      {
        "education_lat": 37.54415475,
        "education_lon": 127.0433578,
        "education_type": "미술관/갤러리",
        "education_name": "디뮤지엄",
        "distance": 1287.1467103425423,
        "walking_time": "약 20분"
      },
      {
        "education_lat": 37.53698967,
        "education_lon": 127.0557452,
        "education_type": "미술관/갤러리",
        "education_name": "오시선",
        "distance": 1330.7856459195243,
        "walking_time": "약 20분"
      },
      {
        "education_lat": 37.54786264,
        "education_lon": 127.0413188,
        "education_type": "공연장",
        "education_name": "STUDIO301",
        "distance": 1357.2040737120055,
        "walking_time": "약 21분"
      },
      {
        "education_lat": 37.53982701,
        "education_lon": 127.042263,
        "education_type": "박물관/기념관",
        "education_name": "수도박물관",
        "distance": 1623.483984147373,
        "walking_time": "약 25분"
      }
    ],
    "electric_gas_station": [
      {
        "electric_gas_station_lat": 37.54494633,
        "electric_gas_station_lon": 127.0642049,
        "electric_gas_station_type": "전기차 충전소",
        "electric_gas_station_name": "기아차 성동서비스센터",
        "distance": 799.9762348688317,
        "walking_time": "약 12분"
      }
    ],
    "fitness": [
      {
        "fitness_lat": 37.54720213,
        "fitness_lon": 127.0547971,
        "fitness_type": "운동시설",
        "fitness_name": "퀸스테이지",
        "distance": 252.92301187721685,
        "walking_time": "약 4분"
      },
      {
        "fitness_lat": 37.54629007,
        "fitness_lon": 127.0573991,
        "fitness_type": "운동시설",
        "fitness_name": "비 스튜디오(Be studio)",
        "distance": 301.45788444515614,
        "walking_time": "약 5분"
      },
      {
        "fitness_lat": 37.54578269,
        "fitness_lon": 127.0548022,
        "fitness_type": "운동시설",
        "fitness_name": "퀄핏 건강운동센터",
        "distance": 386.7757976726784,
        "walking_time": "약 6분"
      },
      {
        "fitness_lat": 37.54524174,
        "fitness_lon": 127.0566865,
        "fitness_type": "운동시설",
        "fitness_name": "이루어짐 헬스",
        "distance": 410.79299128587786,
        "walking_time": "약 7분"
      },
      {
        "fitness_lat": 37.55021604,
        "fitness_lon": 127.0522501,
        "fitness_type": "운동시설",
        "fitness_name": "주식회사 소마피지오",
        "distance": 413.5086698271297,
        "walking_time": "약 7분"
      },
      {
        "fitness_lat": 37.54658651,
        "fitness_lon": 127.0529522,
        "fitness_type": "운동시설",
        "fitness_name": "나의 근육 사용설명서",
        "distance": 418.0407732087125,
        "walking_time": "약 7분"
      },
      {
        "fitness_lat": 37.54514224,
        "fitness_lon": 127.0571277,
        "fitness_type": "운동시설",
        "fitness_name": "짐타임 성수역점",
        "distance": 423.9090251372786,
        "walking_time": "약 7분"
      },
      {
        "fitness_lat": 37.54523248,
        "fitness_lon": 127.0551237,
        "fitness_type": "운동시설",
        "fitness_name": "빌드업피트니스 &PT 성수역점",
        "distance": 433.3488541294134,
        "walking_time": "약 7분"
      },
      {
        "fitness_lat": 37.54530792,
        "fitness_lon": 127.0544828,
        "fitness_type": "운동시설",
        "fitness_name": "케이큐 라인 PT",
        "distance": 446.5321292470984,
        "walking_time": "약 7분"
      },
      {
        "fitness_lat": 37.54530792,
        "fitness_lon": 127.0544828,
        "fitness_type": "운동시설",
        "fitness_name": "퀸 스페셜 PT",
        "distance": 446.5321292470984,
        "walking_time": "약 7분"
      }
    ],
    "gas_station": [
      {
        "gas_station_lat": 37.5485762,
        "gas_station_lon": 127.0579115,
        "gas_station_type": "주유소",
        "gas_station_name": "협진제유산업㈜ 동일주유소",
        "distance": 117.85846093695548,
        "walking_time": "약 2분"
      },
      {
        "gas_station_lat": 37.55086023,
        "gas_station_lon": 127.0504365,
        "gas_station_type": "주유소",
        "gas_station_name": "세원주유소",
        "distance": 588.4031129190703,
        "walking_time": "약 9분"
      },
      {
        "gas_station_lat": 37.54411438,
        "gas_station_lon": 127.0646451,
        "gas_station_type": "주유소",
        "gas_station_name": "현대오일뱅크㈜ 직영 효진주유소",
        "distance": 885.3137939317756,
        "walking_time": "약 14분"
      },
      {
        "gas_station_lat": 37.54202743,
        "gas_station_lon": 127.0634234,
        "gas_station_type": "주유소",
        "gas_station_name": "지에스칼텍스㈜ 도루코주유소",
        "distance": 972.7855884605224,
        "walking_time": "약 15분"
      },
      {
        "gas_station_lat": 37.54749763,
        "gas_station_lon": 127.0443508,
        "gas_station_type": "주유소",
        "gas_station_name": "KH에너지㈜ 직영 성수만세주유소",
        "distance": 1096.3772866517534,
        "walking_time": "약 17분"
      },
      {
        "gas_station_lat": 37.54000477,
        "gas_station_lon": 127.0499002,
        "gas_station_type": "주유소",
        "gas_station_name": "SK에너지㈜ 성수주유소",
        "distance": 1157.9361735644836,
        "walking_time": "약 18분"
      }
    ],
    "hospital": [
      {
        "hospital_lat": 37.54946127,
        "hospital_lon": 127.0569437,
        "hospital_type": "병원",
        "hospital_name": "학교법인대진교육재단제인병원",
        "distance": 63.747026840324736,
        "walking_time": "약 1분"
      },
      {
        "hospital_lat": 37.54823239,
        "hospital_lon": 127.0556374,
        "hospital_type": "병원",
        "hospital_name": "문영호한의원",
        "distance": 118.96822468307111,
        "walking_time": "약 2분"
      },
      {
        "hospital_lat": 37.54807181,
        "hospital_lon": 127.0575676,
        "hospital_type": "병원",
        "hospital_name": "독일웰치과의원",
        "distance": 125.38368304108349,
        "walking_time": "약 2분"
      },
      {
        "hospital_lat": 37.54754415,
        "hospital_lon": 127.0553768,
        "hospital_type": "병원",
        "hospital_name": "이안행복치과의원",
        "distance": 191.3922504496712,
        "walking_time": "약 3분"
      },
      {
        "hospital_lat": 37.54718135,
        "hospital_lon": 127.0551177,
        "hospital_type": "병원",
        "hospital_name": "경희동서한의원",
        "distance": 237.5106336854741,
        "walking_time": "약 4분"
      },
      {
        "hospital_lat": 37.54682382,
        "hospital_lon": 127.0549457,
        "hospital_type": "병원",
        "hospital_name": "양의원",
        "distance": 279.0028834773312,
        "walking_time": "약 5분"
      },
      {
        "hospital_lat": 37.5464486,
        "hospital_lon": 127.0544563,
        "hospital_type": "병원",
        "hospital_name": "서울당신의내과의원",
        "distance": 337.69687522259983,
        "walking_time": "약 6분"
      },
      {
        "hospital_lat": 37.54622658,
        "hospital_lon": 127.0546896,
        "hospital_type": "병원",
        "hospital_name": "김주필의원",
        "distance": 347.5027630837578,
        "walking_time": "약 6분"
      },
      {
        "hospital_lat": 37.5457314,
        "hospital_lon": 127.0571469,
        "hospital_type": "병원",
        "hospital_name": "하늘라인의원",
        "distance": 358.9751106051001,
        "walking_time": "약 6분"
      },
      {
        "hospital_lat": 37.54552307,
        "hospital_lon": 127.0569845,
        "hospital_type": "병원",
        "hospital_name": "연세웰치과의원",
        "distance": 380.61742894827336,
        "walking_time": "약 6분"
      }
    ],
    "music_room": [
      {
        "music_room_lat": 37.5471006,
        "music_room_lon": 127.0553551,
        "music_room_type": "노래방",
        "music_room_name": "아미가",
        "distance": 234.01795359771987,
        "walking_time": "약 4분"
      },
      {
        "music_room_lat": 37.54682382,
        "music_room_lon": 127.0549457,
        "music_room_type": "노래방",
        "music_room_name": "성수25시노래방",
        "distance": 279.0028834773312,
        "walking_time": "약 5분"
      },
      {
        "music_room_lat": 37.54668491,
        "music_room_lon": 127.054896,
        "music_room_type": "노래방",
        "music_room_name": "SBS노래연습장",
        "distance": 294.4072849872035,
        "walking_time": "약 5분"
      },
      {
        "music_room_lat": 37.54585744,
        "music_room_lon": 127.0544821,
        "music_room_type": "노래방",
        "music_room_name": "민트 노래연습장",
        "distance": 392.2326578521374,
        "walking_time": "약 6분"
      },
      {
        "music_room_lat": 37.54528429,
        "music_room_lon": 127.0564497,
        "music_room_type": "노래방",
        "music_room_name": "얼짱 노래연습장",
        "distance": 406.4509275208839,
        "walking_time": "약 7분"
      },
      {
        "music_room_lat": 37.54555394,
        "music_room_lon": 127.0545937,
        "music_room_type": "노래방",
        "music_room_name": "씽 노래연습장",
        "distance": 417.635648145727,
        "walking_time": "약 7분"
      },
      {
        "music_room_lat": 37.5455816,
        "music_room_lon": 127.0543791,
        "music_room_type": "노래방",
        "music_room_name": "대박노래연습장",
        "distance": 423.4932921822773,
        "walking_time": "약 7분"
      },
      {
        "music_room_lat": 37.54569149,
        "music_room_lon": 127.054064,
        "music_room_type": "노래방",
        "music_room_name": "세븐틴코인노래연습장(성수점)",
        "distance": 426.96012543723407,
        "walking_time": "약 7분"
      },
      {
        "music_room_lat": 37.54569149,
        "music_room_lon": 127.054064,
        "music_room_type": "노래방",
        "music_room_name": "빙고노래연습장",
        "distance": 426.96012543723407,
        "walking_time": "약 7분"
      },
      {
        "music_room_lat": 37.54523248,
        "music_room_lon": 127.0551237,
        "music_room_type": "노래방",
        "music_room_name": "히트 노래방",
        "distance": 433.3488541294134,
        "walking_time": "약 7분"
      }
    ],
    "park": [
      {
        "park_lat": 37.5448144,
        "park_lon": 127.0524023,
        "park_type": "공원",
        "park_name": "성수근린공원",
        "distance": 592.0658408272834,
        "walking_time": "약 9분"
      },
      {
        "park_lat": 37.5430717,
        "park_lon": 127.0417982,
        "park_type": "공원",
        "park_name": "서울숲",
        "distance": 1463.0744093881754,
        "walking_time": "약 22분"
      }
    ],
    "park_station": [
      {
        "park_station_lat": 37.54856334,
        "park_station_lon": 127.0559874,
        "park_station_type": "주차장",
        "park_station_name": "공유) 18-05",
        "distance": 71.9073211183936,
        "walking_time": "약 2분"
      },
      {
        "park_station_lat": 37.54912874,
        "park_station_lon": 127.0551806,
        "park_station_type": "주차장",
        "park_station_name": "성수2가3동 공영주차장",
        "distance": 131.64956752952872,
        "walking_time": "약 2분"
      },
      {
        "park_station_lat": 37.54710111,
        "park_station_lon": 127.054253,
        "park_station_type": "주차장",
        "park_station_name": "공유) 18-03",
        "distance": 293.99604240319366,
        "walking_time": "약 5분"
      },
      {
        "park_station_lat": 37.54702666,
        "park_station_lon": 127.0597111,
        "park_station_type": "주차장",
        "park_station_name": "공유) 18-11",
        "distance": 343.09338107437463,
        "walking_time": "약 6분"
      },
      {
        "park_station_lat": 37.54947146,
        "park_station_lon": 127.0522335,
        "park_station_type": "주차장",
        "park_station_name": "공유) 18-01",
        "distance": 394.2277453964349,
        "walking_time": "약 6분"
      },
      {
        "park_station_lat": 37.54616613,
        "park_station_lon": 127.0534908,
        "park_station_type": "주차장",
        "park_station_name": "공유) 18-02",
        "distance": 415.48722264438766,
        "walking_time": "약 7분"
      },
      {
        "park_station_lat": 37.54616661,
        "park_station_lon": 127.060509,
        "park_station_type": "주차장",
        "park_station_name": "공유) 18-14",
        "distance": 458.6204271382815,
        "walking_time": "약 7분"
      },
      {
        "park_station_lat": 37.54626562,
        "park_station_lon": 127.0522441,
        "park_station_type": "주차장",
        "park_station_name": "공유) 18-04",
        "distance": 489.2019357042048,
        "walking_time": "약 8분"
      },
      {
        "park_station_lat": 37.54447407,
        "park_station_lon": 127.0576548,
        "park_station_type": "주차장",
        "park_station_name": "공유) 18-10",
        "distance": 503.92835454610383,
        "walking_time": "약 8분"
      },
      {
        "park_station_lat": 37.54521844,
        "park_station_lon": 127.0600829,
        "park_station_type": "주차장",
        "park_station_name": "공유) 18-15",
        "distance": 512.1140219741313,
        "walking_time": "약 8분"
      }
    ],
    "pc_room": [
      {
        "pc_room_lat": 37.5486887229106,
        "pc_room_lon": 127.052938959553,
        "pc_room_type": "PC방",
        "pc_room_name": "올넷(ALL NET)",
        "distance": 328.6670853209268,
        "walking_time": "약 5분"
      },
      {
        "pc_room_lat": 37.5458574431701,
        "pc_room_lon": 127.054482141376,
        "pc_room_type": "PC방",
        "pc_room_name": "앤탑PC방",
        "distance": 392.2305694958684,
        "walking_time": "약 6분"
      },
      {
        "pc_room_lat": 37.5452517865527,
        "pc_room_lon": 127.05468798751,
        "pc_room_type": "PC방",
        "pc_room_name": "인터뱅크",
        "distance": 444.8236222096388,
        "walking_time": "약 7분"
      },
      {
        "pc_room_lat": 37.545307923565,
        "pc_room_lon": 127.054482759879,
        "pc_room_type": "PC방",
        "pc_room_name": "WEST PC방",
        "distance": 446.5332873775519,
        "walking_time": "약 7분"
      },
      {
        "pc_room_lat": 37.5484290061859,
        "pc_room_lon": 127.048435238491,
        "pc_room_type": "PC방",
        "pc_room_name": "지투존 PC방(뚝섬역점)",
        "distance": 726.7503302405228,
        "walking_time": "약 11분"
      },
      {
        "pc_room_lat": 37.5491362031845,
        "pc_room_lon": 127.048207218373,
        "pc_room_type": "PC방",
        "pc_room_name": "프리미엄 본스 PC방",
        "distance": 744.9917211029247,
        "walking_time": "약 12분"
      },
      {
        "pc_room_lat": 37.5485118802394,
        "pc_room_lon": 127.067234924413,
        "pc_room_type": "PC방",
        "pc_room_name": "행운 PC",
        "distance": 933.9978978991325,
        "walking_time": "약 14분"
      },
      {
        "pc_room_lat": 37.548931360746,
        "pc_room_lon": 127.067435713733,
        "pc_room_type": "PC방",
        "pc_room_name": "맞짱PC",
        "distance": 950.5054276854818,
        "walking_time": "약 15분"
      },
      {
        "pc_room_lat": 37.5404019046121,
        "pc_room_lon": 127.063308331095,
        "pc_room_type": "PC방",
        "pc_room_name": "건대PC",
        "distance": 1115.6556744743275,
        "walking_time": "약 17분"
      },
      {
        "pc_room_lat": 37.5383228860946,
        "pc_room_lon": 127.055339295186,
        "pc_room_type": "PC방",
        "pc_room_name": "사이버피시방",
        "distance": 1185.803176012672,
        "walking_time": "약 18분"
      }
    ],
    "police_office": [
      {
        "police_office_lat": 37.5482232,
        "police_office_lon": 127.0552456,
        "police_office_type": "경찰소",
        "police_office_name": "성수지구대",
        "distance": 147.30500215204432,
        "walking_time": "약 3분"
      },
      {
        "police_office_lat": 37.5380575,
        "police_office_lon": 127.0522733,
        "police_office_type": "경찰소",
        "police_office_name": "서울숲지구대",
        "distance": 1269.7973772488033,
        "walking_time": "약 19분"
      },
      {
        "police_office_lat": 37.53518701,
        "police_office_lon": 127.063636,
        "police_office_type": "경찰소",
        "police_office_name": "자양4파출소",
        "distance": 1648.0979261086322,
        "walking_time": "약 25분"
      }
    ],
    "post_office": [
      {
        "post_office_lat": 37.54556904,
        "post_office_lon": 127.0536857,
        "post_office_type": "우체국",
        "post_office_name": "서울성수동우편취급국",
        "distance": 456.7798787782754,
        "walking_time": "약 7분"
      },
      {
        "post_office_lat": 37.54142532,
        "post_office_lon": 127.0496213,
        "post_office_type": "우체국",
        "post_office_name": "서울뚝섬우체국",
        "distance": 1040.148314708366,
        "walking_time": "약 16분"
      },
      {
        "post_office_lat": 37.55450355,
        "post_office_lon": 127.0466112,
        "post_office_type": "우체국",
        "post_office_name": "서울한양대학교우체국",
        "distance": 1080.3119964365662,
        "walking_time": "약 17분"
      },
      {
        "post_office_lat": 37.5479075,
        "post_office_lon": 127.0693931,
        "post_office_type": "우체국",
        "post_office_name": "서울화양동우체국",
        "distance": 1128.8821556629232,
        "walking_time": "약 17분"
      },
      {
        "post_office_lat": 37.53955017,
        "post_office_lon": 127.0674106,
        "post_office_type": "우체국",
        "post_office_name": "서울성수노룬산우편취급국",
        "distance": 1410.173342990163,
        "walking_time": "약 22분"
      }
    ],
    "public_health_center": [
      {
        "public_health_center_lat": 37.54640255,
        "public_health_center_lon": 127.0443497,
        "public_health_center_type": "보건소",
        "public_health_center_name": "성수보건지소",
        "distance": 1120.7358807343082,
        "walking_time": "약 17분"
      },
      {
        "public_health_center_lat": 37.54026343,
        "public_health_center_lon": 127.0651093,
        "public_health_center_type": "보건소",
        "public_health_center_name": "자양보건지소",
        "distance": 1218.878546610414,
        "walking_time": "약 19분"
      }
    ],
    "school": [
      {
        "school_lat": 37.5443378762673,
        "school_lon": 127.062886077541,
        "school_type": "초등학교",
        "school_name": "서울성수초등학교",
        "distance": 750.5262262559648,
        "walking_time": "약 12분"
      },
      {
        "school_lat": 37.5438252989974,
        "school_lon": 127.050074037135,
        "school_type": "초등학교",
        "school_name": "서울경동초등학교",
        "distance": 812.075287697501,
        "walking_time": "약 13분"
      },
      {
        "school_lat": 37.5404366739206,
        "school_lon": 127.058066769768,
        "school_type": "초등학교",
        "school_name": "서울경수초등학교",
        "distance": 953.254419053615,
        "walking_time": "약 15분"
      },
      {
        "school_lat": 37.5438083798316,
        "school_lon": 127.047853796815,
        "school_type": "고등학교",
        "school_name": "경일고등학교",
        "distance": 962.8200800898978,
        "walking_time": "약 15분"
      },
      {
        "school_lat": 37.5438083798316,
        "school_lon": 127.047853796815,
        "school_type": "중학교",
        "school_name": "경일중학교",
        "distance": 962.8200800898978,
        "walking_time": "약 15분"
      },
      {
        "school_lat": 37.5395090367488,
        "school_lon": 127.059271203056,
        "school_type": "중학교",
        "school_name": "경수중학교",
        "distance": 1073.3267359344034,
        "walking_time": "약 17분"
      },
      {
        "school_lat": 37.5576210338606,
        "school_lon": 127.050263444631,
        "school_type": "초등학교",
        "school_name": "한양초등학교",
        "distance": 1118.0355572324502,
        "walking_time": "약 17분"
      },
      {
        "school_lat": 37.5394518246786,
        "school_lon": 127.051383529488,
        "school_type": "중학교",
        "school_name": "성원중학교",
        "distance": 1152.4244540275774,
        "walking_time": "약 18분"
      },
      {
        "school_lat": 37.5409418986185,
        "school_lon": 127.046605149237,
        "school_type": "초등학교",
        "school_name": "서울경일초등학교",
        "distance": 1255.0087538770365,
        "walking_time": "약 19분"
      },
      {
        "school_lat": 37.5541592708709,
        "school_lon": 127.069526172922,
        "school_type": "초등학교",
        "school_name": "서울송원초등학교",
        "distance": 1274.757422302992,
        "walking_time": "약 20분"
      }
    ],
    "self_laundromat": [
      {
        "self_laundromat_lat": 37.54949593,
        "self_laundromat_lon": 127.0498269,
        "self_laundromat_type": "셀프 빨래방",
        "self_laundromat_name": "더화이트셀프빨래방 성수동본점",
        "distance": 605.0800354803486,
        "walking_time": "약 10분"
      },
      {
        "self_laundromat_lat": 37.54949593,
        "self_laundromat_lon": 127.0498269,
        "self_laundromat_type": "셀프 빨래방",
        "self_laundromat_name": "더화이트셀프빨래방 성수동본점",
        "distance": 605.0800354803486,
        "walking_time": "약 10분"
      },
      {
        "self_laundromat_lat": 37.5491362,
        "self_laundromat_lon": 127.0482072,
        "self_laundromat_type": "셀프 빨래방",
        "self_laundromat_name": "블루워시 성수점",
        "distance": 744.9933295576435,
        "walking_time": "약 12분"
      },
      {
        "self_laundromat_lat": 37.5491362,
        "self_laundromat_lon": 127.0482072,
        "self_laundromat_type": "셀프 빨래방",
        "self_laundromat_name": "블루워시 성수점",
        "distance": 744.9933295576435,
        "walking_time": "약 12분"
      },
      {
        "self_laundromat_lat": 37.54136841,
        "self_laundromat_lon": 127.055611,
        "self_laundromat_type": "셀프 빨래방",
        "self_laundromat_name": "우리셀프빨래방",
        "distance": 846.4870173955202,
        "walking_time": "약 13분"
      },
      {
        "self_laundromat_lat": 37.54136841,
        "self_laundromat_lon": 127.055611,
        "self_laundromat_type": "셀프 빨래방",
        "self_laundromat_name": "우리셀프빨래방",
        "distance": 846.4870173955202,
        "walking_time": "약 13분"
      },
      {
        "self_laundromat_lat": 37.55063449,
        "self_laundromat_lon": 127.0671769,
        "self_laundromat_type": "셀프 빨래방",
        "self_laundromat_name": "더화이트 송정점",
        "distance": 946.707837160634,
        "walking_time": "약 15분"
      },
      {
        "self_laundromat_lat": 37.55063449,
        "self_laundromat_lon": 127.0671769,
        "self_laundromat_type": "셀프 빨래방",
        "self_laundromat_name": "더화이트 송정점",
        "distance": 946.707837160634,
        "walking_time": "약 15분"
      },
      {
        "self_laundromat_lat": 37.54111378,
        "self_laundromat_lon": 127.0506252,
        "self_laundromat_type": "셀프 빨래방",
        "self_laundromat_name": "크린토피아 코인워시 서울숲힐스테이트점",
        "distance": 1019.3386876630376,
        "walking_time": "약 16분"
      },
      {
        "self_laundromat_lat": 37.54111378,
        "self_laundromat_lon": 127.0506252,
        "self_laundromat_type": "셀프 빨래방",
        "self_laundromat_name": "크린토피아 코인워시 서울숲힐스테이트점",
        "distance": 1019.3386876630376,
        "walking_time": "약 16분"
      }
    ],
    "subway": [
      {
        "subway_lat": 37.5445023983984,
        "subway_lon": 127.056090471223,
        "subway_type": "지하철",
        "subway_name": "2호선-성수역",
        "distance": 495.4910562581047,
        "walking_time": "약 8분"
      },
      {
        "subway_lat": 37.5471882244091,
        "subway_lon": 127.047365178682,
        "subway_type": "지하철",
        "subway_name": "2호선-뚝섬역",
        "distance": 841.648202999437,
        "walking_time": "약 13분"
      },
      {
        "subway_lat": 37.55557788354,
        "subway_lon": 127.043584493543,
        "subway_type": "지하철",
        "subway_name": "2호선-한양대역",
        "distance": 1368.532676454861,
        "walking_time": "약 21분"
      },
      {
        "subway_lat": 37.5404188872176,
        "subway_lon": 127.069173281554,
        "subway_type": "지하철",
        "subway_name": "2호선-건대입구역",
        "distance": 1454.3684345303916,
        "walking_time": "약 22분"
      },
      {
        "subway_lat": 37.5317034538759,
        "subway_lon": 127.066765925738,
        "subway_type": "지하철",
        "subway_name": "7호선-자양(뚝섬유원지)역",
        "distance": 2113.431833488591,
        "walking_time": "약 32분"
      }
    ],
    "supermarket": [
      {
        "supermarket_lat": 37.54754415,
        "supermarket_lon": 127.0553768,
        "supermarket_type": "마트",
        "supermarket_name": "(주)인트램",
        "distance": 191.3922504496712,
        "walking_time": "약 3분"
      },
      {
        "supermarket_lat": 37.54749763,
        "supermarket_lon": 127.0443508,
        "supermarket_type": "마트",
        "supermarket_name": "GS THE FRESG 서울숲점",
        "distance": 1096.3772866517534,
        "walking_time": "약 17분"
      },
      {
        "supermarket_lat": 37.54105663,
        "supermarket_lon": 127.0656692,
        "supermarket_type": "마트",
        "supermarket_name": "커먼그라운드",
        "distance": 1182.945368152084,
        "walking_time": "약 18분"
      },
      {
        "supermarket_lat": 37.53780064,
        "supermarket_lon": 127.054827,
        "supermarket_type": "마트",
        "supermarket_name": "뚝도시장",
        "distance": 1248.6290817035597,
        "walking_time": "약 19분"
      },
      {
        "supermarket_lat": 37.54395902,
        "supermarket_lon": 127.0697577,
        "supermarket_type": "마트",
        "supermarket_name": "한아름시장",
        "distance": 1280.9628105397735,
        "walking_time": "약 20분"
      },
      {
        "supermarket_lat": 37.54395902,
        "supermarket_lon": 127.0697577,
        "supermarket_type": "마트",
        "supermarket_name": "(주)지에스리테일GS수퍼 광진화양점",
        "distance": 1280.9628105397735,
        "walking_time": "약 20분"
      },
      {
        "supermarket_lat": 37.53899664,
        "supermarket_lon": 127.0674893,
        "supermarket_type": "마트",
        "supermarket_name": "조양시장",
        "distance": 1460.8443043194238,
        "walking_time": "약 22분"
      },
      {
        "supermarket_lat": 37.53644772,
        "supermarket_lon": 127.0648999,
        "supermarket_type": "마트",
        "supermarket_name": "노룬산시장",
        "distance": 1567.4336239071067,
        "walking_time": "약 24분"
      },
      {
        "supermarket_lat": 37.55713709,
        "supermarket_lon": 127.0401853,
        "supermarket_type": "마트",
        "supermarket_name": "파크에비뉴 엔터식스 한양대점",
        "distance": 1714.4316518824903,
        "walking_time": "약 26분"
      }
    ],
    "tax_office": [
      {
        "tax_office_lat": 37.54850152,
        "tax_office_lon": 127.0628187,
        "tax_office_type": "세무서",
        "tax_office_name": "성동세무서",
        "distance": 545.6185491954063,
        "walking_time": "약 9분"
      }
    ],
    "theater": [
      {
        "theater_lat": 37.5419000229184,
        "theater_lon": 127.044975552245,
        "theater_type": "영화관",
        "theater_name": "메가박스중앙(주) 성수지점",
        "distance": 1293.131844363112,
        "walking_time": "약 20분"
      },
      {
        "theater_lat": 37.5397607621364,
        "theater_lon": 127.066887730045,
        "theater_type": "영화관",
        "theater_name": "CGV 건대입구",
        "distance": 1361.9642140799597,
        "walking_time": "약 21분"
      }
    ],
    "university": [
      {
        "university_lat": 37.5545035492027,
        "university_lon": 127.046611216789,
        "university_type": "대학교",
        "university_name": "한양대학교",
        "distance": 1080.31073271897,
        "walking_time": "약 17분"
      },
      {
        "university_lat": 37.5545035492027,
        "university_lon": 127.046611216789,
        "university_type": "전문대학교(2년제)",
        "university_name": "한양여자대학교",
        "distance": 1080.31073271897,
        "walking_time": "약 17분"
      }
    ]
  }
}