{
  "클러스터_위도": 37.542967,
  "클러스터_경도": 126.973659,
  "클러스터_level": 4.0,
  "facilities": {
    "bus": [
      {
        "bus_lat": 37.54329563,
        "bus_lon": 126.9725378,
        "bus_type": "버스정류장",
        "bus_name": "숙대입구역",
        "distance": 105.3895334860124,
        "walking_time": "약 2분"
      },
      {
        "bus_lat": 37.54347578,
        "bus_lon": 126.9722968,
        "bus_type": "버스정류장",
        "bus_name": "숙대역7번출구",
        "distance": 132.7571509833521,
        "walking_time": "약 2분"
      },
      {
        "bus_lat": 37.54375602,
        "bus_lon": 126.9722321,
        "bus_type": "버스정류장",
        "bus_name": "숙대입구역",
        "distance": 153.3752184940445,
        "walking_time": "약 3분"
      },
      {
        "bus_lat": 37.54403813,
        "bus_lon": 126.9725115,
        "bus_type": "버스정류장",
        "bus_name": "숙대역5번출구",
        "distance": 156.27269104292571,
        "walking_time": "약 3분"
      },
      {
        "bus_lat": 37.54200692,
        "bus_lon": 126.9719272,
        "bus_type": "버스정류장",
        "bus_name": "남영역",
        "distance": 186.3066517630419,
        "walking_time": "약 3분"
      },
      {
        "bus_lat": 37.541823,
        "bus_lon": 126.972069,
        "bus_type": "버스정류장",
        "bus_name": "남영역",
        "distance": 189.29736830654244,
        "walking_time": "약 3분"
      },
      {
        "bus_lat": 37.54512412,
        "bus_lon": 126.9732354,
        "bus_type": "버스정류장",
        "bus_name": "남영우체국",
        "distance": 242.75084508568705,
        "walking_time": "약 4분"
      },
      {
        "bus_lat": 37.54222024,
        "bus_lon": 126.9709245,
        "bus_type": "버스정류장",
        "bus_name": "남영역",
        "distance": 254.99020341361705,
        "walking_time": "약 4분"
      },
      {
        "bus_lat": 37.54536815,
        "bus_lon": 126.9734814,
        "bus_type": "버스정류장",
        "bus_name": "남영우체국",
        "distance": 267.4544393647412,
        "walking_time": "약 4분"
      },
      {
        "bus_lat": 37.54539013,
        "bus_lon": 126.9740852,
        "bus_type": "버스정류장",
        "bus_name": "갈월동사회복지회관",
        "distance": 272.0472832556279,
        "walking_time": "약 5분"
      }
    ],
    "community_center": [
      {
        "community_center_lat": 37.54581642,
        "community_center_lon": 126.9748227,
        "community_center_type": "주민센터",
        "community_center_name": "남영동 자치회관",
        "distance": 333.03809785467286,
        "walking_time": "약 5분"
      },
      {
        "community_center_lat": 37.5454791,
        "community_center_lon": 126.9698731,
        "community_center_type": "주민센터",
        "community_center_name": "청파동 자치회관",
        "distance": 435.2441226750969,
        "walking_time": "약 7분"
      },
      {
        "community_center_lat": 37.54869884,
        "community_center_lon": 126.9781522,
        "community_center_type": "주민센터",
        "community_center_name": "후암동 자치회관",
        "distance": 750.4252160804866,
        "walking_time": "약 12분"
      },
      {
        "community_center_lat": 37.53724193,
        "community_center_lon": 126.9676278,
        "community_center_type": "주민센터",
        "community_center_name": "원효로1동 자치회관",
        "distance": 829.4786375481729,
        "walking_time": "약 13분"
      },
      {
        "community_center_lat": 37.54250834,
        "community_center_lon": 126.9618379,
        "community_center_type": "주민센터",
        "community_center_name": "효창동 자치회관",
        "distance": 1043.4703413933344,
        "walking_time": "약 16분"
      },
      {
        "community_center_lat": 37.54611267,
        "community_center_lon": 126.9855836,
        "community_center_type": "주민센터",
        "community_center_name": "용산2가동 자치회관",
        "distance": 1107.9837417873955,
        "walking_time": "약 17분"
      },
      {
        "community_center_lat": 37.55017417,
        "community_center_lon": 126.9600328,
        "community_center_type": "주민센터",
        "community_center_name": "공덕동 자치회관",
        "distance": 1444.08801176026,
        "walking_time": "약 22분"
      },
      {
        "community_center_lat": 37.55479085,
        "community_center_lon": 126.9644544,
        "community_center_type": "주민센터",
        "community_center_name": "중림동 자치회관",
        "distance": 1545.0098123236653,
        "walking_time": "약 24분"
      },
      {
        "community_center_lat": 37.55728611,
        "community_center_lon": 126.9793555,
        "community_center_type": "주민센터",
        "community_center_name": "회현동 자치회관",
        "distance": 1669.531343804386,
        "walking_time": "약 25분"
      }
    ],
    "convenience_store": [
      {
        "convenience_store_lat": 37.54239727,
        "convenience_store_lon": 126.9730345,
        "convenience_store_type": "편의점",
        "convenience_store_name": "CU 용산고리점",
        "distance": 83.93423360747886,
        "walking_time": "약 2분"
      },
      {
        "convenience_store_lat": 37.54420214,
        "convenience_store_lon": 126.9725803,
        "convenience_store_type": "편의점",
        "convenience_store_name": "GS25 숙대입구역점",
        "distance": 167.05507075016862,
        "walking_time": "약 3분"
      },
      {
        "convenience_store_lat": 37.54220897,
        "convenience_store_lon": 126.9718943,
        "convenience_store_type": "편의점",
        "convenience_store_name": "세븐일레븐 남영역점",
        "distance": 176.9522866036617,
        "walking_time": "약 3분"
      },
      {
        "convenience_store_lat": 37.54164008,
        "convenience_store_lon": 126.9715384,
        "convenience_store_type": "편의점",
        "convenience_store_name": "세븐일레븐 남영역입구점",
        "distance": 238.17342106987525,
        "walking_time": "약 4분"
      },
      {
        "convenience_store_lat": 37.54513756,
        "convenience_store_lon": 126.9733756,
        "convenience_store_type": "편의점",
        "convenience_store_name": "CU 용산남영점",
        "distance": 242.64512537941087,
        "walking_time": "약 4분"
      },
      {
        "convenience_store_lat": 37.54516142,
        "convenience_store_lon": 126.973284,
        "convenience_store_type": "편의점",
        "convenience_store_name": "CU 용산남영점",
        "distance": 246.23802964033985,
        "walking_time": "약 4분"
      },
      {
        "convenience_store_lat": 37.54552359,
        "convenience_store_lon": 126.9739581,
        "convenience_store_type": "편의점",
        "convenience_store_name": "GS25 용산그린점",
        "distance": 285.50026984048475,
        "walking_time": "약 5분"
      },
      {
        "convenience_store_lat": 37.54407405,
        "convenience_store_lon": 126.9704762,
        "convenience_store_type": "편의점",
        "convenience_store_name": "GS25 용산청파점",
        "distance": 306.4258621547244,
        "walking_time": "약 5분"
      },
      {
        "convenience_store_lat": 37.54172333,
        "convenience_store_lon": 126.9704018,
        "convenience_store_type": "편의점",
        "convenience_store_name": "CU 청파선린점",
        "distance": 318.7391826448893,
        "walking_time": "약 5분"
      },
      {
        "convenience_store_lat": 37.54530765,
        "convenience_store_lon": 126.9702539,
        "convenience_store_type": "편의점",
        "convenience_store_name": "미니스톱 숙대입구점",
        "distance": 397.3228514217378,
        "walking_time": "약 6분"
      }
    ],
    "daycare": [
      {
        "daycare_lat": 37.54145907380427,
        "daycare_lon": 126.96938101184236,
        "daycare_type": "어린이집",
        "daycare_name": "원효루미니어린이집",
        "distance": 412.7676907847296,
        "walking_time": "약 7분"
      },
      {
        "daycare_lat": 37.54211666068918,
        "daycare_lon": 126.96883477872552,
        "daycare_type": "어린이집",
        "daycare_name": "옥스포드어린이집",
        "distance": 435.71813783383146,
        "walking_time": "약 7분"
      },
      {
        "daycare_lat": 37.54039598047992,
        "daycare_lon": 126.96971637235517,
        "daycare_type": "어린이집",
        "daycare_name": "더프라임어린이집",
        "distance": 450.07106172566193,
        "walking_time": "약 7분"
      },
      {
        "daycare_lat": 37.54528251,
        "daycare_lon": 126.9690391,
        "daycare_type": "어린이집",
        "daycare_name": "청파어린이집",
        "distance": 481.8666923660989,
        "walking_time": "약 8분"
      },
      {
        "daycare_lat": 37.54599559,
        "daycare_lon": 126.9777859,
        "daycare_type": "어린이집",
        "daycare_name": "하버드어린이집",
        "distance": 495.7753684753198,
        "walking_time": "약 8분"
      },
      {
        "daycare_lat": 37.54765193,
        "daycare_lon": 126.9758361,
        "daycare_type": "어린이집",
        "daycare_name": "후암어린이집",
        "distance": 555.1756874173495,
        "walking_time": "약 9분"
      },
      {
        "daycare_lat": 37.54635357009264,
        "daycare_lon": 126.97881652121346,
        "daycare_type": "어린이집",
        "daycare_name": "사랑나무어린이집",
        "distance": 590.3930674689436,
        "walking_time": "약 9분"
      },
      {
        "daycare_lat": 37.54794647,
        "daycare_lon": 126.9771764,
        "daycare_type": "어린이집",
        "daycare_name": "후암방과후어린이집",
        "distance": 634.6177808025354,
        "walking_time": "약 10분"
      },
      {
        "daycare_lat": 37.54794647,
        "daycare_lon": 126.9771764,
        "daycare_type": "어린이집",
        "daycare_name": "두툼돌어린이집",
        "distance": 634.6177808025354,
        "walking_time": "약 10분"
      },
      {
        "daycare_lat": 37.539775,
        "daycare_lon": 126.9676564,
        "daycare_type": "어린이집",
        "daycare_name": "동글동글어린이집",
        "distance": 637.2363214547942,
        "walking_time": "약 10분"
      }
    ],
    "education": [
      {
        "education_lat": 37.54578472,
        "education_lon": 126.9668363,
        "education_type": "박물관/기념관",
        "education_name": "식민지역사박물관",
        "distance": 678.2274966835513,
        "walking_time": "약 11분"
      },
      {
        "education_lat": 37.53933889,
        "education_lon": 126.967218,
        "education_type": "미술관/갤러리",
        "education_name": "캡션 서울",
        "distance": 696.6020955594013,
        "walking_time": "약 11분"
      },
      {
        "education_lat": 37.54383249,
        "education_lon": 126.9654584,
        "education_type": "박물관/기념관",
        "education_name": "숙명여자대학교 박물관",
        "distance": 729.3874329848857,
        "walking_time": "약 11분"
      },
      {
        "education_lat": 37.54383249,
        "education_lon": 126.9654584,
        "education_type": "박물관/기념관",
        "education_name": "숙명여자대학교 정영양자수박물관",
        "distance": 729.3874329848857,
        "walking_time": "약 11분"
      },
      {
        "education_lat": 37.53731405,
        "education_lon": 126.9784661,
        "education_type": "박물관/기념관",
        "education_name": "전쟁기념관",
        "distance": 758.1238035242667,
        "walking_time": "약 12분"
      },
      {
        "education_lat": 37.54782843,
        "education_lon": 126.9804703,
        "education_type": "미술관/갤러리",
        "education_name": "임수빈갤러리",
        "distance": 807.9724483732066,
        "walking_time": "약 13분"
      },
      {
        "education_lat": 37.54201785,
        "education_lon": 126.9638828,
        "education_type": "미술관/갤러리",
        "education_name": "김세중미술관",
        "distance": 868.3721968820583,
        "walking_time": "약 13분"
      },
      {
        "education_lat": 37.55108272,
        "education_lon": 126.9768455,
        "education_type": "미술관/갤러리",
        "education_name": "콤플렉스",
        "distance": 945.1421392337896,
        "walking_time": "약 15분"
      },
      {
        "education_lat": 37.54101948,
        "education_lon": 126.9846906,
        "education_type": "도서관",
        "education_name": "용암어린이영어도서관",
        "distance": 996.4418598169526,
        "walking_time": "약 15분"
      },
      {
        "education_lat": 37.54190885,
        "education_lon": 126.9616452,
        "education_type": "도서관",
        "education_name": "용산 고래이야기 작은도서관",
        "distance": 1065.7321771478255,
        "walking_time": "약 16분"
      }
    ],
    "fitness": [
      {
        "fitness_lat": 37.54347201,
        "fitness_lon": 126.97275,
        "fitness_type": "운동시설",
        "fitness_name": "망고짐",
        "distance": 97.85798351017202,
        "walking_time": "약 2분"
      },
      {
        "fitness_lat": 37.5425687,
        "fitness_lon": 126.9721157,
        "fitness_type": "운동시설",
        "fitness_name": "스카이짐 GDR골프아카데미 헬스",
        "distance": 143.09353076875547,
        "walking_time": "약 3분"
      },
      {
        "fitness_lat": 37.54139975,
        "fitness_lon": 126.9732961,
        "fitness_type": "운동시설",
        "fitness_name": "스카이 휘트니스클럽",
        "distance": 177.1831008764921,
        "walking_time": "약 3분"
      },
      {
        "fitness_lat": 37.54135071,
        "fitness_lon": 126.9740025,
        "fitness_type": "운동시설",
        "fitness_name": "크로스핏 남산",
        "distance": 182.2570983286116,
        "walking_time": "약 3분"
      },
      {
        "fitness_lat": 37.54158425,
        "fitness_lon": 126.9724128,
        "fitness_type": "운동시설",
        "fitness_name": "스포벡",
        "distance": 188.97814390704937,
        "walking_time": "약 3분"
      },
      {
        "fitness_lat": 37.54471208,
        "fitness_lon": 126.9724591,
        "fitness_type": "운동시설",
        "fitness_name": "스포벡휘트니스",
        "distance": 221.0078138294659,
        "walking_time": "약 4분"
      },
      {
        "fitness_lat": 37.54455541,
        "fitness_lon": 126.9717713,
        "fitness_type": "운동시설",
        "fitness_name": "런앤리프트",
        "distance": 242.6817969902509,
        "walking_time": "약 4분"
      },
      {
        "fitness_lat": 37.54542627,
        "fitness_lon": 126.9723205,
        "fitness_type": "운동시설",
        "fitness_name": "바디컨설팅",
        "distance": 297.83458231505523,
        "walking_time": "약 5분"
      },
      {
        "fitness_lat": 37.54191009,
        "fitness_lon": 126.9703647,
        "fitness_type": "운동시설",
        "fitness_name": "MCT GYM 용산",
        "distance": 313.3232437742436,
        "walking_time": "약 5분"
      },
      {
        "fitness_lat": 37.54073853,
        "fitness_lon": 126.9693174,
        "fitness_type": "운동시설",
        "fitness_name": "칼라퍼스널트레이닝",
        "distance": 455.99173923046686,
        "walking_time": "약 7분"
      }
    ],
    "gas_station": [
      {
        "gas_station_lat": 37.54702894,
        "gas_station_lon": 126.9722285,
        "gas_station_type": "주유소",
        "gas_station_name": "현대오일뱅크㈜ 직영갈월동주유소",
        "distance": 468.9445306735034,
        "walking_time": "약 7분"
      },
      {
        "gas_station_lat": 37.5502005,
        "gas_station_lon": 126.9724177,
        "gas_station_type": "주유소",
        "gas_station_name": "선익상사(주) 동자동주유소",
        "distance": 811.7391278151143,
        "walking_time": "약 13분"
      },
      {
        "gas_station_lat": 37.55236629,
        "gas_station_lon": 126.9689937,
        "gas_station_type": "주유소",
        "gas_station_name": "서계주유소",
        "distance": 1123.169335051872,
        "walking_time": "약 17분"
      },
      {
        "gas_station_lat": 37.53558903,
        "gas_station_lon": 126.962709,
        "gas_station_type": "주유소",
        "gas_station_name": "㈜영원에너지 풍기주유소",
        "distance": 1266.9528940912594,
        "walking_time": "약 19분"
      },
      {
        "gas_station_lat": 37.55440857,
        "gas_station_lon": 126.9777346,
        "gas_station_type": "주유소",
        "gas_station_name": "현대오일뱅크(주) 직영소월길주유소",
        "distance": 1322.0076237431338,
        "walking_time": "약 20분"
      },
      {
        "gas_station_lat": 37.55705641,
        "gas_station_lon": 126.9745641,
        "gas_station_type": "주유소",
        "gas_station_name": "지에스칼텍스(주) 직영 역전점",
        "distance": 1568.7015141084603,
        "walking_time": "약 24분"
      },
      {
        "gas_station_lat": 37.55838421,
        "gas_station_lon": 126.972172,
        "gas_station_type": "주유소",
        "gas_station_name": "서남주유소",
        "distance": 1719.3202682411184,
        "walking_time": "약 26분"
      }
    ],
    "hospital": [
      {
        "hospital_lat": 37.54267626,
        "hospital_lon": 126.9731869,
        "hospital_type": "병원",
        "hospital_name": "유명숙산부인과의원",
        "distance": 52.70341709618748,
        "walking_time": "약 1분"
      },
      {
        "hospital_lat": 37.54390843,
        "hospital_lon": 126.9726263,
        "hospital_type": "병원",
        "hospital_name": "라엘르의원",
        "distance": 138.73790771607,
        "walking_time": "약 3분"
      },
      {
        "hospital_lat": 37.54397888,
        "hospital_lon": 126.9726208,
        "hospital_type": "병원",
        "hospital_name": "래안치과의원",
        "distance": 145.04549795110023,
        "walking_time": "약 3분"
      },
      {
        "hospital_lat": 37.54343813,
        "hospital_lon": 126.9719578,
        "hospital_type": "병원",
        "hospital_name": "미소지인의원",
        "distance": 158.87329439777665,
        "walking_time": "약 3분"
      },
      {
        "hospital_lat": 37.54343813,
        "hospital_lon": 126.9719578,
        "hospital_type": "병원",
        "hospital_name": "서울빛드림안과의원",
        "distance": 158.87329439777665,
        "walking_time": "약 3분"
      },
      {
        "hospital_lat": 37.54343813,
        "hospital_lon": 126.9719578,
        "hospital_type": "병원",
        "hospital_name": "연세바른생각치과의원",
        "distance": 158.87329439777665,
        "walking_time": "약 3분"
      },
      {
        "hospital_lat": 37.54343813,
        "hospital_lon": 126.9719578,
        "hospital_type": "병원",
        "hospital_name": "위편장쾌한의원",
        "distance": 158.87329439777665,
        "walking_time": "약 3분"
      },
      {
        "hospital_lat": 37.54420214,
        "hospital_lon": 126.9725803,
        "hospital_type": "병원",
        "hospital_name": "마음담은삼성내과의원",
        "distance": 167.05507075016862,
        "walking_time": "약 3분"
      },
      {
        "hospital_lat": 37.54220897,
        "hospital_lon": 126.9718943,
        "hospital_type": "병원",
        "hospital_name": "더블유항외과의원",
        "distance": 176.9522866036617,
        "walking_time": "약 3분"
      },
      {
        "hospital_lat": 37.54220897,
        "hospital_lon": 126.9718943,
        "hospital_type": "병원",
        "hospital_name": "미앤영의원",
        "distance": 176.9522866036617,
        "walking_time": "약 3분"
      }
    ],
    "music_room": [
      {
        "music_room_lat": 37.54288252,
        "music_room_lon": 126.9728973,
        "music_room_type": "노래방",
        "music_room_name": "사운드 노래연습장",
        "distance": 67.80995271197324,
        "walking_time": "약 2분"
      },
      {
        "music_room_lat": 37.54331661,
        "music_room_lon": 126.9728387,
        "music_room_type": "노래방",
        "music_room_name": "필하모니",
        "distance": 82.1084256101183,
        "walking_time": "약 2분"
      },
      {
        "music_room_lat": 37.5434897,
        "music_room_lon": 126.9728763,
        "music_room_type": "노래방",
        "music_room_name": "황금",
        "distance": 90.2226861992051,
        "walking_time": "약 2분"
      },
      {
        "music_room_lat": 37.54347201,
        "music_room_lon": 126.97275,
        "music_room_type": "노래방",
        "music_room_name": "올인노래연습장",
        "distance": 97.85798351017202,
        "walking_time": "약 2분"
      },
      {
        "music_room_lat": 37.54369707,
        "music_room_lon": 126.9727064,
        "music_room_type": "노래방",
        "music_room_name": "신데렐라 노래연습장",
        "distance": 116.80733559744492,
        "walking_time": "약 2분"
      },
      {
        "music_room_lat": 37.54312545,
        "music_room_lon": 126.9722005,
        "music_room_type": "노래방",
        "music_room_name": "새로노래연습장",
        "distance": 129.79150404864313,
        "walking_time": "약 2분"
      },
      {
        "music_room_lat": 37.54409512,
        "music_room_lon": 126.9726532,
        "music_room_type": "노래방",
        "music_room_name": "위아더월드",
        "distance": 153.61988676975835,
        "walking_time": "약 3분"
      },
      {
        "music_room_lat": 37.54405811,
        "music_room_lon": 126.9719641,
        "music_room_type": "노래방",
        "music_room_name": "별노래연습장",
        "distance": 192.48317942899644,
        "walking_time": "약 3분"
      },
      {
        "music_room_lat": 37.54400185,
        "music_room_lon": 126.9718013,
        "music_room_type": "노래방",
        "music_room_name": "KPOPSTAR 코인노래연습장",
        "distance": 200.1665390063049,
        "walking_time": "약 3분"
      },
      {
        "music_room_lat": 37.54510259,
        "music_room_lon": 126.9702915,
        "music_room_type": "노래방",
        "music_room_name": "파랑새노래연습장",
        "distance": 380.1803789223461,
        "walking_time": "약 6분"
      }
    ],
    "outdoor_sports": [
      {
        "outdoor_sports_lat": 37.555597735109,
        "outdoor_sports_lon": 126.964583684813,
        "outdoor_sports_type": "야외 체육시설",
        "outdoor_sports_name": "손기정체육공원",
        "distance": 1616.3705468618057,
        "walking_time": "약 25분"
      },
      {
        "outdoor_sports_lat": 37.5574962059163,
        "outdoor_sports_lon": 126.975080920951,
        "outdoor_sports_type": "야외 체육시설",
        "outdoor_sports_name": "남대문로5가",
        "distance": 1620.4297804424084,
        "walking_time": "약 25분"
      }
    ],
    "park": [
      {
        "park_lat": 37.5560189,
        "park_lon": 126.9652702,
        "park_type": "공원",
        "park_name": "손기정체육공원",
        "distance": 1628.8677104317362,
        "walking_time": "약 25분"
      }
    ],
    "park_station": [
      {
        "park_station_lat": 37.54291491,
        "park_station_lon": 126.9730981,
        "park_station_type": "주차장",
        "park_station_name": "용산구 남영동 71-2",
        "distance": 49.79042001569154,
        "walking_time": "약 1분"
      },
      {
        "park_station_lat": 37.5435718,
        "park_station_lon": 126.9737605,
        "park_station_type": "주차장",
        "park_station_name": "03-04-135",
        "distance": 67.84347365594283,
        "walking_time": "약 2분"
      },
      {
        "park_station_lat": 37.5435718,
        "park_station_lon": 126.9737605,
        "park_station_type": "주차장",
        "park_station_name": "공유) 남영동 04구간",
        "distance": 67.84347365594283,
        "walking_time": "약 2분"
      },
      {
        "park_station_lat": 37.54239362,
        "park_station_lon": 126.9740142,
        "park_station_type": "주차장",
        "park_station_name": "03-02-186",
        "distance": 71.03298337158611,
        "walking_time": "약 2분"
      },
      {
        "park_station_lat": 37.54160494,
        "park_station_lon": 126.9742743,
        "park_station_type": "주차장",
        "park_station_name": "공유) 남영동 01구간",
        "distance": 160.87674235851415,
        "walking_time": "약 3분"
      },
      {
        "park_station_lat": 37.54547063,
        "park_station_lon": 126.9698743,
        "park_station_type": "주차장",
        "park_station_name": "청파동청사",
        "distance": 434.5590495529707,
        "walking_time": "약 7분"
      },
      {
        "park_station_lat": 37.54293115,
        "park_station_lon": 126.9684572,
        "park_station_type": "주차장",
        "park_station_name": "청파동1마을공원공영주차장",
        "distance": 458.639744219893,
        "walking_time": "약 7분"
      },
      {
        "park_station_lat": 37.53722282,
        "park_station_lon": 126.9689486,
        "park_station_type": "주차장",
        "park_station_name": "삼각지고가밑 공영주차장",
        "distance": 761.8748136278157,
        "walking_time": "약 12분"
      },
      {
        "park_station_lat": 37.55048691,
        "park_station_lon": 126.9764639,
        "park_station_type": "주차장",
        "park_station_name": "후암동주차장",
        "distance": 871.9745933194355,
        "walking_time": "약 14분"
      },
      {
        "park_station_lat": 37.5344512,
        "park_station_lon": 126.9735538,
        "park_station_type": "주차장",
        "park_station_name": "용산구 한강로1가 236-5",
        "distance": 946.9591853321784,
        "walking_time": "약 15분"
      }
    ],
    "pc_room": [
      {
        "pc_room_lat": 37.5417114040155,
        "pc_room_lon": 126.972130856033,
        "pc_room_type": "PC방",
        "pc_room_name": "제노PC방(갈월점)",
        "distance": 194.02371892281613,
        "walking_time": "약 3분"
      },
      {
        "pc_room_lat": 37.5447583877858,
        "pc_room_lon": 126.971683656137,
        "pc_room_type": "PC방",
        "pc_room_name": "어메이징파크pc방",
        "distance": 264.5908859535349,
        "walking_time": "약 4분"
      },
      {
        "pc_room_lat": 37.5449725093355,
        "pc_room_lon": 126.967646680698,
        "pc_room_type": "PC방",
        "pc_room_name": "놀숲PC",
        "distance": 575.0740146699942,
        "walking_time": "약 9분"
      },
      {
        "pc_room_lat": 37.545067501628,
        "pc_room_lon": 126.966770459878,
        "pc_room_type": "PC방",
        "pc_room_name": "PC CLUB 블랙",
        "distance": 650.6909961347092,
        "walking_time": "약 10분"
      },
      {
        "pc_room_lat": 37.5455760371033,
        "pc_room_lon": 126.96681153698,
        "pc_room_type": "PC방",
        "pc_room_name": "피씨나인",
        "distance": 669.792945071919,
        "walking_time": "약 10분"
      },
      {
        "pc_room_lat": 37.5499660777672,
        "pc_room_lon": 126.977586978891,
        "pc_room_type": "PC방",
        "pc_room_name": "액션",
        "distance": 851.8298636125731,
        "walking_time": "약 13분"
      },
      {
        "pc_room_lat": 37.5493219003255,
        "pc_room_lon": 126.979266187454,
        "pc_room_type": "PC방",
        "pc_room_name": "3POP",
        "distance": 862.382980155944,
        "walking_time": "약 13분"
      },
      {
        "pc_room_lat": 37.5508319577772,
        "pc_room_lon": 126.971797580425,
        "pc_room_type": "PC방",
        "pc_room_name": "동자pc방",
        "distance": 889.8071413759176,
        "walking_time": "약 14분"
      },
      {
        "pc_room_lat": 37.5389065292265,
        "pc_room_lon": 126.98763333746,
        "pc_room_type": "PC방",
        "pc_room_name": "리얼PC방",
        "distance": 1312.2181256840695,
        "walking_time": "약 20분"
      },
      {
        "pc_room_lat": 37.5577156632633,
        "pc_room_lon": 126.977653922122,
        "pc_room_type": "PC방",
        "pc_room_name": "남문PC",
        "distance": 1677.3654999454411,
        "walking_time": "약 26분"
      }
    ],
    "police_office": [
      {
        "police_office_lat": 37.53611011,
        "police_office_lon": 126.9747084,
        "police_office_type": "경찰소",
        "police_office_name": "삼각지파출소",
        "distance": 768.0449985880522,
        "walking_time": "약 12분"
      },
      {
        "police_office_lat": 37.54915904,
        "police_office_lon": 126.9784794,
        "police_office_type": "경찰소",
        "police_office_name": "용중지구대",
        "distance": 809.1173700314852,
        "walking_time": "약 13분"
      },
      {
        "police_office_lat": 37.5389038,
        "police_office_lon": 126.9650122,
        "police_office_type": "경찰소",
        "police_office_name": "원효지구대",
        "distance": 886.1973556669775,
        "walking_time": "약 14분"
      },
      {
        "police_office_lat": 37.55680858,
        "police_office_lon": 126.9715661,
        "police_office_type": "경찰소",
        "police_office_name": "서울역파출소",
        "distance": 1550.1330970865731,
        "walking_time": "약 24분"
      },
      {
        "police_office_lat": 37.55788934,
        "police_office_lon": 126.9671156,
        "police_office_type": "경찰소",
        "police_office_name": "중림파출소",
        "distance": 1756.699220159208,
        "walking_time": "약 27분"
      },
      {
        "police_office_lat": 37.55844125,
        "police_office_lon": 126.9787072,
        "police_office_type": "경찰소",
        "police_office_name": "회현파출소",
        "distance": 1777.2786388357404,
        "walking_time": "약 27분"
      },
      {
        "police_office_lat": 37.55901366,
        "police_office_lon": 126.9763919,
        "police_office_type": "경찰소",
        "police_office_name": "남대문파출소",
        "distance": 1800.4988416307451,
        "walking_time": "약 27분"
      }
    ],
    "post_office": [
      {
        "post_office_lat": 37.5450495,
        "post_office_lon": 126.9728375,
        "post_office_type": "우체국",
        "post_office_name": "서울남영동우체국",
        "distance": 242.6259586463556,
        "walking_time": "약 4분"
      },
      {
        "post_office_lat": 37.54470577,
        "post_office_lon": 126.9702237,
        "post_office_type": "우체국",
        "post_office_name": "서울청파3가우편취급국",
        "distance": 359.3237823771165,
        "walking_time": "약 6분"
      },
      {
        "post_office_lat": 37.53865339,
        "post_office_lon": 126.9668187,
        "post_office_type": "우체국",
        "post_office_name": "서울원효로우체국",
        "distance": 770.5809936027771,
        "walking_time": "약 12분"
      },
      {
        "post_office_lat": 37.55113002,
        "post_office_lon": 126.977287,
        "post_office_type": "우체국",
        "post_office_name": "서울후암동우체국",
        "distance": 962.3918202560482,
        "walking_time": "약 15분"
      },
      {
        "post_office_lat": 37.5336104,
        "post_office_lon": 126.9775568,
        "post_office_type": "우체국",
        "post_office_name": "국방부구내우편취급국",
        "distance": 1095.6999123244643,
        "walking_time": "약 17분"
      },
      {
        "post_office_lat": 37.54584113,
        "post_office_lon": 126.985774,
        "post_office_type": "우체국",
        "post_office_name": "서울용산2가우편취급국",
        "distance": 1114.8986523577112,
        "walking_time": "약 17분"
      },
      {
        "post_office_lat": 37.53660425,
        "post_office_lon": 126.9872474,
        "post_office_type": "우체국",
        "post_office_name": "서울이태원우체국",
        "distance": 1391.393789947302,
        "walking_time": "약 21분"
      },
      {
        "post_office_lat": 37.53000901,
        "post_office_lon": 126.9695106,
        "post_office_type": "우체국",
        "post_office_name": "서울용산우체국",
        "distance": 1486.5666562771614,
        "walking_time": "약 23분"
      },
      {
        "post_office_lat": 37.5575861,
        "post_office_lon": 126.9714004,
        "post_office_type": "우체국",
        "post_office_name": "서울역전우체국",
        "distance": 1637.7187666092636,
        "walking_time": "약 25분"
      },
      {
        "post_office_lat": 37.55742451,
        "post_office_lon": 126.978405,
        "post_office_type": "우체국",
        "post_office_name": "서울회현동우편취급국",
        "distance": 1661.1557232072682,
        "walking_time": "약 25분"
      }
    ],
    "school": [
      {
        "school_lat": 37.5428998795519,
        "school_lon": 126.969447523164,
        "school_type": "고등학교",
        "school_name": "신광여자고등학교",
        "distance": 371.38456799523374,
        "walking_time": "약 6분"
      },
      {
        "school_lat": 37.5428998795519,
        "school_lon": 126.969447523164,
        "school_type": "중학교",
        "school_name": "신광여자중학교",
        "distance": 371.38456799523374,
        "walking_time": "약 6분"
      },
      {
        "school_lat": 37.5428998795519,
        "school_lon": 126.969447523164,
        "school_type": "초등학교",
        "school_name": "신광초등학교",
        "distance": 371.38456799523374,
        "walking_time": "약 6분"
      },
      {
        "school_lat": 37.5477523117279,
        "school_lon": 126.976594308147,
        "school_type": "초등학교",
        "school_name": "서울삼광초등학교",
        "distance": 591.6952770785551,
        "walking_time": "약 9분"
      },
      {
        "school_lat": 37.5458673821179,
        "school_lon": 126.980327669219,
        "school_type": "고등학교",
        "school_name": "용산고등학교",
        "distance": 670.5844543544532,
        "walking_time": "약 11분"
      },
      {
        "school_lat": 37.5427698351486,
        "school_lon": 126.966038693159,
        "school_type": "고등학교",
        "school_name": "선린인터넷고등학교",
        "distance": 672.211072472696,
        "walking_time": "약 11분"
      },
      {
        "school_lat": 37.5427698351486,
        "school_lon": 126.966038693159,
        "school_type": "중학교",
        "school_name": "선린중학교",
        "distance": 672.211072472696,
        "walking_time": "약 11분"
      },
      {
        "school_lat": 37.5460125390171,
        "school_lon": 126.9809128899,
        "school_type": "중학교",
        "school_name": "용산중학교",
        "distance": 723.6618633652893,
        "walking_time": "약 11분"
      },
      {
        "school_lat": 37.535613442977,
        "school_lon": 126.972550624529,
        "school_type": "초등학교",
        "school_name": "서울용산초등학교",
        "distance": 823.4974517038609,
        "walking_time": "약 13분"
      },
      {
        "school_lat": 37.5430815444968,
        "school_lon": 126.984284175086,
        "school_type": "고등학교",
        "school_name": "보성여자고등학교",
        "distance": 936.8658885820424,
        "walking_time": "약 14분"
      }
    ],
    "self_laundromat": [
      {
        "self_laundromat_lat": 37.54183756,
        "self_laundromat_lon": 126.969303,
        "self_laundromat_type": "셀프 빨래방",
        "self_laundromat_name": "워시엔조이 용산남영점",
        "distance": 404.0669354402354,
        "walking_time": "약 7분"
      },
      {
        "self_laundromat_lat": 37.54183756,
        "self_laundromat_lon": 126.969303,
        "self_laundromat_type": "셀프 빨래방",
        "self_laundromat_name": "워시엔조이 용산남영점",
        "distance": 404.0669354402354,
        "walking_time": "약 7분"
      },
      {
        "self_laundromat_lat": 37.5414179,
        "self_laundromat_lon": 126.9693725,
        "self_laundromat_type": "셀프 빨래방",
        "self_laundromat_name": "루미니빨래방",
        "distance": 415.3314489900006,
        "walking_time": "약 7분"
      },
      {
        "self_laundromat_lat": 37.5414179,
        "self_laundromat_lon": 126.9693725,
        "self_laundromat_type": "셀프 빨래방",
        "self_laundromat_name": "루미니빨래방",
        "distance": 415.3314489900006,
        "walking_time": "약 7분"
      },
      {
        "self_laundromat_lat": 37.54072178,
        "self_laundromat_lon": 126.9686798,
        "self_laundromat_type": "셀프 빨래방",
        "self_laundromat_name": "코인워시24빨래터 숙대점",
        "distance": 505.0271482706621,
        "walking_time": "약 8분"
      },
      {
        "self_laundromat_lat": 37.54072178,
        "self_laundromat_lon": 126.9686798,
        "self_laundromat_type": "셀프 빨래방",
        "self_laundromat_name": "코인워시24빨래터 숙대점",
        "distance": 505.0271482706621,
        "walking_time": "약 8분"
      },
      {
        "self_laundromat_lat": 37.54755985,
        "self_laundromat_lon": 126.972387,
        "self_laundromat_type": "셀프 빨래방",
        "self_laundromat_name": "우리동네휴빨래방",
        "distance": 522.8693669507657,
        "walking_time": "약 8분"
      },
      {
        "self_laundromat_lat": 37.54755985,
        "self_laundromat_lon": 126.972387,
        "self_laundromat_type": "셀프 빨래방",
        "self_laundromat_name": "우리동네휴빨래방",
        "distance": 522.8693669507657,
        "walking_time": "약 8분"
      },
      {
        "self_laundromat_lat": 37.54421399,
        "self_laundromat_lon": 126.9677761,
        "self_laundromat_type": "셀프 빨래방",
        "self_laundromat_name": "화이트365 숙대입구역점",
        "distance": 536.8823763248575,
        "walking_time": "약 9분"
      },
      {
        "self_laundromat_lat": 37.54421399,
        "self_laundromat_lon": 126.9677761,
        "self_laundromat_type": "셀프 빨래방",
        "self_laundromat_name": "화이트365 숙대입구역점",
        "distance": 536.8823763248575,
        "walking_time": "약 9분"
      }
    ],
    "subway": [
      {
        "subway_lat": 37.545496888435,
        "subway_lon": 126.972238757796,
        "subway_type": "지하철",
        "subway_name": "4호선-숙대입구(갈월)역",
        "distance": 307.91972133650575,
        "walking_time": "약 5분"
      },
      {
        "subway_lat": 37.5352494090346,
        "subway_lon": 126.973206081204,
        "subway_type": "지하철",
        "subway_name": "6호선-삼각지역",
        "distance": 859.0856219235019,
        "walking_time": "약 13분"
      },
      {
        "subway_lat": 37.5344018722304,
        "subway_lon": 126.973359125512,
        "subway_type": "지하철",
        "subway_name": "4호선-삼각지역",
        "distance": 952.7656978063512,
        "walking_time": "약 15분"
      },
      {
        "subway_lat": 37.5528563037584,
        "subway_lon": 126.973676335639,
        "subway_type": "지하철",
        "subway_name": "4호선-서울역",
        "distance": 1099.6414680289918,
        "walking_time": "약 17분"
      },
      {
        "subway_lat": 37.5395980031473,
        "subway_lon": 126.961220193937,
        "subway_type": "지하철",
        "subway_name": "6호선-효창공원앞역",
        "distance": 1158.92178229024,
        "walking_time": "약 18분"
      },
      {
        "subway_lat": 37.5348314193581,
        "subway_lon": 126.987028473368,
        "subway_type": "지하철",
        "subway_name": "6호선-녹사평(용산구청)역",
        "distance": 1485.910686702336,
        "walking_time": "약 23분"
      },
      {
        "subway_lat": 37.5571594835988,
        "subway_lon": 126.972554606456,
        "subway_type": "지하철",
        "subway_name": "1호선-서울역",
        "distance": 1581.1325927055266,
        "walking_time": "약 24분"
      },
      {
        "subway_lat": 37.5585353196435,
        "subway_lon": 126.978239147279,
        "subway_type": "지하철",
        "subway_name": "4호선-회현(남대문시장)역",
        "distance": 1777.5830433901506,
        "walking_time": "약 27분"
      },
      {
        "subway_lat": 37.5598377952439,
        "subway_lon": 126.964474043785,
        "subway_type": "지하철",
        "subway_name": "2호선-충정로(경기대입구)역",
        "distance": 2043.2343771260903,
        "walking_time": "약 31분"
      }
    ],
    "supermarket": [
      {
        "supermarket_lat": 37.54220897,
        "supermarket_lon": 126.9718943,
        "supermarket_type": "마트",
        "supermarket_name": "롯데프레시 갈월점",
        "distance": 176.9522866036617,
        "walking_time": "약 3분"
      },
      {
        "supermarket_lat": 37.53793867,
        "supermarket_lon": 126.9679734,
        "supermarket_type": "마트",
        "supermarket_name": "롯데쇼핑(주)롯데슈퍼원효로점",
        "distance": 750.9435147924038,
        "walking_time": "약 12분"
      },
      {
        "supermarket_lat": 37.53388778,
        "supermarket_lon": 126.9654273,
        "supermarket_type": "마트",
        "supermarket_name": "나진상가 17,18동",
        "distance": 1243.3844154613237,
        "walking_time": "약 19분"
      },
      {
        "supermarket_lat": 37.5513334,
        "supermarket_lon": 126.963696,
        "supermarket_type": "마트",
        "supermarket_name": "만리시장",
        "distance": 1279.4365840992457,
        "walking_time": "약 20분"
      },
      {
        "supermarket_lat": 37.53412322,
        "supermarket_lon": 126.9642615,
        "supermarket_type": "마트",
        "supermarket_name": "(주)전자타운",
        "distance": 1285.9254291341997,
        "walking_time": "약 20분"
      },
      {
        "supermarket_lat": 37.53412322,
        "supermarket_lon": 126.9642615,
        "supermarket_type": "마트",
        "supermarket_name": "전자타운",
        "distance": 1285.9254291341997,
        "walking_time": "약 20분"
      },
      {
        "supermarket_lat": 37.55472785,
        "supermarket_lon": 126.9695263,
        "supermarket_type": "마트",
        "supermarket_name": "롯데아울렛 서울역점",
        "distance": 1357.5499910004614,
        "walking_time": "약 21분"
      },
      {
        "supermarket_lat": 37.55472785,
        "supermarket_lon": 126.9695263,
        "supermarket_type": "마트",
        "supermarket_name": "롯데아울렛 서울역점",
        "distance": 1357.5499910004614,
        "walking_time": "약 21분"
      },
      {
        "supermarket_lat": 37.53271721,
        "supermarket_lon": 126.9651782,
        "supermarket_type": "마트",
        "supermarket_name": "선인상가",
        "distance": 1363.1333965700778,
        "walking_time": "약 21분"
      },
      {
        "supermarket_lat": 37.53367668,
        "supermarket_lon": 126.9633632,
        "supermarket_type": "마트",
        "supermarket_name": "나진전자월드상가",
        "distance": 1375.2306942837108,
        "walking_time": "약 21분"
      }
    ],
    "theater": [
      {
        "theater_lat": 37.5574468761736,
        "theater_lon": 126.969512319976,
        "theater_type": "영화관",
        "theater_name": "KTX시네마",
        "distance": 1651.066532772723,
        "walking_time": "약 25분"
      }
    ],
    "university": [
      {
        "university_lat": 37.5454740835781,
        "university_lon": 126.965074376341,
        "university_type": "대학교",
        "university_name": "숙명여자대학교",
        "distance": 806.568264927902,
        "walking_time": "약 13분"
      },
      {
        "university_lat": 37.5578530747432,
        "university_lon": 126.987481605528,
        "university_type": "전문대학교(2년제)",
        "university_name": "숭의여자대학교",
        "distance": 2055.4242302410066,
        "walking_time": "약 31분"
      }
    ]
  }
}