{
  "클러스터_위도": 37.561501,
  "클러스터_경도": 126.926039,
  "클러스터_level": 4.0,
  "facilities": {
    "bus": [
      {
        "bus_lat": 37.56252217,
        "bus_lon": 126.927541,
        "bus_type": "버스정류장",
        "bus_name": "연남동",
        "distance": 174.41587602167604,
        "walking_time": "약 3분"
      },
      {
        "bus_lat": 37.56245057,
        "bus_lon": 126.9243117,
        "bus_type": "버스정류장",
        "bus_name": "대명아파트",
        "distance": 185.2805593613812,
        "walking_time": "약 3분"
      },
      {
        "bus_lat": 37.56262335,
        "bus_lon": 126.9279552,
        "bus_type": "버스정류장",
        "bus_name": "연희동대우아파트",
        "distance": 210.0055852214398,
        "walking_time": "약 4분"
      },
      {
        "bus_lat": 37.56336606,
        "bus_lon": 126.9253883,
        "bus_type": "버스정류장",
        "bus_name": "하모니마트사거리",
        "distance": 215.17013065312884,
        "walking_time": "약 4분"
      },
      {
        "bus_lat": 37.56090911,
        "bus_lon": 126.9231009,
        "bus_type": "버스정류장",
        "bus_name": "코오롱아파트106동앞",
        "distance": 267.2094990215235,
        "walking_time": "약 4분"
      },
      {
        "bus_lat": 37.56398392,
        "bus_lon": 126.9249462,
        "bus_type": "버스정류장",
        "bus_name": "에덴맨션",
        "distance": 292.40833438560566,
        "walking_time": "약 5분"
      },
      {
        "bus_lat": 37.55865155,
        "bus_lon": 126.9259252,
        "bus_type": "버스정류장",
        "bus_name": "홍대입구역(가상)",
        "distance": 317.00312994677984,
        "walking_time": "약 5분"
      },
      {
        "bus_lat": 37.55865826,
        "bus_lon": 126.9274995,
        "bus_type": "버스정류장",
        "bus_name": "동교동삼거리연희동방면",
        "distance": 341.30825921221697,
        "walking_time": "약 6분"
      },
      {
        "bus_lat": 37.56229335,
        "bus_lon": 126.9219754,
        "bus_type": "버스정류장",
        "bus_name": "코오롱아파트104동앞",
        "distance": 368.8576280452827,
        "walking_time": "약 6분"
      },
      {
        "bus_lat": 37.5645908,
        "bus_lon": 126.9242178,
        "bus_type": "버스정류장",
        "bus_name": "에덴지우아파트",
        "distance": 379.2210661951696,
        "walking_time": "약 6분"
      }
    ],
    "community_center": [
      {
        "community_center_lat": 37.56450401,
        "community_center_lon": 126.9220214,
        "community_center_type": "주민센터",
        "community_center_name": "연남동 자치회관",
        "distance": 486.7276196373274,
        "walking_time": "약 8분"
      },
      {
        "community_center_lat": 37.56933601,
        "community_center_lon": 126.9307755,
        "community_center_type": "주민센터",
        "community_center_name": "연희동 자치회관",
        "distance": 966.0726143630728,
        "walking_time": "약 15분"
      },
      {
        "community_center_lat": 37.55511048,
        "community_center_lon": 126.9145897,
        "community_center_type": "주민센터",
        "community_center_name": "서교동 자치회관",
        "distance": 1234.2984038206498,
        "walking_time": "약 19분"
      },
      {
        "community_center_lat": 37.55781754,
        "community_center_lon": 126.939546,
        "community_center_type": "주민센터",
        "community_center_name": "신촌동 자치회관",
        "distance": 1259.0742956826637,
        "walking_time": "약 19분"
      },
      {
        "community_center_lat": 37.5732569,
        "community_center_lon": 126.9197159,
        "community_center_type": "주민센터",
        "community_center_name": "남가좌1동 자치회관",
        "distance": 1421.037013550587,
        "walking_time": "약 22분"
      },
      {
        "community_center_lat": 37.55160042,
        "community_center_lon": 126.9118263,
        "community_center_type": "주민센터",
        "community_center_name": "합정동 자치회관",
        "distance": 1667.813090058782,
        "walking_time": "약 25분"
      },
      {
        "community_center_lat": 37.57843406,
        "community_center_lon": 126.9238669,
        "community_center_type": "주민센터",
        "community_center_name": "남가좌2동 자치회관",
        "distance": 1892.5772410675709,
        "walking_time": "약 29분"
      },
      {
        "community_center_lat": 37.57430267,
        "community_center_lon": 126.9101907,
        "community_center_type": "주민센터",
        "community_center_name": "북가좌1동 자치회관",
        "distance": 1994.3393906688143,
        "walking_time": "약 30분"
      }
    ],
    "convenience_store": [
      {
        "convenience_store_lat": 37.56104796,
        "convenience_store_lon": 126.9259223,
        "convenience_store_type": "편의점",
        "convenience_store_name": "GS25 연남호호점",
        "distance": 51.41524371985601,
        "walking_time": "약 1분"
      },
      {
        "convenience_store_lat": 37.56208367,
        "convenience_store_lon": 126.9271028,
        "convenience_store_type": "편의점",
        "convenience_store_name": "GS25 연남리치점",
        "distance": 113.97394516860903,
        "walking_time": "약 2분"
      },
      {
        "convenience_store_lat": 37.5620731,
        "convenience_store_lon": 126.9276484,
        "convenience_store_type": "편의점",
        "convenience_store_name": "CU 연희푸르지오점",
        "distance": 155.4692867351924,
        "walking_time": "약 3분"
      },
      {
        "convenience_store_lat": 37.56296469,
        "convenience_store_lon": 126.9265569,
        "convenience_store_type": "편의점",
        "convenience_store_name": "GS25 연남동진점",
        "distance": 169.03557858752305,
        "walking_time": "약 3분"
      },
      {
        "convenience_store_lat": 37.56126619,
        "convenience_store_lon": 126.9240894,
        "convenience_store_type": "편의점",
        "convenience_store_name": "세븐일레븐 마포연남중앙점",
        "distance": 173.81830648602417,
        "walking_time": "약 3분"
      },
      {
        "convenience_store_lat": 37.56014292,
        "convenience_store_lon": 126.9246611,
        "convenience_store_type": "편의점",
        "convenience_store_name": "CU 홍대경의선숲길해달점",
        "distance": 193.79320825485505,
        "walking_time": "약 3분"
      },
      {
        "convenience_store_lat": 37.56319226,
        "convenience_store_lon": 126.9250894,
        "convenience_store_type": "편의점",
        "convenience_store_name": "CU 마포연남점",
        "distance": 205.8450908943933,
        "walking_time": "약 4분"
      },
      {
        "convenience_store_lat": 37.56193105,
        "convenience_store_lon": 126.9232753,
        "convenience_store_type": "편의점",
        "convenience_store_name": "GS25 연남공원점",
        "distance": 248.2524149351187,
        "walking_time": "약 4분"
      },
      {
        "convenience_store_lat": 37.56072775,
        "convenience_store_lon": 126.9233857,
        "convenience_store_type": "편의점",
        "convenience_store_name": "CU 편의점",
        "distance": 249.1784715725536,
        "walking_time": "약 4분"
      },
      {
        "convenience_store_lat": 37.55908879,
        "convenience_store_lon": 126.9248602,
        "convenience_store_type": "편의점",
        "convenience_store_name": "GS25 홍대동교점",
        "distance": 287.6480244920292,
        "walking_time": "약 5분"
      }
    ],
    "daycare": [
      {
        "daycare_lat": 37.56213796,
        "daycare_lon": 126.9281361,
        "daycare_type": "어린이집",
        "daycare_name": "리틀빌리지어린이집",
        "distance": 197.95096955949853,
        "walking_time": "약 3분"
      },
      {
        "daycare_lat": 37.56287732097153,
        "daycare_lon": 126.92748137787709,
        "daycare_type": "어린이집",
        "daycare_name": "해찬솔어린이집",
        "distance": 198.95923725747053,
        "walking_time": "약 3분"
      },
      {
        "daycare_lat": 37.56209232,
        "daycare_lon": 126.9285767,
        "daycare_type": "어린이집",
        "daycare_name": "천사어린이집",
        "distance": 233.14625195279828,
        "walking_time": "약 4분"
      },
      {
        "daycare_lat": 37.5628481,
        "daycare_lon": 126.9231999,
        "daycare_type": "어린이집",
        "daycare_name": "지혜어린이집",
        "distance": 291.65256176659244,
        "walking_time": "약 5분"
      },
      {
        "daycare_lat": 37.56100533,
        "daycare_lon": 126.9221942,
        "daycare_type": "어린이집",
        "daycare_name": "새싹그림마을어린이집",
        "distance": 343.3503708773017,
        "walking_time": "약 6분"
      },
      {
        "daycare_lat": 37.56002506,
        "daycare_lon": 126.9299264,
        "daycare_type": "어린이집",
        "daycare_name": "내일어린이집",
        "distance": 379.9300501841569,
        "walking_time": "약 6분"
      },
      {
        "daycare_lat": 37.56136695,
        "daycare_lon": 126.9214843,
        "daycare_type": "어린이집",
        "daycare_name": "우리아이어린이집",
        "distance": 401.7471613654423,
        "walking_time": "약 6분"
      },
      {
        "daycare_lat": 37.5650344,
        "daycare_lon": 126.9245279,
        "daycare_type": "어린이집",
        "daycare_name": "꼬마또래어린이집",
        "distance": 414.858237184665,
        "walking_time": "약 7분"
      },
      {
        "daycare_lat": 37.56320677,
        "daycare_lon": 126.921429,
        "daycare_type": "어린이집",
        "daycare_name": "연희어린이집",
        "distance": 448.4283186833863,
        "walking_time": "약 7분"
      },
      {
        "daycare_lat": 37.557012506783806,
        "daycare_lon": 126.92567071559252,
        "daycare_type": "어린이집",
        "daycare_name": "마포어린이집",
        "distance": 500.15231752359233,
        "walking_time": "약 8분"
      }
    ],
    "education": [
      {
        "education_lat": 37.5656579,
        "education_lon": 126.9285381,
        "education_type": "공연장",
        "education_name": "연희예술극장",
        "distance": 512.0293835633232,
        "walking_time": "약 8분"
      },
      {
        "education_lat": 37.55698238,
        "education_lon": 126.92959,
        "education_type": "도서관",
        "education_name": "연세대학교 김대중도서관",
        "distance": 591.9700065268701,
        "walking_time": "약 9분"
      },
      {
        "education_lat": 37.5550833,
        "education_lon": 126.9301095,
        "education_type": "공연장",
        "education_name": "소극장 산울림",
        "distance": 798.7422974455262,
        "walking_time": "약 12분"
      },
      {
        "education_lat": 37.55432192,
        "education_lon": 126.9242041,
        "education_type": "도서관",
        "education_name": "서울특별시교육청 마포평생학습관",
        "distance": 814.4983531395951,
        "walking_time": "약 13분"
      },
      {
        "education_lat": 37.56173692,
        "education_lon": 126.9161692,
        "education_type": "미술관/갤러리",
        "education_name": "오온",
        "distance": 870.3592459975113,
        "walking_time": "약 13분"
      },
      {
        "education_lat": 37.5541249,
        "education_lon": 126.9296484,
        "education_type": "공연장",
        "education_name": "포스트극장",
        "distance": 879.7335568066718,
        "walking_time": "약 14분"
      },
      {
        "education_lat": 37.56009763,
        "education_lon": 126.9148871,
        "education_type": "박물관/기념관",
        "education_name": "전쟁과여성인권박물관",
        "distance": 995.2931980756184,
        "walking_time": "약 15분"
      },
      {
        "education_lat": 37.55504357,
        "education_lon": 126.9338654,
        "education_type": "박물관/기념관",
        "education_name": "이한열기념관",
        "distance": 995.7450858134588,
        "walking_time": "약 15분"
      },
      {
        "education_lat": 37.55251925,
        "education_lon": 126.9249906,
        "education_type": "박물관/기념관",
        "education_name": "홍익대학교 박물관",
        "distance": 1002.9917195458826,
        "walking_time": "약 15분"
      },
      {
        "education_lat": 37.57009912,
        "education_lon": 126.9294945,
        "education_type": "미술관/갤러리",
        "education_name": "스페이스애프터",
        "distance": 1003.4063452977164,
        "walking_time": "약 15분"
      }
    ],
    "fitness": [
      {
        "fitness_lat": 37.56139737,
        "fitness_lon": 126.9263569,
        "fitness_type": "운동시설",
        "fitness_name": "아르케GYM(PT샵)",
        "distance": 30.297880998368203,
        "walking_time": "약 1분"
      },
      {
        "fitness_lat": 37.56140069,
        "fitness_lon": 126.9272054,
        "fitness_type": "운동시설",
        "fitness_name": "SPERO GYM",
        "distance": 103.41468734875797,
        "walking_time": "약 2분"
      },
      {
        "fitness_lat": 37.56182893,
        "fitness_lon": 126.9275011,
        "fitness_type": "운동시설",
        "fitness_name": "헬로바디 피트니스",
        "distance": 133.9345888033676,
        "walking_time": "약 2분"
      },
      {
        "fitness_lat": 37.56271074,
        "fitness_lon": 126.921857,
        "fitness_type": "운동시설",
        "fitness_name": "스타트원 스포츠짐",
        "distance": 392.3932578049044,
        "walking_time": "약 6분"
      },
      {
        "fitness_lat": 37.55896941,
        "fitness_lon": 126.9227726,
        "fitness_type": "운동시설",
        "fitness_name": "태그아웃",
        "distance": 402.66556781293656,
        "walking_time": "약 7분"
      },
      {
        "fitness_lat": 37.5580882,
        "fitness_lon": 126.9276921,
        "fitness_type": "운동시설",
        "fitness_name": "주식회사 홀리핏(Holyfit) 홍대점",
        "distance": 406.50013215146,
        "walking_time": "약 7분"
      },
      {
        "fitness_lat": 37.55859588,
        "fitness_lon": 126.9232176,
        "fitness_type": "운동시설",
        "fitness_name": "우리짐 홍대점",
        "distance": 407.6768884049346,
        "walking_time": "약 7분"
      },
      {
        "fitness_lat": 37.55840604,
        "fitness_lon": 126.928533,
        "fitness_type": "운동시설",
        "fitness_name": "클라우드 짐",
        "distance": 408.3661308260308,
        "walking_time": "약 7분"
      },
      {
        "fitness_lat": 37.55766848,
        "fitness_lon": 126.9258931,
        "fitness_type": "운동시설",
        "fitness_name": "에이블짐 홍대입구역점",
        "distance": 426.3507891982094,
        "walking_time": "약 7분"
      },
      {
        "fitness_lat": 37.56073661,
        "fitness_lon": 126.9211135,
        "fitness_type": "운동시설",
        "fitness_name": "스튜디오함께갈반(BAN)",
        "distance": 442.3980505891956,
        "walking_time": "약 7분"
      }
    ],
    "gas_station": [
      {
        "gas_station_lat": 37.55986958,
        "gas_station_lon": 126.9268498,
        "gas_station_type": "주유소",
        "gas_station_name": "㈜중앙에너비스 동교지점",
        "distance": 194.976116012746,
        "walking_time": "약 3분"
      },
      {
        "gas_station_lat": 37.56607084,
        "gas_station_lon": 126.9249412,
        "gas_station_type": "주유소",
        "gas_station_name": "구도일주유소 두꺼비",
        "distance": 517.2737732399395,
        "walking_time": "약 8분"
      },
      {
        "gas_station_lat": 37.56502434,
        "gas_station_lon": 126.929929,
        "gas_station_type": "주유소",
        "gas_station_name": "㈜안국에너지 삼보주유소",
        "distance": 520.625869776607,
        "walking_time": "약 8분"
      },
      {
        "gas_station_lat": 37.55977724,
        "gas_station_lon": 126.9171795,
        "gas_station_type": "주유소",
        "gas_station_name": "마포시엠주유소",
        "distance": 804.1008271715878,
        "walking_time": "약 13분"
      },
      {
        "gas_station_lat": 37.56774546,
        "gas_station_lon": 126.9189858,
        "gas_station_type": "주유소",
        "gas_station_name": "sk삼미상사(주)서부주유소",
        "distance": 931.9879480315324,
        "walking_time": "약 14분"
      },
      {
        "gas_station_lat": 37.5693078,
        "gas_station_lon": 126.9324582,
        "gas_station_type": "주유소",
        "gas_station_name": "연희주유소",
        "distance": 1036.1804534715848,
        "walking_time": "약 16분"
      },
      {
        "gas_station_lat": 37.56317419,
        "gas_station_lon": 126.9131892,
        "gas_station_type": "주유소",
        "gas_station_name": "청원주유소",
        "distance": 1147.801125114279,
        "walking_time": "약 18분"
      },
      {
        "gas_station_lat": 37.5732609,
        "gas_station_lon": 126.9224624,
        "gas_station_type": "주유소",
        "gas_station_name": "㈜가재울뉴타운주유소",
        "distance": 1345.100909506283,
        "walking_time": "약 21분"
      },
      {
        "gas_station_lat": 37.57567158,
        "gas_station_lon": 126.9255184,
        "gas_station_type": "주유소",
        "gas_station_name": "남정주유소",
        "distance": 1576.364513892317,
        "walking_time": "약 24분"
      },
      {
        "gas_station_lat": 37.57347791,
        "gas_station_lon": 126.9359275,
        "gas_station_type": "주유소",
        "gas_station_name": "현대오일뱅크(주) 직영 연세주유소",
        "distance": 1591.604098642449,
        "walking_time": "약 24분"
      }
    ],
    "hospital": [
      {
        "hospital_lat": 37.56099761,
        "hospital_lon": 126.9271062,
        "hospital_type": "병원",
        "hospital_name": "사회복지법인어린이사랑의의원",
        "distance": 109.4617685237764,
        "walking_time": "약 2분"
      },
      {
        "hospital_lat": 37.56208367,
        "hospital_lon": 126.9271028,
        "hospital_type": "병원",
        "hospital_name": "연세가정의학과의원",
        "distance": 113.97394516860903,
        "walking_time": "약 2분"
      },
      {
        "hospital_lat": 37.56239991,
        "hospital_lon": 126.9272398,
        "hospital_type": "병원",
        "hospital_name": "기세호치과의원",
        "distance": 145.58008219556731,
        "walking_time": "약 3분"
      },
      {
        "hospital_lat": 37.56272754,
        "hospital_lon": 126.9268454,
        "hospital_type": "병원",
        "hospital_name": "연남경희한의원",
        "distance": 153.79557807067792,
        "walking_time": "약 3분"
      },
      {
        "hospital_lat": 37.5620731,
        "hospital_lon": 126.9276484,
        "hospital_type": "병원",
        "hospital_name": "박규현치과의원",
        "distance": 155.4692867351924,
        "walking_time": "약 3분"
      },
      {
        "hospital_lat": 37.56236858,
        "hospital_lon": 126.9278622,
        "hospital_type": "병원",
        "hospital_name": "약선경희한의원",
        "distance": 187.4357703846291,
        "walking_time": "약 3분"
      },
      {
        "hospital_lat": 37.56236858,
        "hospital_lon": 126.9278622,
        "hospital_type": "병원",
        "hospital_name": "연세가정의학과의원",
        "distance": 187.4357703846291,
        "walking_time": "약 3분"
      },
      {
        "hospital_lat": 37.56236858,
        "hospital_lon": 126.9278622,
        "hospital_type": "병원",
        "hospital_name": "연희연세치과의원",
        "distance": 187.4357703846291,
        "walking_time": "약 3분"
      },
      {
        "hospital_lat": 37.56287929,
        "hospital_lon": 126.9241662,
        "hospital_type": "병원",
        "hospital_name": "연세하늘빛치과의원",
        "distance": 225.2509323662744,
        "walking_time": "약 4분"
      },
      {
        "hospital_lat": 37.5594348,
        "hospital_lon": 126.9263326,
        "hospital_type": "병원",
        "hospital_name": "동교한의원",
        "distance": 231.2039145179324,
        "walking_time": "약 4분"
      }
    ],
    "music_room": [
      {
        "music_room_lat": 37.56251805,
        "music_room_lon": 126.9271133,
        "music_room_type": "노래방",
        "music_room_name": "씨티 노래연습장",
        "distance": 147.49990341000125,
        "walking_time": "약 3분"
      },
      {
        "music_room_lat": 37.56212477,
        "music_room_lon": 126.9245427,
        "music_room_type": "노래방",
        "music_room_name": "연남 노래연습장",
        "distance": 149.015673540427,
        "walking_time": "약 3분"
      },
      {
        "music_room_lat": 37.56126619,
        "music_room_lon": 126.9240894,
        "music_room_type": "노래방",
        "music_room_name": "일번지 노래연습장",
        "distance": 173.81830648602417,
        "walking_time": "약 3분"
      },
      {
        "music_room_lat": 37.56095882,
        "music_room_lon": 126.924025,
        "music_room_type": "노래방",
        "music_room_name": "골든싱어코인노래연습장 연남점",
        "distance": 187.4806919417383,
        "walking_time": "약 3분"
      },
      {
        "music_room_lat": 37.56240107,
        "music_room_lon": 126.9242029,
        "music_room_type": "노래방",
        "music_room_name": "K 노래연습장",
        "distance": 190.28662697554475,
        "walking_time": "약 3분"
      },
      {
        "music_room_lat": 37.56315655,
        "music_room_lon": 126.9254732,
        "music_room_type": "노래방",
        "music_room_name": "M 노래연습장",
        "distance": 190.7244854308271,
        "walking_time": "약 3분"
      },
      {
        "music_room_lat": 37.56302416,
        "music_room_lon": 126.9248535,
        "music_room_type": "노래방",
        "music_room_name": "렉스코인노래연습장 연남점",
        "distance": 199.00845733593445,
        "walking_time": "약 3분"
      },
      {
        "music_room_lat": 37.5597239,
        "music_room_lon": 126.9249929,
        "music_room_type": "노래방",
        "music_room_name": "애플 노래연습장 동교점",
        "distance": 218.0595897956992,
        "walking_time": "약 4분"
      },
      {
        "music_room_lat": 37.56003449,
        "music_room_lon": 126.9240307,
        "music_room_type": "노래방",
        "music_room_name": "렉스코인 노래연습장",
        "distance": 240.68234571034543,
        "walking_time": "약 4분"
      },
      {
        "music_room_lat": 37.55978158,
        "music_room_lon": 126.9236214,
        "music_room_type": "노래방",
        "music_room_name": "바비노래연습장",
        "distance": 286.29604804909064,
        "walking_time": "약 5분"
      }
    ],
    "park": [
      {
        "park_lat": 37.5690506,
        "park_lon": 126.9229851,
        "park_type": "공원",
        "park_name": "궁동근린공원",
        "distance": 881.5749433484947,
        "walking_time": "약 14분"
      },
      {
        "park_lat": 37.5517298,
        "park_lon": 126.9289936,
        "park_type": "공원",
        "park_name": "와우근린공원",
        "distance": 1117.2879674374424,
        "walking_time": "약 17분"
      },
      {
        "park_lat": 37.5798246,
        "park_lon": 126.9390273,
        "park_type": "공원",
        "park_name": "안산도시자연공원",
        "distance": 2337.0309261340126,
        "walking_time": "약 35분"
      }
    ],
    "park_station": [
      {
        "park_station_lat": 37.56258735,
        "park_station_lon": 126.9248387,
        "park_station_type": "주차장",
        "park_station_name": "연남 유료 주차장",
        "distance": 160.5776353733791,
        "walking_time": "약 3분"
      },
      {
        "park_station_lat": 37.56158877,
        "park_station_lon": 126.9241269,
        "park_station_type": "주차장",
        "park_station_name": "연남 유료 주차장",
        "distance": 168.82267694374275,
        "walking_time": "약 3분"
      },
      {
        "park_station_lat": 37.56147992,
        "park_station_lon": 126.924116,
        "park_station_type": "주차장",
        "park_station_name": "연남 유료 주차장",
        "distance": 169.5174429719251,
        "walking_time": "약 3분"
      },
      {
        "park_station_lat": 37.56136972,
        "park_station_lon": 126.9241056,
        "park_station_type": "주차장",
        "park_station_name": "연남 유료 주차장",
        "distance": 171.04212287898991,
        "walking_time": "약 3분"
      },
      {
        "park_station_lat": 37.5620216,
        "park_station_lon": 126.9241215,
        "park_station_type": "주차장",
        "park_station_name": "연남 유료 주차장",
        "distance": 178.65435954403588,
        "walking_time": "약 3분"
      },
      {
        "park_station_lat": 37.56314258,
        "park_station_lon": 126.9254671,
        "park_station_type": "주차장",
        "park_station_name": "연남 유료 주차장",
        "distance": 189.36799246311853,
        "walking_time": "약 3분"
      },
      {
        "park_station_lat": 37.56260201,
        "park_station_lon": 126.924384,
        "park_station_type": "주차장",
        "park_station_name": "연남 유료 주차장",
        "distance": 190.4430322006625,
        "walking_time": "약 3분"
      },
      {
        "park_station_lat": 37.55665923,
        "park_station_lon": 126.9272697,
        "park_station_type": "주차장",
        "park_station_name": "동교3공영주차장",
        "distance": 549.2010245353202,
        "walking_time": "약 9분"
      },
      {
        "park_station_lat": 37.5569955,
        "park_station_lon": 126.9289222,
        "park_station_type": "주차장",
        "park_station_name": "공유) 9-88",
        "distance": 561.7645036868729,
        "walking_time": "약 9분"
      },
      {
        "park_station_lat": 37.56757751,
        "park_station_lon": 126.9290467,
        "park_station_type": "주차장",
        "park_station_name": "연희사러가쇼핑센터앞",
        "distance": 725.8221035449051,
        "walking_time": "약 11분"
      }
    ],
    "pc_room": [
      {
        "pc_room_lat": 37.5614156250297,
        "pc_room_lon": 126.924450876158,
        "pc_room_type": "PC방",
        "pc_room_name": "으뜸 플스방",
        "distance": 140.30544853975914,
        "walking_time": "약 3분"
      },
      {
        "pc_room_lat": 37.5623999133101,
        "pc_room_lon": 126.927239750975,
        "pc_room_type": "PC방",
        "pc_room_name": "샘 피시방 (SAEM PC방)",
        "distance": 145.5771932170456,
        "walking_time": "약 3분"
      },
      {
        "pc_room_lat": 37.5583280533329,
        "pc_room_lon": 126.926246501876,
        "pc_room_type": "PC방",
        "pc_room_name": "칵투스 PC CAFE",
        "distance": 353.2893558596654,
        "walking_time": "약 6분"
      },
      {
        "pc_room_lat": 37.5588764092034,
        "pc_room_lon": 126.922876410496,
        "pc_room_type": "PC방",
        "pc_room_name": "제노피시방(동교점)",
        "distance": 403.58798230164336,
        "walking_time": "약 7분"
      },
      {
        "pc_room_lat": 37.5576684824211,
        "pc_room_lon": 126.92589313527,
        "pc_room_type": "PC방",
        "pc_room_name": "원신PC라운지 인 서울",
        "distance": 426.3504263386109,
        "walking_time": "약 7분"
      },
      {
        "pc_room_lat": 37.5582028873199,
        "pc_room_lon": 126.9290107594,
        "pc_room_type": "PC방",
        "pc_room_name": "GEEKSTAR PC방 창천점",
        "distance": 450.6780173534041,
        "walking_time": "약 7분"
      },
      {
        "pc_room_lat": 37.5561130617043,
        "pc_room_lon": 126.923446601456,
        "pc_room_type": "PC방",
        "pc_room_name": "SNS PC",
        "distance": 641.211888028252,
        "walking_time": "약 10분"
      },
      {
        "pc_room_lat": 37.5561130617043,
        "pc_room_lon": 126.923446601456,
        "pc_room_type": "PC방",
        "pc_room_name": "I PC CAFE 홍대역점",
        "distance": 641.211888028252,
        "walking_time": "약 10분"
      },
      {
        "pc_room_lat": 37.5560502523992,
        "pc_room_lon": 126.922054509333,
        "pc_room_type": "PC방",
        "pc_room_name": "티원 베이스캠프(T1 BASE CAMP)",
        "distance": 700.5061848625895,
        "walking_time": "약 11분"
      },
      {
        "pc_room_lat": 37.5561796646134,
        "pc_room_lon": 126.92168983967,
        "pc_room_type": "PC방",
        "pc_room_name": "나니아 플스방",
        "distance": 705.0428830603794,
        "walking_time": "약 11분"
      }
    ],
    "police_office": [
      {
        "police_office_lat": 37.56033561,
        "police_office_lon": 126.9237621,
        "police_office_type": "경찰소",
        "police_office_name": "연남파출소",
        "distance": 238.89678888249165,
        "walking_time": "약 4분"
      },
      {
        "police_office_lat": 37.57027551,
        "police_office_lon": 126.9328491,
        "police_office_type": "경찰소",
        "police_office_name": "연희파출소",
        "distance": 1145.5285512821265,
        "walking_time": "약 18분"
      },
      {
        "police_office_lat": 37.55187634,
        "police_office_lon": 126.9134625,
        "police_office_type": "경찰소",
        "police_office_name": "홍익지구대",
        "distance": 1540.904719654649,
        "walking_time": "약 23분"
      },
      {
        "police_office_lat": 37.57604086,
        "police_office_lon": 126.9240383,
        "police_office_type": "경찰소",
        "police_office_name": "남가좌파출소",
        "distance": 1626.3461629803292,
        "walking_time": "약 25분"
      }
    ],
    "post_office": [
      {
        "post_office_lat": 37.55769106,
        "post_office_lon": 126.928758,
        "post_office_type": "우체국",
        "post_office_name": "서울동교동우편취급국",
        "distance": 486.7419066637262,
        "walking_time": "약 8분"
      },
      {
        "post_office_lat": 37.56084354,
        "post_office_lon": 126.9320908,
        "post_office_type": "우체국",
        "post_office_name": "서대문우체국",
        "distance": 538.4194030605737,
        "walking_time": "약 9분"
      },
      {
        "post_office_lat": 37.56958301,
        "post_office_lon": 126.9316141,
        "post_office_type": "우체국",
        "post_office_name": "서울연희동우체국",
        "distance": 1024.2475756523652,
        "walking_time": "약 16분"
      },
      {
        "post_office_lat": 37.56340756,
        "post_office_lon": 126.9139362,
        "post_office_type": "우체국",
        "post_office_name": "서울성산동우체국",
        "distance": 1087.638740676028,
        "walking_time": "약 17분"
      },
      {
        "post_office_lat": 37.56953649,
        "post_office_lon": 126.9173362,
        "post_office_type": "우체국",
        "post_office_name": "서울남가좌1동우편취급국",
        "distance": 1177.596234532699,
        "walking_time": "약 18분"
      },
      {
        "post_office_lat": 37.55462944,
        "post_office_lon": 126.9379735,
        "post_office_type": "우체국",
        "post_office_name": "서울노고산동우편취급국",
        "distance": 1300.206379843974,
        "walking_time": "약 20분"
      },
      {
        "post_office_lat": 37.56740629,
        "post_office_lon": 126.9111676,
        "post_office_type": "우체국",
        "post_office_name": "서울성산유원우편취급국",
        "distance": 1466.0508444906889,
        "walking_time": "약 22분"
      },
      {
        "post_office_lat": 37.55036705,
        "post_office_lon": 126.9156581,
        "post_office_type": "우체국",
        "post_office_name": "서울서교동우체국",
        "distance": 1539.5189978371009,
        "walking_time": "약 23분"
      },
      {
        "post_office_lat": 37.57608074,
        "post_office_lon": 126.9124174,
        "post_office_type": "우체국",
        "post_office_name": "서울모래내우체국",
        "distance": 2017.3200256328928,
        "walking_time": "약 31분"
      },
      {
        "post_office_lat": 37.57981456,
        "post_office_lon": 126.9345321,
        "post_office_type": "우체국",
        "post_office_name": "서울홍은2동우편취급국",
        "distance": 2169.588167637099,
        "walking_time": "약 33분"
      }
    ],
    "public_health_center": [
      {
        "public_health_center_lat": 37.57430267,
        "public_health_center_lon": 126.9101907,
        "public_health_center_type": "보건소",
        "public_health_center_name": "북가좌1동주민센터",
        "distance": 1994.3393906688143,
        "walking_time": "약 30분"
      },
      {
        "public_health_center_lat": 37.5786098,
        "public_health_center_lon": 126.9362749,
        "public_health_center_type": "보건소",
        "public_health_center_name": "서대문구보건소",
        "distance": 2105.471712333645,
        "walking_time": "약 32분"
      }
    ],
    "school": [
      {
        "school_lat": 37.563510635781,
        "school_lon": 126.919166278819,
        "school_type": "고등학교",
        "school_name": "경성고등학교",
        "distance": 645.6832299034216,
        "walking_time": "약 10분"
      },
      {
        "school_lat": 37.563510635781,
        "school_lon": 126.919166278819,
        "school_type": "고등학교",
        "school_name": "홍익디자인고등학교",
        "distance": 645.6832299034216,
        "walking_time": "약 10분"
      },
      {
        "school_lat": 37.563510635781,
        "school_lon": 126.919166278819,
        "school_type": "중학교",
        "school_name": "경성중학교",
        "distance": 645.6832299034216,
        "walking_time": "약 10분"
      },
      {
        "school_lat": 37.554881730967,
        "school_lon": 126.924382439365,
        "school_type": "초등학교",
        "school_name": "서울서교초등학교",
        "distance": 750.3742360143618,
        "walking_time": "약 12분"
      },
      {
        "school_lat": 37.5682162296874,
        "school_lon": 126.927137653568,
        "school_type": "중학교",
        "school_name": "서연중학교",
        "distance": 752.9523368444322,
        "walking_time": "약 12분"
      },
      {
        "school_lat": 37.5581430512569,
        "school_lon": 126.933480871339,
        "school_type": "초등학교",
        "school_name": "서울창서초등학교",
        "distance": 754.7962279939287,
        "walking_time": "약 12분"
      },
      {
        "school_lat": 37.5690459271047,
        "school_lon": 126.934142303217,
        "school_type": "초등학교",
        "school_name": "서울연희초등학교",
        "distance": 1101.8002920034305,
        "walking_time": "약 17분"
      },
      {
        "school_lat": 37.559665162458,
        "school_lon": 126.912928685692,
        "school_type": "고등학교",
        "school_name": "홍익대학교사범대학부속여자고등학교",
        "distance": 1173.5033593435353,
        "walking_time": "약 18분"
      },
      {
        "school_lat": 37.559665162458,
        "school_lon": 126.912928685692,
        "school_type": "중학교",
        "school_name": "홍익대학교사범대학부속여자중학교",
        "distance": 1173.5033593435353,
        "walking_time": "약 18분"
      },
      {
        "school_lat": 37.559665162458,
        "school_lon": 126.912928685692,
        "school_type": "초등학교",
        "school_name": "홍익대학교사범대학부속초등학교",
        "distance": 1173.5033593435353,
        "walking_time": "약 18분"
      }
    ],
    "self_laundromat": [
      {
        "self_laundromat_lat": 37.56138278,
        "self_laundromat_lon": 126.9266646,
        "self_laundromat_type": "셀프 빨래방",
        "self_laundromat_name": "호스텔클레오 코인런드리",
        "distance": 56.68824180400453,
        "walking_time": "약 1분"
      },
      {
        "self_laundromat_lat": 37.56138278,
        "self_laundromat_lon": 126.9266646,
        "self_laundromat_type": "셀프 빨래방",
        "self_laundromat_name": "호스텔클레오 코인런드리",
        "distance": 56.68824180400453,
        "walking_time": "약 1분"
      },
      {
        "self_laundromat_lat": 37.5617072,
        "self_laundromat_lon": 126.9279347,
        "self_laundromat_type": "셀프 빨래방",
        "self_laundromat_name": "코인워시24빨래터 연희점",
        "distance": 168.6604041271522,
        "walking_time": "약 3분"
      },
      {
        "self_laundromat_lat": 37.5617072,
        "self_laundromat_lon": 126.9279347,
        "self_laundromat_type": "셀프 빨래방",
        "self_laundromat_name": "코인워시24빨래터 연희점",
        "distance": 168.6604041271522,
        "walking_time": "약 3분"
      },
      {
        "self_laundromat_lat": 37.56362517,
        "self_laundromat_lon": 126.9243548,
        "self_laundromat_type": "셀프 빨래방",
        "self_laundromat_name": "런드리익스프레스샵 연남점",
        "distance": 278.9739623248776,
        "walking_time": "약 5분"
      },
      {
        "self_laundromat_lat": 37.56362517,
        "self_laundromat_lon": 126.9243548,
        "self_laundromat_type": "셀프 빨래방",
        "self_laundromat_name": "런드리익스프레스샵 연남점",
        "distance": 278.9739623248776,
        "walking_time": "약 5분"
      },
      {
        "self_laundromat_lat": 37.5590628,
        "self_laundromat_lon": 126.9284147,
        "self_laundromat_type": "셀프 빨래방",
        "self_laundromat_name": "워시엔조이 홍대역점",
        "distance": 342.57130436802044,
        "walking_time": "약 6분"
      },
      {
        "self_laundromat_lat": 37.5590628,
        "self_laundromat_lon": 126.9284147,
        "self_laundromat_type": "셀프 빨래방",
        "self_laundromat_name": "워시엔조이 홍대역점",
        "distance": 342.57130436802044,
        "walking_time": "약 6분"
      },
      {
        "self_laundromat_lat": 37.56312103,
        "self_laundromat_lon": 126.9312236,
        "self_laundromat_type": "셀프 빨래방",
        "self_laundromat_name": "워시스토리셀프빨래방 연희연세대점",
        "distance": 491.2101632386632,
        "walking_time": "약 8분"
      },
      {
        "self_laundromat_lat": 37.56312103,
        "self_laundromat_lon": 126.9312236,
        "self_laundromat_type": "셀프 빨래방",
        "self_laundromat_name": "워시스토리셀프빨래방 연희연세대점",
        "distance": 491.2101632386632,
        "walking_time": "약 8분"
      }
    ],
    "subway": [
      {
        "subway_lat": 37.5568904093718,
        "subway_lon": 126.923674307594,
        "subway_type": "지하철",
        "subway_name": "2호선-홍대입구역",
        "distance": 553.4277448354513,
        "walking_time": "약 9분"
      },
      {
        "subway_lat": 37.5553118177651,
        "subway_lon": 126.935539064832,
        "subway_type": "지하철",
        "subway_name": "2호선-신촌(지하)역",
        "distance": 1083.9199730840703,
        "walking_time": "약 17분"
      },
      {
        "subway_lat": 37.5560572923314,
        "subway_lon": 126.910033925408,
        "subway_type": "지하철",
        "subway_name": "6호선-망원역",
        "distance": 1535.1791804940424,
        "walking_time": "약 23분"
      },
      {
        "subway_lat": 37.5515008030203,
        "subway_lon": 126.91395024016,
        "subway_type": "지하철",
        "subway_name": "6호선-합정역",
        "distance": 1540.1417491776174,
        "walking_time": "약 23분"
      },
      {
        "subway_lat": 37.5501152068908,
        "subway_lon": 126.914638180431,
        "subway_type": "지하철",
        "subway_name": "2호선-합정역",
        "distance": 1616.4384165446315,
        "walking_time": "약 25분"
      }
    ],
    "supermarket": [
      {
        "supermarket_lat": 37.56237655,
        "supermarket_lon": 126.9267634,
        "supermarket_type": "마트",
        "supermarket_name": "동진시장",
        "distance": 116.42728580360144,
        "walking_time": "약 2분"
      },
      {
        "supermarket_lat": 37.56271074,
        "supermarket_lon": 126.921857,
        "supermarket_type": "마트",
        "supermarket_name": "홈플러스익스프레스 연남점",
        "distance": 392.3932578049044,
        "walking_time": "약 6분"
      },
      {
        "supermarket_lat": 37.55840604,
        "supermarket_lon": 126.928533,
        "supermarket_type": "마트",
        "supermarket_name": "롯데슈퍼 창천점",
        "distance": 408.3661308260308,
        "walking_time": "약 7분"
      },
      {
        "supermarket_lat": 37.55774581,
        "supermarket_lon": 126.9264983,
        "supermarket_type": "마트",
        "supermarket_name": "AK PLAZA 홍대",
        "distance": 419.5161899818707,
        "walking_time": "약 7분"
      },
      {
        "supermarket_lat": 37.55724678,
        "supermarket_lon": 126.9249862,
        "supermarket_type": "마트",
        "supermarket_name": "스타피카소 아울렛",
        "distance": 482.064414766592,
        "walking_time": "약 8분"
      },
      {
        "supermarket_lat": 37.55724678,
        "supermarket_lon": 126.9249862,
        "supermarket_type": "마트",
        "supermarket_name": "YZ Park 홍대점",
        "distance": 482.064414766592,
        "walking_time": "약 8분"
      },
      {
        "supermarket_lat": 37.55653513,
        "supermarket_lon": 126.9283908,
        "supermarket_type": "마트",
        "supermarket_name": "홍대복합역사 상업시설",
        "distance": 589.8112775373799,
        "walking_time": "약 9분"
      },
      {
        "supermarket_lat": 37.56715459,
        "supermarket_lon": 126.9296612,
        "supermarket_type": "마트",
        "supermarket_name": "연희슈퍼마켓",
        "distance": 705.0750031878066,
        "walking_time": "약 11분"
      },
      {
        "supermarket_lat": 37.55351606,
        "supermarket_lon": 126.9217154,
        "supermarket_type": "마트",
        "supermarket_name": "서교시장",
        "distance": 966.225791757641,
        "walking_time": "약 15분"
      },
      {
        "supermarket_lat": 37.55608306,
        "supermarket_lon": 126.9358449,
        "supermarket_type": "마트",
        "supermarket_name": "현대백화점 신촌점",
        "distance": 1053.5978369137508,
        "walking_time": "약 16분"
      }
    ],
    "theater": [
      {
        "theater_lat": 37.5576684824211,
        "theater_lon": 126.92589313527,
        "theater_type": "영화관",
        "theater_name": "CGV연남",
        "distance": 426.3504263386109,
        "walking_time": "약 7분"
      },
      {
        "theater_lat": 37.5572467836494,
        "theater_lon": 126.924986220455,
        "theater_type": "영화관",
        "theater_name": "독립영화전용관 인디스페이스",
        "distance": 482.0636694666891,
        "walking_time": "약 8분"
      },
      {
        "theater_lat": 37.5651674709792,
        "theater_lon": 126.930936157626,
        "theater_type": "영화관",
        "theater_name": "라이카시네마",
        "distance": 593.7433304196925,
        "walking_time": "약 9분"
      },
      {
        "theater_lat": 37.5564943733388,
        "theater_lon": 126.922631917858,
        "theater_type": "영화관",
        "theater_name": "CGV홍대",
        "distance": 632.552341351393,
        "walking_time": "약 10분"
      },
      {
        "theater_lat": 37.5560502523992,
        "theater_lon": 126.922054509333,
        "theater_type": "영화관",
        "theater_name": "메가박스중앙(주) 홍대지점",
        "distance": 700.5061848625895,
        "walking_time": "약 11분"
      },
      {
        "theater_lat": 37.5543349117636,
        "theater_lon": 126.921207395382,
        "theater_type": "영화관",
        "theater_name": "모노플렉스 앳 라이즈",
        "distance": 903.5106814964048,
        "walking_time": "약 14분"
      },
      {
        "theater_lat": 37.5509576951977,
        "theater_lon": 126.921063042067,
        "theater_type": "영화관",
        "theater_name": "KT&G 상상마당 cinema",
        "distance": 1251.7313071334534,
        "walking_time": "약 19분"
      },
      {
        "theater_lat": 37.5515008030203,
        "theater_lon": 126.91395024016,
        "theater_type": "영화관",
        "theater_name": "롯데시네마 합정",
        "distance": 1540.1417491776174,
        "walking_time": "약 23분"
      }
    ],
    "university": [
      {
        "university_lat": 37.5525245968145,
        "university_lon": 126.9250355422,
        "university_type": "대학교",
        "university_name": "홍익대학교",
        "distance": 1002.042234754576,
        "walking_time": "약 15분"
      }
    ]
  }
}