{
  "클러스터_위도": 37.554564000000006,
  "클러스터_경도": 127.131174,
  "클러스터_level": 4.0,
  "facilities": {
    "bus": [
      {
        "bus_lat": 37.55461384,
        "bus_lon": 127.1313205,
        "bus_type": "버스정류장",
        "bus_name": "신암중학교",
        "distance": 14.053214783474788,
        "walking_time": "약 1분"
      },
      {
        "bus_lat": 37.55483907,
        "bus_lon": 127.1313639,
        "bus_type": "버스정류장",
        "bus_name": "신암중학교",
        "distance": 34.86772434556382,
        "walking_time": "약 1분"
      },
      {
        "bus_lat": 37.55510202,
        "bus_lon": 127.1294698,
        "bus_type": "버스정류장",
        "bus_name": "고덕주유소.선사초등학교",
        "distance": 161.70253092304813,
        "walking_time": "약 3분"
      },
      {
        "bus_lat": 37.55505949,
        "bus_lon": 127.1291908,
        "bus_type": "버스정류장",
        "bus_name": "선사초등학교",
        "distance": 183.2995150764389,
        "walking_time": "약 3분"
      },
      {
        "bus_lat": 37.55352016,
        "bus_lon": 127.12887,
        "bus_type": "버스정류장",
        "bus_name": "암사삼성.현대아파트",
        "distance": 233.93076380781216,
        "walking_time": "약 4분"
      },
      {
        "bus_lat": 37.55359654,
        "bus_lon": 127.1286195,
        "bus_type": "버스정류장",
        "bus_name": "암사삼성.현대아파트",
        "distance": 249.56316160397552,
        "walking_time": "약 4분"
      },
      {
        "bus_lat": 37.5532319,
        "bus_lon": 127.1288157,
        "bus_type": "버스정류장",
        "bus_name": "삼성광나루아파트.암사동유적",
        "distance": 255.2631182024048,
        "walking_time": "약 4분"
      },
      {
        "bus_lat": 37.55338,
        "bus_lon": 127.128557,
        "bus_type": "버스정류장",
        "bus_name": "삼성광나루아파트.암사동유적",
        "distance": 265.6198223838583,
        "walking_time": "약 4분"
      },
      {
        "bus_lat": 37.556546,
        "bus_lon": 127.133034,
        "bus_type": "버스정류장",
        "bus_name": "신암중.선사고",
        "distance": 274.6894650444099,
        "walking_time": "약 5분"
      },
      {
        "bus_lat": 37.55726451,
        "bus_lon": 127.1300088,
        "bus_type": "버스정류장",
        "bus_name": "선사마을",
        "distance": 317.3639915507791,
        "walking_time": "약 5분"
      }
    ],
    "community_center": [
      {
        "community_center_lat": 37.5517063,
        "community_center_lon": 127.1272709,
        "community_center_type": "주민센터",
        "community_center_name": "암사2동 자치회관",
        "distance": 468.3583026333741,
        "walking_time": "약 7분"
      },
      {
        "community_center_lat": 37.55237984,
        "community_center_lon": 127.1357214,
        "community_center_type": "주민센터",
        "community_center_name": "암사1동 자치회관",
        "distance": 468.7017467923298,
        "walking_time": "약 7분"
      },
      {
        "community_center_lat": 37.55499636,
        "community_center_lon": 127.1407841,
        "community_center_type": "주민센터",
        "community_center_name": "암사3동 자치회관",
        "distance": 848.5136423539011,
        "walking_time": "약 13분"
      },
      {
        "community_center_lat": 37.54500381,
        "community_center_lon": 127.1368198,
        "community_center_type": "주민센터",
        "community_center_name": "천호1동 자치회관",
        "distance": 1173.7936755316766,
        "walking_time": "약 18분"
      },
      {
        "community_center_lat": 37.55126175,
        "community_center_lon": 127.1443451,
        "community_center_type": "주민센터",
        "community_center_name": "명일1동 자치회관",
        "distance": 1217.768207392314,
        "walking_time": "약 19분"
      },
      {
        "community_center_lat": 37.54345134,
        "community_center_lon": 127.1254311,
        "community_center_type": "주민센터",
        "community_center_name": "천호2동 자치회관",
        "distance": 1335.3693591407623,
        "walking_time": "약 20분"
      }
    ],
    "convenience_store": [
      {
        "convenience_store_lat": 37.55456208,
        "convenience_store_lon": 127.1311524,
        "convenience_store_type": "편의점",
        "convenience_store_name": "세븐일레븐 암사베네스트점",
        "distance": 1.916022588285784,
        "walking_time": "약 1분"
      },
      {
        "convenience_store_lat": 37.55366768,
        "convenience_store_lon": 127.1314589,
        "convenience_store_type": "편의점",
        "convenience_store_name": "CU 암사소망점",
        "distance": 102.78185567698311,
        "walking_time": "약 2분"
      },
      {
        "convenience_store_lat": 37.55506025,
        "convenience_store_lon": 127.1298437,
        "convenience_store_type": "편의점",
        "convenience_store_name": "GS25 G고덕점",
        "distance": 129.6025967514778,
        "walking_time": "약 2분"
      },
      {
        "convenience_store_lat": 37.55343515,
        "convenience_store_lon": 127.1301493,
        "convenience_store_type": "편의점",
        "convenience_store_name": "GS25 암사스타점",
        "distance": 154.64622252200553,
        "walking_time": "약 3분"
      },
      {
        "convenience_store_lat": 37.55601171,
        "convenience_store_lon": 127.1313063,
        "convenience_store_type": "편의점",
        "convenience_store_name": "CU 암사한강점",
        "distance": 161.39991148079454,
        "walking_time": "약 3분"
      },
      {
        "convenience_store_lat": 37.55409211,
        "convenience_store_lon": 127.1340573,
        "convenience_store_type": "편의점",
        "convenience_store_name": "CU 암사승리점",
        "distance": 259.5302223268521,
        "walking_time": "약 4분"
      },
      {
        "convenience_store_lat": 37.55219886,
        "convenience_store_lon": 127.1320396,
        "convenience_store_type": "편의점",
        "convenience_store_name": "GS25 강동암사점",
        "distance": 273.8378261412392,
        "walking_time": "약 5분"
      },
      {
        "convenience_store_lat": 37.55417146,
        "convenience_store_lon": 127.1272373,
        "convenience_store_type": "편의점",
        "convenience_store_name": "GS25 암사광나루점",
        "distance": 349.764536415418,
        "walking_time": "약 6분"
      },
      {
        "convenience_store_lat": 37.55563203,
        "convenience_store_lon": 127.1349792,
        "convenience_store_type": "편의점",
        "convenience_store_name": "CU 암사선사점",
        "distance": 355.83765961430925,
        "walking_time": "약 6분"
      },
      {
        "convenience_store_lat": 37.55258508,
        "convenience_store_lon": 127.1275649,
        "convenience_store_type": "편의점",
        "convenience_store_name": "세븐일레븐 암사현대점",
        "distance": 386.8368301829839,
        "walking_time": "약 6분"
      }
    ],
    "daycare": [
      {
        "daycare_lat": 37.55450633,
        "daycare_lon": 127.1305896,
        "daycare_type": "어린이집",
        "daycare_name": "리틀엔젤스어린이집",
        "distance": 51.91383921670134,
        "walking_time": "약 1분"
      },
      {
        "daycare_lat": 37.55407898,
        "daycare_lon": 127.1311333,
        "daycare_type": "어린이집",
        "daycare_name": "다기쁨어린이집",
        "distance": 54.05097127659837,
        "walking_time": "약 1분"
      },
      {
        "daycare_lat": 37.55452772743437,
        "daycare_lon": 127.13028354068544,
        "daycare_type": "어린이집",
        "daycare_name": "고우리어린이집",
        "distance": 78.59966441892654,
        "walking_time": "약 2분"
      },
      {
        "daycare_lat": 37.55370576,
        "daycare_lon": 127.1305175,
        "daycare_type": "어린이집",
        "daycare_name": "암사무지개어린이집",
        "distance": 111.6085300300876,
        "walking_time": "약 2분"
      },
      {
        "daycare_lat": 37.55407663,
        "daycare_lon": 127.1299881,
        "daycare_type": "어린이집",
        "daycare_name": "수피아어린이집",
        "distance": 117.75206334620144,
        "walking_time": "약 2분"
      },
      {
        "daycare_lat": 37.5538235,
        "daycare_lon": 127.1293888,
        "daycare_type": "어린이집",
        "daycare_name": "동제어린이집",
        "distance": 177.60992710446163,
        "walking_time": "약 3분"
      },
      {
        "daycare_lat": 37.55329241760021,
        "daycare_lon": 127.13274849672617,
        "daycare_type": "어린이집",
        "daycare_name": "아기사랑어린이집",
        "distance": 198.13297108446832,
        "walking_time": "약 3분"
      },
      {
        "daycare_lat": 37.55328721938008,
        "daycare_lon": 127.13276404838274,
        "daycare_type": "어린이집",
        "daycare_name": "지혜로운어린이집",
        "distance": 199.50665405375264,
        "walking_time": "약 3분"
      },
      {
        "daycare_lat": 37.55237114,
        "daycare_lon": 127.13154727519506,
        "daycare_type": "어린이집",
        "daycare_name": "또래또래어린이집",
        "distance": 246.0451963121269,
        "walking_time": "약 4분"
      },
      {
        "daycare_lat": 37.55493436,
        "daycare_lon": 127.134272,
        "daycare_type": "어린이집",
        "daycare_name": "성신어린이집",
        "distance": 276.18297384963125,
        "walking_time": "약 5분"
      }
    ],
    "education": [
      {
        "education_lat": 37.55283302,
        "education_lon": 127.1333655,
        "education_type": "도서관",
        "education_name": "강동구립암사도서관",
        "distance": 272.7063351771332,
        "walking_time": "약 5분"
      },
      {
        "education_lat": 37.55985381,
        "education_lon": 127.1308316,
        "education_type": "박물관/기념관",
        "education_name": "암사동선사유적박물관",
        "distance": 588.9738976940286,
        "walking_time": "약 9분"
      },
      {
        "education_lat": 37.55073399,
        "education_lon": 127.1248583,
        "education_type": "도서관",
        "education_name": "한국점자도서관",
        "distance": 700.9646736815614,
        "walking_time": "약 11분"
      },
      {
        "education_lat": 37.54394767,
        "education_lon": 127.1255384,
        "education_type": "도서관",
        "education_name": "강동구립해공도서관",
        "distance": 1280.7711515120975,
        "walking_time": "약 20분"
      },
      {
        "education_lat": 37.54052322,
        "education_lon": 127.1340815,
        "education_type": "도서관",
        "education_name": "강동구립천호도서관",
        "distance": 1582.1653907655664,
        "walking_time": "약 24분"
      }
    ],
    "fitness": [
      {
        "fitness_lat": 37.55455369,
        "fitness_lon": 127.1294512,
        "fitness_type": "운동시설",
        "fitness_name": "얼티밋 포텐셜짐",
        "distance": 151.8732279463774,
        "walking_time": "약 3분"
      },
      {
        "fitness_lat": 37.55366839,
        "fitness_lon": 127.1285288,
        "fitness_type": "운동시설",
        "fitness_name": "봄PT Studio",
        "distance": 253.55766124337129,
        "walking_time": "약 4분"
      },
      {
        "fitness_lat": 37.55309678,
        "fitness_lon": 127.1288704,
        "fitness_type": "운동시설",
        "fitness_name": "휘트니스J",
        "distance": 260.48880398876975,
        "walking_time": "약 4분"
      },
      {
        "fitness_lat": 37.55292798,
        "fitness_lon": 127.1288303,
        "fitness_type": "운동시설",
        "fitness_name": "크로스핏 쓰리박스",
        "distance": 275.2806741766635,
        "walking_time": "약 5분"
      },
      {
        "fitness_lat": 37.55178928,
        "fitness_lon": 127.1320273,
        "fitness_type": "운동시설",
        "fitness_name": "J Class Gym",
        "distance": 317.572095147138,
        "walking_time": "약 5분"
      },
      {
        "fitness_lat": 37.55207425,
        "fitness_lon": 127.1285347,
        "fitness_type": "운동시설",
        "fitness_name": "암사 라이크짐",
        "distance": 361.6314523732617,
        "walking_time": "약 6분"
      },
      {
        "fitness_lat": 37.55220582,
        "fitness_lon": 127.1279238,
        "fitness_type": "운동시설",
        "fitness_name": "운동하는날 암사점",
        "distance": 388.3944960513816,
        "walking_time": "약 6분"
      },
      {
        "fitness_lat": 37.55200429,
        "fitness_lon": 127.1347886,
        "fitness_type": "운동시설",
        "fitness_name": "고고 피트니스(암사)",
        "distance": 427.2522488556386,
        "walking_time": "약 7분"
      },
      {
        "fitness_lat": 37.55154543,
        "fitness_lon": 127.1277234,
        "fitness_type": "운동시설",
        "fitness_name": "Change Your Body (체인지 유어 바디)",
        "distance": 452.9779623247569,
        "walking_time": "약 7분"
      },
      {
        "fitness_lat": 37.55154543,
        "fitness_lon": 127.1277234,
        "fitness_type": "운동시설",
        "fitness_name": "에이블짐 암사역점",
        "distance": 452.9779623247569,
        "walking_time": "약 7분"
      }
    ],
    "gas_station": [
      {
        "gas_station_lat": 37.55506025,
        "gas_station_lon": 127.1298437,
        "gas_station_type": "주유소",
        "gas_station_name": "㈜삼표에너지 고덕주유소",
        "distance": 129.6025967514778,
        "walking_time": "약 2분"
      },
      {
        "gas_station_lat": 37.5504579,
        "gas_station_lon": 127.1382269,
        "gas_station_type": "주유소",
        "gas_station_name": "구천면주유소",
        "distance": 771.3833310109508,
        "walking_time": "약 12분"
      },
      {
        "gas_station_lat": 37.54517786,
        "gas_station_lon": 127.1294966,
        "gas_station_type": "주유소",
        "gas_station_name": "천호 현대주유소",
        "distance": 1054.115055543085,
        "walking_time": "약 16분"
      },
      {
        "gas_station_lat": 37.55447863,
        "gas_station_lon": 127.1440113,
        "gas_station_type": "주유소",
        "gas_station_name": "현대오일뱅크㈜직영 명일셀프주유소",
        "distance": 1131.6787871563952,
        "walking_time": "약 17분"
      },
      {
        "gas_station_lat": 37.5415768,
        "gas_station_lon": 127.124242,
        "gas_station_type": "주유소",
        "gas_station_name": "광성주유소",
        "distance": 1568.0976174133466,
        "walking_time": "약 24분"
      }
    ],
    "hospital": [
      {
        "hospital_lat": 37.55292798,
        "hospital_lon": 127.1288303,
        "hospital_type": "병원",
        "hospital_name": "강동성모내과의원",
        "distance": 275.2806741766635,
        "walking_time": "약 5분"
      },
      {
        "hospital_lat": 37.55230857,
        "hospital_lon": 127.1296316,
        "hospital_type": "병원",
        "hospital_name": "경희정성한의원",
        "distance": 285.2791312965783,
        "walking_time": "약 5분"
      },
      {
        "hospital_lat": 37.55272083,
        "hospital_lon": 127.1287525,
        "hospital_type": "병원",
        "hospital_name": "한솔정형외과의원",
        "distance": 295.9251217114314,
        "walking_time": "약 5분"
      },
      {
        "hospital_lat": 37.55181476,
        "hospital_lon": 127.1308319,
        "hospital_type": "병원",
        "hospital_name": "일월한의원",
        "distance": 307.18545735274523,
        "walking_time": "약 5분"
      },
      {
        "hospital_lat": 37.55455229,
        "hospital_lon": 127.1348906,
        "hospital_type": "병원",
        "hospital_name": "연세정형외과의원",
        "distance": 327.62968445356296,
        "walking_time": "약 5분"
      },
      {
        "hospital_lat": 37.55266263,
        "hospital_lon": 127.1281706,
        "hospital_type": "병원",
        "hospital_name": "백제한의원",
        "distance": 338.81781524197817,
        "walking_time": "약 6분"
      },
      {
        "hospital_lat": 37.55231052,
        "hospital_lon": 127.1285866,
        "hospital_type": "병원",
        "hospital_name": "서정민치과의원",
        "distance": 338.84013385637604,
        "walking_time": "약 6분"
      },
      {
        "hospital_lat": 37.55207425,
        "hospital_lon": 127.1285347,
        "hospital_type": "병원",
        "hospital_name": "닥터재일치과의원",
        "distance": 361.6314523732617,
        "walking_time": "약 6분"
      },
      {
        "hospital_lat": 37.55207425,
        "hospital_lon": 127.1285347,
        "hospital_type": "병원",
        "hospital_name": "참바른정형외과가정의학과의원",
        "distance": 361.6314523732617,
        "walking_time": "약 6분"
      },
      {
        "hospital_lat": 37.55190996,
        "hospital_lon": 127.1335997,
        "hospital_type": "병원",
        "hospital_name": "경희아침한의원",
        "distance": 364.4430408550977,
        "walking_time": "약 6분"
      }
    ],
    "music_room": [
      {
        "music_room_lat": 37.55380588,
        "music_room_lon": 127.1301731,
        "music_room_type": "노래방",
        "music_room_name": "팡팡노래연습장",
        "distance": 122.02970925355712,
        "walking_time": "약 2분"
      },
      {
        "music_room_lat": 37.55297962,
        "music_room_lon": 127.1298844,
        "music_room_type": "노래방",
        "music_room_name": "스타노래연습장",
        "distance": 209.6696131640061,
        "walking_time": "약 4분"
      },
      {
        "music_room_lat": 37.55352783,
        "music_room_lon": 127.1290262,
        "music_room_type": "노래방",
        "music_room_name": "아지트 노래연습장",
        "distance": 221.6362995566135,
        "walking_time": "약 4분"
      },
      {
        "music_room_lat": 37.55366839,
        "music_room_lon": 127.1285288,
        "music_room_type": "노래방",
        "music_room_name": "모모노래연습장",
        "distance": 253.55766124337129,
        "walking_time": "약 4분"
      },
      {
        "music_room_lat": 37.55254653,
        "music_room_lon": 127.1297093,
        "music_room_type": "노래방",
        "music_room_name": "수 노래연습장",
        "distance": 258.83707045226055,
        "walking_time": "약 4분"
      },
      {
        "music_room_lat": 37.55272083,
        "music_room_lon": 127.1287525,
        "music_room_type": "노래방",
        "music_room_name": "VIP노래연습장",
        "distance": 295.9251217114314,
        "walking_time": "약 5분"
      },
      {
        "music_room_lat": 37.55187386,
        "music_room_lon": 127.1324494,
        "music_room_type": "노래방",
        "music_room_name": "신바람노래연습장",
        "distance": 319.5615168354043,
        "walking_time": "약 5분"
      },
      {
        "music_room_lat": 37.55228391,
        "music_room_lon": 127.1288628,
        "music_room_type": "노래방",
        "music_room_name": "가시노래연습장",
        "distance": 325.25382303374374,
        "walking_time": "약 5분"
      },
      {
        "music_room_lat": 37.55231052,
        "music_room_lon": 127.1285866,
        "music_room_type": "노래방",
        "music_room_name": "엠제이노래연습장",
        "distance": 338.8401338563761,
        "walking_time": "약 6분"
      },
      {
        "music_room_lat": 37.55173129,
        "music_room_lon": 127.1337573,
        "music_room_type": "노래방",
        "music_room_name": "엣지노래연습장",
        "distance": 388.6829927007961,
        "walking_time": "약 6분"
      }
    ],
    "park": [
      {
        "park_lat": 37.5444741,
        "park_lon": 127.1263451,
        "park_type": "공원",
        "park_name": "천호근린공원",
        "distance": 1199.9955115131745,
        "walking_time": "약 18분"
      },
      {
        "park_lat": 37.5504807,
        "park_lon": 127.1471618,
        "park_type": "공원",
        "park_name": "샛마을근린공원",
        "distance": 1480.7313751162058,
        "walking_time": "약 23분"
      }
    ],
    "park_station": [
      {
        "park_station_lat": 37.55237587,
        "park_station_lon": 127.1350983,
        "park_station_type": "주차장",
        "park_station_name": "볕우물 공영주차장",
        "distance": 422.93580680890295,
        "walking_time": "약 7분"
      },
      {
        "park_station_lat": 37.55289,
        "park_station_lon": 127.1377215,
        "park_station_type": "주차장",
        "park_station_name": "암사1동 주차장",
        "distance": 606.4566538586782,
        "walking_time": "약 10분"
      },
      {
        "park_station_lat": 37.55503725,
        "park_station_lon": 127.1233953,
        "park_station_type": "주차장",
        "park_station_name": "광나루1,2주차장",
        "distance": 687.7248526125375,
        "walking_time": "약 11분"
      },
      {
        "park_station_lat": 37.56127024,
        "park_station_lon": 127.1308624,
        "park_station_type": "주차장",
        "park_station_name": "서울암사동유적 주차장",
        "distance": 746.205552612776,
        "walking_time": "약 12분"
      },
      {
        "park_station_lat": 37.55088357,
        "park_station_lon": 127.1428872,
        "park_station_type": "주차장",
        "park_station_name": "명일동 주차장",
        "distance": 1110.7141881126545,
        "walking_time": "약 17분"
      },
      {
        "park_station_lat": 37.54459923,
        "park_station_lon": 127.1366199,
        "park_station_type": "주차장",
        "park_station_name": "천호1동 주차장",
        "distance": 1207.57262158378,
        "walking_time": "약 19분"
      },
      {
        "park_station_lat": 37.54307844,
        "park_station_lon": 127.1321772,
        "park_station_type": "주차장",
        "park_station_name": "고분다리 전통시장 공영주차장",
        "distance": 1280.1946039555182,
        "walking_time": "약 20분"
      },
      {
        "park_station_lat": 37.54478899,
        "park_station_lon": 127.1218776,
        "park_station_type": "주차장",
        "park_station_name": "천호유수지 주차장",
        "distance": 1361.2816928630589,
        "walking_time": "약 21분"
      },
      {
        "park_station_lat": 37.54071205,
        "park_station_lon": 127.1341864,
        "park_station_type": "주차장",
        "park_station_name": "천호3동 제2공영주차장",
        "distance": 1562.9942710718644,
        "walking_time": "약 24분"
      },
      {
        "park_station_lat": 37.54033859,
        "park_station_lon": 127.1230043,
        "park_station_type": "주차장",
        "park_station_name": "천호2동노외주차장",
        "distance": 1738.0524415086484,
        "walking_time": "약 26분"
      }
    ],
    "pc_room": [
      {
        "pc_room_lat": 37.5526626328776,
        "pc_room_lon": 127.128170596073,
        "pc_room_type": "PC방",
        "pc_room_name": "해피데이 PC방",
        "distance": 338.8178860854931,
        "walking_time": "약 6분"
      },
      {
        "pc_room_lat": 37.5520742461293,
        "pc_room_lon": 127.128534669022,
        "pc_room_type": "PC방",
        "pc_room_name": "COMON PC PLEX (커먼피씨플렉스)",
        "distance": 361.6335388213507,
        "walking_time": "약 6분"
      },
      {
        "pc_room_lat": 37.5519705401703,
        "pc_room_lon": 127.133886998971,
        "pc_room_type": "PC방",
        "pc_room_name": "고스트 캐슬 PC방 암사점",
        "distance": 374.6477939467625,
        "walking_time": "약 6분"
      },
      {
        "pc_room_lat": 37.5515710167382,
        "pc_room_lon": 127.133428069413,
        "pc_room_type": "PC방",
        "pc_room_name": "놀 PC방",
        "distance": 387.6116107263522,
        "walking_time": "약 6분"
      },
      {
        "pc_room_lat": 37.5517312920762,
        "pc_room_lon": 127.133757333524,
        "pc_room_type": "PC방",
        "pc_room_name": "하루애 PC방",
        "distance": 388.6845371080212,
        "walking_time": "약 6분"
      },
      {
        "pc_room_lat": 37.5512721984493,
        "pc_room_lon": 127.129341077489,
        "pc_room_type": "PC방",
        "pc_room_name": "디저트 피앤씨",
        "distance": 400.10905758970654,
        "walking_time": "약 6분"
      },
      {
        "pc_room_lat": 37.554532736215,
        "pc_room_lon": 127.135832933352,
        "pc_room_type": "PC방",
        "pc_room_name": "제로백PC방 암사점",
        "distance": 410.7107816149707,
        "walking_time": "약 7분"
      },
      {
        "pc_room_lat": 37.5504972087947,
        "pc_room_lon": 127.129871391192,
        "pc_room_type": "PC방",
        "pc_room_name": "카시오페아 PC방",
        "distance": 466.5586382061426,
        "walking_time": "약 7분"
      },
      {
        "pc_room_lat": 37.5503999624409,
        "pc_room_lon": 127.127916738477,
        "pc_room_type": "PC방",
        "pc_room_name": "카이젠 암사점 PC방",
        "distance": 544.8290274018912,
        "walking_time": "약 9분"
      },
      {
        "pc_room_lat": 37.5501745970905,
        "pc_room_lon": 127.128189760726,
        "pc_room_type": "PC방",
        "pc_room_name": "물라PC",
        "distance": 554.4638403143828,
        "walking_time": "약 9분"
      }
    ],
    "police_office": [
      {
        "police_office_lat": 37.55499636,
        "police_office_lon": 127.1407841,
        "police_office_type": "경찰소",
        "police_office_name": "암사지구대",
        "distance": 848.5136423539011,
        "walking_time": "약 13분"
      },
      {
        "police_office_lat": 37.54257321,
        "police_office_lon": 127.1207773,
        "police_office_type": "경찰소",
        "police_office_name": "천호지구대",
        "distance": 1617.9693174820216,
        "walking_time": "약 25분"
      }
    ],
    "post_office": [
      {
        "post_office_lat": 37.55578284,
        "post_office_lon": 127.1375673,
        "post_office_type": "우체국",
        "post_office_name": "서울암사3동우편취급국",
        "distance": 579.6467514226501,
        "walking_time": "약 9분"
      },
      {
        "post_office_lat": 37.54537547,
        "post_office_lon": 127.1452012,
        "post_office_type": "우체국",
        "post_office_name": "서울명일삼익우편취급국",
        "distance": 1604.0899260035212,
        "walking_time": "약 24분"
      },
      {
        "post_office_lat": 37.54072766,
        "post_office_lon": 127.1254701,
        "post_office_type": "우체국",
        "post_office_name": "서울천호동우체국",
        "distance": 1618.62415753572,
        "walking_time": "약 25분"
      },
      {
        "post_office_lat": 37.5401163,
        "post_office_lon": 127.136473,
        "post_office_type": "우체국",
        "post_office_name": "서울천호3동우편취급국",
        "distance": 1673.057144772383,
        "walking_time": "약 25분"
      }
    ],
    "public_health_center": [
      {
        "public_health_center_lat": 37.54684651,
        "public_health_center_lon": 127.1337755,
        "public_health_center_type": "보건소",
        "public_health_center_name": "천호보건지소",
        "distance": 888.2629394371726,
        "walking_time": "약 14분"
      }
    ],
    "school": [
      {
        "school_lat": 37.5563616900258,
        "school_lon": 127.133604335628,
        "school_type": "중학교",
        "school_name": "신암중학교",
        "distance": 293.0106005701231,
        "walking_time": "약 5분"
      },
      {
        "school_lat": 37.5558469097869,
        "school_lon": 127.12819596827,
        "school_type": "초등학교",
        "school_name": "서울선사초등학교",
        "distance": 298.77372603849847,
        "walking_time": "약 5분"
      },
      {
        "school_lat": 37.5563158751807,
        "school_lon": 127.13577562154,
        "school_type": "고등학교",
        "school_name": "선사고등학교",
        "distance": 449.988810882053,
        "walking_time": "약 7분"
      },
      {
        "school_lat": 37.5553453453104,
        "school_lon": 127.138008577115,
        "school_type": "중학교",
        "school_name": "강일중학교",
        "distance": 608.7131740885139,
        "walking_time": "약 10분"
      },
      {
        "school_lat": 37.5500236743432,
        "school_lon": 127.124404356441,
        "school_type": "초등학교",
        "school_name": "서울신암초등학교",
        "distance": 781.6834986422471,
        "walking_time": "약 12분"
      },
      {
        "school_lat": 37.5477189664877,
        "school_lon": 127.136592330295,
        "school_type": "초등학교",
        "school_name": "서울천호초등학교",
        "distance": 898.6006039412722,
        "walking_time": "약 14분"
      },
      {
        "school_lat": 37.5463638024947,
        "school_lon": 127.130187177341,
        "school_type": "초등학교",
        "school_name": "서울강동초등학교",
        "distance": 915.9610210545188,
        "walking_time": "약 14분"
      },
      {
        "school_lat": 37.5458447527249,
        "school_lon": 127.128196604109,
        "school_type": "중학교",
        "school_name": "천일중학교",
        "distance": 1004.4380707195418,
        "walking_time": "약 15분"
      },
      {
        "school_lat": 37.554553599981,
        "school_lon": 127.142591145632,
        "school_type": "초등학교",
        "school_name": "서울명일초등학교",
        "distance": 1006.4490969548602,
        "walking_time": "약 16분"
      },
      {
        "school_lat": 37.5498545397762,
        "school_lon": 127.141541303447,
        "school_type": "고등학교",
        "school_name": "성덕고등학교",
        "distance": 1053.3273205448736,
        "walking_time": "약 16분"
      }
    ],
    "subway": [
      {
        "subway_lat": 37.5501403417224,
        "subway_lon": 127.127540246626,
        "subway_type": "지하철",
        "subway_name": "8호선-암사역",
        "distance": 586.9988731118914,
        "walking_time": "약 9분"
      },
      {
        "subway_lat": 37.5572689182034,
        "subway_lon": 127.137592807465,
        "subway_type": "지하철",
        "subway_name": "8호선-암사역사공원역",
        "distance": 640.7963160639775,
        "walking_time": "약 10분"
      },
      {
        "subway_lat": 37.551257212513,
        "subway_lon": 127.144000696892,
        "subway_type": "지하철",
        "subway_name": "5호선-명일역",
        "distance": 1189.0118818281826,
        "walking_time": "약 18분"
      },
      {
        "subway_lat": 37.5457314720664,
        "subway_lon": 127.142970847846,
        "subway_type": "지하철",
        "subway_name": "5호선-굽은다리(강동구민회관앞)역",
        "distance": 1430.435471323898,
        "walking_time": "약 22분"
      }
    ],
    "supermarket": [
      {
        "supermarket_lat": 37.55238065,
        "supermarket_lon": 127.1350988,
        "supermarket_type": "마트",
        "supermarket_name": "홈플러스(주) 익스프레스 암사점",
        "distance": 422.6663297595279,
        "walking_time": "약 7분"
      },
      {
        "supermarket_lat": 37.55525285,
        "supermarket_lon": 127.1403472,
        "supermarket_type": "마트",
        "supermarket_name": "(주)지에스리테일 암사캐슬점",
        "distance": 812.2551574014855,
        "walking_time": "약 13분"
      },
      {
        "supermarket_lat": 37.55109534,
        "supermarket_lon": 127.144778,
        "supermarket_type": "마트",
        "supermarket_name": "(주)지에스리테일 명일점",
        "distance": 1259.7497359210645,
        "walking_time": "약 19분"
      },
      {
        "supermarket_lat": 37.54571459,
        "supermarket_lon": 127.1422553,
        "supermarket_type": "마트",
        "supermarket_name": "홈플러스 강동점",
        "distance": 1386.582057633169,
        "walking_time": "약 21분"
      },
      {
        "supermarket_lat": 37.54159201,
        "supermarket_lon": 127.1255364,
        "supermarket_type": "마트",
        "supermarket_name": "이천일아울렛 천호점",
        "distance": 1525.645400260165,
        "walking_time": "약 23분"
      },
      {
        "supermarket_lat": 37.5520143,
        "supermarket_lon": 127.1494576,
        "supermarket_type": "마트",
        "supermarket_name": "(주)이마트에브리데이 명일동점",
        "distance": 1636.5154752657338,
        "walking_time": "약 25분"
      },
      {
        "supermarket_lat": 37.54260895,
        "supermarket_lon": 127.1436538,
        "supermarket_type": "마트",
        "supermarket_name": "동서울오네뜨상가",
        "distance": 1725.5763917757838,
        "walking_time": "약 26분"
      }
    ],
    "theater": [
      {
        "theater_lat": 37.5457145865749,
        "theater_lon": 127.14225531407,
        "theater_type": "영화관",
        "theater_name": "CGV 천호",
        "distance": 1386.583201820969,
        "walking_time": "약 21분"
      }
    ]
  }
}