{
  "클러스터_위도": 37.48497912581158,
  "클러스터_경도": 126.95434249873664,
  "클러스터_level": 4.0,
  "facilities": {
    "bus": [
      {
        "bus_lat": 37.48485803,
        "bus_lon": 126.9553358,
        "bus_type": "버스정류장",
        "bus_name": "봉원중학교.행운동우성아파트",
        "distance": 88.67196204541955,
        "walking_time": "약 2분"
      },
      {
        "bus_lat": 37.48580383,
        "bus_lon": 126.9546625,
        "bus_type": "버스정류장",
        "bus_name": "중앙동성당앞",
        "distance": 95.9512522788792,
        "walking_time": "약 2분"
      },
      {
        "bus_lat": 37.48592342,
        "bus_lon": 126.9551938,
        "bus_type": "버스정류장",
        "bus_name": "중앙동성당앞",
        "distance": 129.10162184993968,
        "walking_time": "약 2분"
      },
      {
        "bus_lat": 37.48490109,
        "bus_lon": 126.9559129,
        "bus_type": "버스정류장",
        "bus_name": "봉원중학교.행운동우성아파트",
        "distance": 138.8352416695357,
        "walking_time": "약 3분"
      },
      {
        "bus_lat": 37.48357602,
        "bus_lon": 126.9547331,
        "bus_type": "버스정류장",
        "bus_name": "관악프라자",
        "distance": 159.779601819933,
        "walking_time": "약 3분"
      },
      {
        "bus_lat": 37.48315455,
        "bus_lon": 126.9538387,
        "bus_type": "버스정류장",
        "bus_name": "봉천사거리.봉천중앙시장",
        "distance": 207.69645176069835,
        "walking_time": "약 4분"
      },
      {
        "bus_lat": 37.48288738,
        "bus_lon": 126.9542258,
        "bus_type": "버스정류장",
        "bus_name": "봉천사거리.봉천중앙시장",
        "distance": 232.8193389523773,
        "walking_time": "약 4분"
      },
      {
        "bus_lat": 37.48623951,
        "bus_lon": 126.9519972,
        "bus_type": "버스정류장",
        "bus_name": "관악동부센트레빌아파트앞",
        "distance": 249.92709715901503,
        "walking_time": "약 4분"
      },
      {
        "bus_lat": 37.48279341,
        "bus_lon": 126.9535723,
        "bus_type": "버스정류장",
        "bus_name": "봉천사거리.위버폴리스",
        "distance": 252.3631097785619,
        "walking_time": "약 4분"
      },
      {
        "bus_lat": 37.48246641,
        "bus_lon": 126.953836,
        "bus_type": "버스정류장",
        "bus_name": "서울대입구역2호선",
        "distance": 282.9529751917672,
        "walking_time": "약 5분"
      }
    ],
    "community_center": [
      {
        "community_center_lat": 37.48721429,
        "community_center_lon": 126.956633,
        "community_center_type": "주민센터",
        "community_center_name": "성현동 자치회관",
        "distance": 320.33635741764465,
        "walking_time": "약 5분"
      },
      {
        "community_center_lat": 37.48419282,
        "community_center_lon": 126.9497511,
        "community_center_type": "주민센터",
        "community_center_name": "중앙동 자치회관",
        "distance": 414.4499150298808,
        "walking_time": "약 7분"
      },
      {
        "community_center_lat": 37.48064257,
        "community_center_lon": 126.9570309,
        "community_center_type": "주민센터",
        "community_center_name": "행운동 자치회관",
        "distance": 537.393343423831,
        "walking_time": "약 9분"
      },
      {
        "community_center_lat": 37.49184717,
        "community_center_lon": 126.9586277,
        "community_center_type": "주민센터",
        "community_center_name": "청림동 자치회관",
        "distance": 852.1582879407407,
        "walking_time": "약 13분"
      },
      {
        "community_center_lat": 37.47649632,
        "community_center_lon": 126.9583326,
        "community_center_type": "주민센터",
        "community_center_name": "낙성대동 자치회관",
        "distance": 1006.8142477872568,
        "walking_time": "약 16분"
      },
      {
        "community_center_lat": 37.48533865,
        "community_center_lon": 126.9424717,
        "community_center_type": "주민센터",
        "community_center_name": "은천동 자치회관",
        "distance": 1048.175412585458,
        "walking_time": "약 16분"
      },
      {
        "community_center_lat": 37.48566276,
        "community_center_lon": 126.9669792,
        "community_center_type": "주민센터",
        "community_center_name": "사당5동 자치회관",
        "distance": 1117.5775910167977,
        "walking_time": "약 17분"
      },
      {
        "community_center_lat": 37.4791175,
        "community_center_lon": 126.9416407,
        "community_center_type": "주민센터",
        "community_center_name": "청룡동 자치회관",
        "distance": 1296.5237832664193,
        "walking_time": "약 20분"
      },
      {
        "community_center_lat": 37.49810133,
        "community_center_lon": 126.9530811,
        "community_center_type": "주민센터",
        "community_center_name": "상도1동 자치회관",
        "distance": 1463.3604685192545,
        "walking_time": "약 22분"
      },
      {
        "community_center_lat": 37.47509931,
        "community_center_lon": 126.9653243,
        "community_center_type": "주민센터",
        "community_center_name": "인헌동 자치회관",
        "distance": 1464.8981094935043,
        "walking_time": "약 22분"
      }
    ],
    "convenience_store": [
      {
        "convenience_store_lat": 37.48493918,
        "convenience_store_lon": 126.9552589,
        "convenience_store_type": "편의점",
        "convenience_store_name": "세븐일레븐 관악중앙점",
        "distance": 80.98023684078169,
        "walking_time": "약 2분"
      },
      {
        "convenience_store_lat": 37.48420474,
        "convenience_store_lon": 126.9535595,
        "convenience_store_type": "편의점",
        "convenience_store_name": "세븐일레븐 관악봉천중앙점",
        "distance": 110.3978846219186,
        "walking_time": "약 2분"
      },
      {
        "convenience_store_lat": 37.48447984,
        "convenience_store_lon": 126.9526945,
        "convenience_store_type": "편의점",
        "convenience_store_name": "GS25 봉천한가온점",
        "distance": 155.64901517142837,
        "walking_time": "약 3분"
      },
      {
        "convenience_store_lat": 37.48361316,
        "convenience_store_lon": 126.9538384,
        "convenience_store_type": "편의점",
        "convenience_store_name": "CU 관악중앙점",
        "distance": 158.26724363462895,
        "walking_time": "약 3분"
      },
      {
        "convenience_store_lat": 37.4865975,
        "convenience_store_lon": 126.9550625,
        "convenience_store_type": "편의점",
        "convenience_store_name": "CU 관악한샘점",
        "distance": 190.8393355672281,
        "walking_time": "약 3분"
      },
      {
        "convenience_store_lat": 37.48374545,
        "convenience_store_lon": 126.9560206,
        "convenience_store_type": "편의점",
        "convenience_store_name": "CU 관악딸부자점",
        "distance": 201.84652950696284,
        "walking_time": "약 4분"
      },
      {
        "convenience_store_lat": 37.48296173,
        "convenience_store_lon": 126.9542948,
        "convenience_store_type": "편의점",
        "convenience_store_name": "GS25 관악로점",
        "distance": 224.3636576425941,
        "walking_time": "약 4분"
      },
      {
        "convenience_store_lat": 37.48645106,
        "convenience_store_lon": 126.9524689,
        "convenience_store_type": "편의점",
        "convenience_store_name": "CU 관악프렌즈점",
        "distance": 232.6313013178581,
        "walking_time": "약 4분"
      },
      {
        "convenience_store_lat": 37.48483855,
        "convenience_store_lon": 126.9516219,
        "convenience_store_type": "편의점",
        "convenience_store_name": "CU 관악해피점",
        "distance": 240.55958403145905,
        "walking_time": "약 4분"
      },
      {
        "convenience_store_lat": 37.48702083,
        "convenience_store_lon": 126.956862,
        "convenience_store_type": "편의점",
        "convenience_store_name": "CU 관악브라운점",
        "distance": 317.74277469714576,
        "walking_time": "약 5분"
      }
    ],
    "daycare": [
      {
        "daycare_lat": 37.48527505,
        "daycare_lon": 126.9549675,
        "daycare_type": "어린이집",
        "daycare_name": "구립아람어린이집",
        "distance": 64.21765995886547,
        "walking_time": "약 1분"
      },
      {
        "daycare_lat": 37.48395781,
        "daycare_lon": 126.9528834,
        "daycare_type": "어린이집",
        "daycare_name": "예원어린이집",
        "distance": 171.6741938265992,
        "walking_time": "약 3분"
      },
      {
        "daycare_lat": 37.4868936,
        "daycare_lon": 126.955844,
        "daycare_type": "어린이집",
        "daycare_name": "구립성현햇살어린이집",
        "distance": 250.7378651877777,
        "walking_time": "약 4분"
      },
      {
        "daycare_lat": 37.48609033,
        "daycare_lon": 126.9570203,
        "daycare_type": "어린이집",
        "daycare_name": "24시간연세어린이집",
        "distance": 266.63095582969595,
        "walking_time": "약 4분"
      },
      {
        "daycare_lat": 37.48695355212353,
        "daycare_lon": 126.95246087086772,
        "daycare_type": "어린이집",
        "daycare_name": "자연어린이집",
        "distance": 275.2526144400616,
        "walking_time": "약 5분"
      },
      {
        "daycare_lat": 37.48323583,
        "daycare_lon": 126.9567416,
        "daycare_type": "어린이집",
        "daycare_name": "구립행운어린이집",
        "distance": 287.03170079164835,
        "walking_time": "약 5분"
      },
      {
        "daycare_lat": 37.48766348,
        "daycare_lon": 126.9561041,
        "daycare_type": "어린이집",
        "daycare_name": "동아어린이집",
        "distance": 336.53105813846645,
        "walking_time": "약 6분"
      },
      {
        "daycare_lat": 37.48608828025888,
        "daycare_lon": 126.95851063765704,
        "daycare_type": "어린이집",
        "daycare_name": "우성어린이집",
        "distance": 387.9003172874063,
        "walking_time": "약 6분"
      },
      {
        "daycare_lat": 37.48679781,
        "daycare_lon": 126.950584,
        "daycare_type": "어린이집",
        "daycare_name": "올리브어린이집",
        "distance": 388.4223318820096,
        "walking_time": "약 6분"
      },
      {
        "daycare_lat": 37.48654872347646,
        "daycare_lon": 126.95893321600684,
        "daycare_type": "어린이집",
        "daycare_name": "구립햇님몬테소리어린이집",
        "distance": 441.0571942546867,
        "walking_time": "약 7분"
      }
    ],
    "education": [
      {
        "education_lat": 37.48624318,
        "education_lon": 126.9596703,
        "education_type": "도서관",
        "education_name": "글빛정보도서관",
        "distance": 490.65573678216975,
        "walking_time": "약 8분"
      },
      {
        "education_lat": 37.48408142,
        "education_lon": 126.9673507,
        "education_type": "도서관",
        "education_name": "사당솔밭도서관",
        "distance": 1152.1128728122246,
        "walking_time": "약 18분"
      },
      {
        "education_lat": 37.49642897,
        "education_lon": 126.9551579,
        "education_type": "박물관/기념관",
        "education_name": "숭실대학교 한국기독교박물관",
        "distance": 1275.1955070343297,
        "walking_time": "약 20분"
      },
      {
        "education_lat": 37.48471669,
        "education_lon": 126.9696126,
        "education_type": "문화원",
        "education_name": "동작문화원 사당분원",
        "distance": 1347.6697643613643,
        "walking_time": "약 21분"
      },
      {
        "education_lat": 37.47197208,
        "education_lon": 126.959371,
        "education_type": "도서관",
        "education_name": "낙성대공원도서관",
        "distance": 1512.8540905895638,
        "walking_time": "약 23분"
      },
      {
        "education_lat": 37.49788488,
        "education_lon": 126.9474555,
        "education_type": "도서관",
        "education_name": "약수도서관",
        "distance": 1558.3908803871905,
        "walking_time": "약 24분"
      },
      {
        "education_lat": 37.49543351,
        "education_lon": 126.9405902,
        "education_type": "도서관",
        "education_name": "국사봉숲속작은도서관",
        "distance": 1680.3422570532446,
        "walking_time": "약 26분"
      },
      {
        "education_lat": 37.49925547,
        "education_lon": 126.9403722,
        "education_type": "공연장",
        "education_name": "상도어울마당 아트홀",
        "distance": 2009.773534618788,
        "walking_time": "약 30분"
      }
    ],
    "fitness": [
      {
        "fitness_lat": 37.48437871,
        "fitness_lon": 126.9546774,
        "fitness_type": "운동시설",
        "fitness_name": "블랙멀티짐(서울대점)",
        "distance": 73.01045390985408,
        "walking_time": "약 2분"
      },
      {
        "fitness_lat": 37.48307525,
        "fitness_lon": 126.9535878,
        "fitness_type": "운동시설",
        "fitness_name": "휘트니스피플 우먼 서울대점",
        "distance": 221.92761831906523,
        "walking_time": "약 4분"
      },
      {
        "fitness_lat": 37.48296173,
        "fitness_lon": 126.9542948,
        "fitness_type": "운동시설",
        "fitness_name": "시즌온짐",
        "distance": 224.3636576425941,
        "walking_time": "약 4분"
      },
      {
        "fitness_lat": 37.48621012,
        "fitness_lon": 126.95715,
        "fitness_type": "운동시설",
        "fitness_name": "SY GYM",
        "distance": 283.0190818504196,
        "walking_time": "약 5분"
      },
      {
        "fitness_lat": 37.48212418,
        "fitness_lon": 126.9539005,
        "fitness_type": "운동시설",
        "fitness_name": "에이치코어",
        "distance": 319.84217047933083,
        "walking_time": "약 5분"
      },
      {
        "fitness_lat": 37.48156228,
        "fitness_lon": 126.9533774,
        "fitness_type": "운동시설",
        "fitness_name": "프로틴짐PT 서울대입구점",
        "distance": 389.3623341671528,
        "walking_time": "약 6분"
      },
      {
        "fitness_lat": 37.48164117,
        "fitness_lon": 126.9521444,
        "fitness_type": "운동시설",
        "fitness_name": "피트니스 FM",
        "distance": 418.7841767957004,
        "walking_time": "약 7분"
      },
      {
        "fitness_lat": 37.48070592,
        "fitness_lon": 126.9534976,
        "fitness_type": "운동시설",
        "fitness_name": "런 서울대입구",
        "distance": 480.9717342595652,
        "walking_time": "약 8분"
      },
      {
        "fitness_lat": 37.480948,
        "fitness_lon": 126.9520838,
        "fitness_type": "운동시설",
        "fitness_name": "자마이카휘트니스",
        "distance": 490.55128174727565,
        "walking_time": "약 8분"
      },
      {
        "fitness_lat": 37.4805323,
        "fitness_lon": 126.9537435,
        "fitness_type": "운동시설",
        "fitness_name": "짐박스피트니스 서울대입구점",
        "distance": 497.281265019212,
        "walking_time": "약 8분"
      }
    ],
    "gas_station": [
      {
        "gas_station_lat": 37.4787977,
        "gas_station_lon": 126.9583966,
        "gas_station_type": "주유소",
        "gas_station_name": "SK에너지㈜ 신봉천주유소",
        "distance": 774.8607308541553,
        "walking_time": "약 12분"
      },
      {
        "gas_station_lat": 37.47909674,
        "gas_station_lon": 126.9591692,
        "gas_station_type": "주유소",
        "gas_station_name": "행운주유소",
        "distance": 780.5289752673715,
        "walking_time": "약 12분"
      },
      {
        "gas_station_lat": 37.48233196,
        "gas_station_lon": 126.9450663,
        "gas_station_type": "주유소",
        "gas_station_name": "시몬주유소",
        "distance": 869.8154413710324,
        "walking_time": "약 13분"
      },
      {
        "gas_station_lat": 37.49347189,
        "gas_station_lon": 126.9564351,
        "gas_station_type": "주유소",
        "gas_station_name": "현대오일뱅크㈜직영동작주유소",
        "distance": 962.2313910731629,
        "walking_time": "약 15분"
      },
      {
        "gas_station_lat": 37.47722191,
        "gas_station_lon": 126.9623899,
        "gas_station_type": "주유소",
        "gas_station_name": "서일석유㈜락성주유소",
        "distance": 1117.2517944564263,
        "walking_time": "약 17분"
      },
      {
        "gas_station_lat": 37.49493633,
        "gas_station_lon": 126.9614459,
        "gas_station_type": "주유소",
        "gas_station_name": "㈜창원이엔지",
        "distance": 1272.2633593135702,
        "walking_time": "약 19분"
      },
      {
        "gas_station_lat": 37.4983605,
        "gas_station_lon": 126.951389,
        "gas_station_type": "주유소",
        "gas_station_name": "살피재주유소",
        "distance": 1510.5855822155331,
        "walking_time": "약 23분"
      }
    ],
    "hospital": [
      {
        "hospital_lat": 37.48456268,
        "hospital_lon": 126.9548609,
        "hospital_type": "병원",
        "hospital_name": "이수백치과의원",
        "distance": 65.08879718942921,
        "walking_time": "약 1분"
      },
      {
        "hospital_lat": 37.48437871,
        "hospital_lon": 126.9546774,
        "hospital_type": "병원",
        "hospital_name": "관악오라클피부과의원",
        "distance": 73.01045390985408,
        "walking_time": "약 2분"
      },
      {
        "hospital_lat": 37.48437871,
        "hospital_lon": 126.9546774,
        "hospital_type": "병원",
        "hospital_name": "호내과의원",
        "distance": 73.01045390985408,
        "walking_time": "약 2분"
      },
      {
        "hospital_lat": 37.48534006,
        "hospital_lon": 126.9555618,
        "hospital_type": "병원",
        "hospital_name": "김상현이비인후과의원",
        "distance": 114.8265039638312,
        "walking_time": "약 2분"
      },
      {
        "hospital_lat": 37.48534006,
        "hospital_lon": 126.9555618,
        "hospital_type": "병원",
        "hospital_name": "김재준피부과의원",
        "distance": 114.8265039638312,
        "walking_time": "약 2분"
      },
      {
        "hospital_lat": 37.48549088,
        "hospital_lon": 126.9555401,
        "hospital_type": "병원",
        "hospital_name": "연세성모정형외과의원",
        "distance": 120.01735576041322,
        "walking_time": "약 2분"
      },
      {
        "hospital_lat": 37.48422112,
        "hospital_lon": 126.9553813,
        "hospital_type": "병원",
        "hospital_name": "삼성척척마취통증의학과의원",
        "distance": 124.52113307747032,
        "walking_time": "약 2분"
      },
      {
        "hospital_lat": 37.48409232,
        "hospital_lon": 126.9552464,
        "hospital_type": "병원",
        "hospital_name": "다올한의원",
        "distance": 126.8250511676877,
        "walking_time": "약 2분"
      },
      {
        "hospital_lat": 37.48409232,
        "hospital_lon": 126.9552464,
        "hospital_type": "병원",
        "hospital_name": "밀레니엄치과의원",
        "distance": 126.8250511676877,
        "walking_time": "약 2분"
      },
      {
        "hospital_lat": 37.48617476,
        "hospital_lon": 126.9541663,
        "hospital_type": "병원",
        "hospital_name": "경희한의원",
        "distance": 133.85436815146568,
        "walking_time": "약 2분"
      }
    ],
    "music_room": [
      {
        "music_room_lat": 37.48435768,
        "music_room_lon": 126.9555335,
        "music_room_type": "노래방",
        "music_room_name": "아담",
        "distance": 125.7716789523476,
        "walking_time": "약 2분"
      },
      {
        "music_room_lat": 37.48228296,
        "music_room_lon": 126.9537332,
        "music_room_type": "노래방",
        "music_room_name": "칸소네 노래연습장",
        "distance": 304.5823215772456,
        "walking_time": "약 5분"
      },
      {
        "music_room_lat": 37.48212418,
        "music_room_lon": 126.9539005,
        "music_room_type": "노래방",
        "music_room_name": "둥지",
        "distance": 319.84217047933083,
        "walking_time": "약 5분"
      },
      {
        "music_room_lat": 37.48244124,
        "music_room_lon": 126.952524,
        "music_room_type": "노래방",
        "music_room_name": "팡팡 노래연습장",
        "distance": 324.62807110907045,
        "walking_time": "약 5분"
      },
      {
        "music_room_lat": 37.48254533,
        "music_room_lon": 126.9514723,
        "music_room_type": "노래방",
        "music_room_name": "전국",
        "distance": 370.6432040870848,
        "walking_time": "약 6분"
      },
      {
        "music_room_lat": 37.48663798,
        "music_room_lon": 126.9588338,
        "music_room_type": "노래방",
        "music_room_name": "쎄븐",
        "distance": 437.1097571198943,
        "walking_time": "약 7분"
      },
      {
        "music_room_lat": 37.48792532,
        "music_room_lon": 126.9582746,
        "music_room_type": "노래방",
        "music_room_name": "스타",
        "distance": 477.16950354514296,
        "walking_time": "약 8분"
      },
      {
        "music_room_lat": 37.480948,
        "music_room_lon": 126.9520838,
        "music_room_type": "노래방",
        "music_room_name": "오투 노래연습장 2",
        "distance": 490.55128174727565,
        "walking_time": "약 8분"
      },
      {
        "music_room_lat": 37.48067895,
        "music_room_lon": 126.952974,
        "music_room_type": "노래방",
        "music_room_name": "스타버스코인 노래연습장",
        "distance": 493.1693087196488,
        "walking_time": "약 8분"
      },
      {
        "music_room_lat": 37.48070831,
        "music_room_lon": 126.9522549,
        "music_room_type": "노래방",
        "music_room_name": "슈가",
        "distance": 509.36668695885385,
        "walking_time": "약 8분"
      }
    ],
    "park": [
      {
        "park_lat": 37.4845836,
        "park_lon": 126.9640735,
        "park_type": "공원",
        "park_name": "까치산근린공원",
        "distance": 859.7390304312753,
        "walking_time": "약 13분"
      }
    ],
    "park_station": [
      {
        "park_station_lat": 37.47992274,
        "park_station_lon": 126.9606218,
        "park_station_type": "주차장",
        "park_station_name": "행운동제1공영주차장",
        "distance": 789.3749916619862,
        "walking_time": "약 12분"
      },
      {
        "park_station_lat": 37.47785677,
        "park_station_lon": 126.9588859,
        "park_station_type": "주차장",
        "park_station_name": "낙성대제1공영",
        "distance": 887.6601309002012,
        "walking_time": "약 14분"
      },
      {
        "park_station_lat": 37.47480251,
        "park_station_lon": 126.9598846,
        "park_station_type": "주차장",
        "park_station_name": "낙성대제2공영",
        "distance": 1232.7408933821257,
        "walking_time": "약 19분"
      },
      {
        "park_station_lat": 37.49727728,
        "park_station_lon": 126.9540285,
        "park_station_type": "주차장",
        "park_station_name": "살피재 공유주차장",
        "distance": 1367.772936767538,
        "walking_time": "약 21분"
      },
      {
        "park_station_lat": 37.49727728,
        "park_station_lon": 126.9540285,
        "park_station_type": "주차장",
        "park_station_name": "살피재 공유주차장",
        "distance": 1367.772936767538,
        "walking_time": "약 21분"
      }
    ],
    "pc_room": [
      {
        "pc_room_lat": 37.4837665956628,
        "pc_room_lon": 126.953823855277,
        "pc_room_type": "PC방",
        "pc_room_name": "에이스피씨",
        "distance": 142.38186856721188,
        "walking_time": "약 3분"
      },
      {
        "pc_room_lat": 37.4830752493665,
        "pc_room_lon": 126.953587750655,
        "pc_room_type": "PC방",
        "pc_room_name": "3POP 피시방",
        "distance": 221.9289920077758,
        "walking_time": "약 4분"
      },
      {
        "pc_room_lat": 37.482562858333,
        "pc_room_lon": 126.951378697167,
        "pc_room_type": "PC방",
        "pc_room_name": "매니아 PC",
        "distance": 374.93571085090514,
        "walking_time": "약 6분"
      },
      {
        "pc_room_lat": 37.4818953761288,
        "pc_room_lon": 126.952225627266,
        "pc_room_type": "PC방",
        "pc_room_name": "에이스PC",
        "distance": 390.47058315408174,
        "walking_time": "약 6분"
      },
      {
        "pc_room_lat": 37.4866379787681,
        "pc_room_lon": 126.958833779086,
        "pc_room_type": "PC방",
        "pc_room_name": "스타덤PC관악점",
        "distance": 437.10802635480366,
        "walking_time": "약 7분"
      },
      {
        "pc_room_lat": 37.4879253230576,
        "pc_room_lon": 126.958274612985,
        "pc_room_type": "PC방",
        "pc_room_name": "녹스PC방 관악점",
        "distance": 477.17056997984815,
        "walking_time": "약 8분"
      },
      {
        "pc_room_lat": 37.4806186063628,
        "pc_room_lon": 126.951245075921,
        "pc_room_type": "PC방",
        "pc_room_name": "맥스피드PC 서울대입구역점",
        "distance": 556.5912498545804,
        "walking_time": "약 9분"
      },
      {
        "pc_room_lat": 37.4798753308636,
        "pc_room_lon": 126.952044774856,
        "pc_room_type": "PC방",
        "pc_room_name": "긱스타 PC방(Geek Star PC cafe)",
        "distance": 602.6444605273066,
        "walking_time": "약 9분"
      },
      {
        "pc_room_lat": 37.479783254518,
        "pc_room_lon": 126.951181288015,
        "pc_room_type": "PC방",
        "pc_room_name": "왕바다PC랜드",
        "distance": 641.5657736098633,
        "walking_time": "약 10분"
      },
      {
        "pc_room_lat": 37.4869996530658,
        "pc_room_lon": 126.947493902254,
        "pc_room_type": "PC방",
        "pc_room_name": "레드포스PC아레나 봉천점",
        "distance": 644.6906489477358,
        "walking_time": "약 10분"
      }
    ],
    "police_office": [
      {
        "police_office_lat": 37.47832691,
        "police_office_lon": 126.9575957,
        "police_office_type": "경찰소",
        "police_office_name": "낙성대지구대",
        "distance": 793.4401999865469,
        "walking_time": "약 12분"
      },
      {
        "police_office_lat": 37.48735272,
        "police_office_lon": 126.9454289,
        "police_office_type": "경찰소",
        "police_office_name": "구암지구대",
        "distance": 829.5803020306341,
        "walking_time": "약 13분"
      }
    ],
    "post_office": [
      {
        "post_office_lat": 37.48677759,
        "post_office_lon": 126.9567026,
        "post_office_type": "우체국",
        "post_office_name": "서울봉천동우체국",
        "distance": 288.7143571119878,
        "walking_time": "약 5분"
      },
      {
        "post_office_lat": 37.48084938,
        "post_office_lon": 126.9547091,
        "post_office_type": "우체국",
        "post_office_name": "서울행운동우체국",
        "distance": 460.3447080112679,
        "walking_time": "약 7분"
      },
      {
        "post_office_lat": 37.47864491,
        "post_office_lon": 126.947376,
        "post_office_type": "우체국",
        "post_office_name": "서울청룡동우편취급국",
        "distance": 934.8560186401264,
        "walking_time": "약 14분"
      },
      {
        "post_office_lat": 37.48582895,
        "post_office_lon": 126.9416713,
        "post_office_type": "우체국",
        "post_office_name": "서울은천동우체국",
        "distance": 1122.018217870591,
        "walking_time": "약 17분"
      },
      {
        "post_office_lat": 37.48227075,
        "post_office_lon": 126.9412539,
        "post_office_type": "우체국",
        "post_office_name": "서울봉천역전우편취급국",
        "distance": 1193.508687932683,
        "walking_time": "약 18분"
      },
      {
        "post_office_lat": 37.47601646,
        "post_office_lon": 126.9630057,
        "post_office_type": "우체국",
        "post_office_name": "서울낙성대우편취급국",
        "distance": 1256.0199164080614,
        "walking_time": "약 19분"
      },
      {
        "post_office_lat": 37.49642897,
        "post_office_lon": 126.9551579,
        "post_office_type": "우체국",
        "post_office_name": "숭실대학교우편취급국",
        "distance": 1275.1955070343297,
        "walking_time": "약 20분"
      },
      {
        "post_office_lat": 37.49941236,
        "post_office_lon": 126.9437362,
        "post_office_type": "우체국",
        "post_office_name": "서울동작약수우편취급국",
        "distance": 1857.7793132941529,
        "walking_time": "약 28분"
      }
    ],
    "public_health_center": [
      {
        "public_health_center_lat": 37.47821067,
        "public_health_center_lon": 126.9515012,
        "public_health_center_type": "보건소",
        "public_health_center_name": "관악구보건소",
        "distance": 793.278262832036,
        "walking_time": "약 12분"
      }
    ],
    "school": [
      {
        "school_lat": 37.4832732140812,
        "school_lon": 126.95820924848,
        "school_type": "초등학교",
        "school_name": "서울봉천초등학교",
        "distance": 390.370403593193,
        "walking_time": "약 6분"
      },
      {
        "school_lat": 37.4841027415012,
        "school_lon": 126.958890911497,
        "school_type": "중학교",
        "school_name": "봉원중학교",
        "distance": 412.9915177411533,
        "walking_time": "약 7분"
      },
      {
        "school_lat": 37.4813047920283,
        "school_lon": 126.955766635019,
        "school_type": "초등학교",
        "school_name": "서울원당초등학교",
        "distance": 427.4552087590733,
        "walking_time": "약 7분"
      },
      {
        "school_lat": 37.4855779476851,
        "school_lon": 126.949130876206,
        "school_type": "초등학교",
        "school_name": "서울신봉초등학교",
        "distance": 464.6394939407292,
        "walking_time": "약 7분"
      },
      {
        "school_lat": 37.4912022088395,
        "school_lon": 126.955347165898,
        "school_type": "초등학교",
        "school_name": "서울봉현초등학교",
        "distance": 697.6297684385057,
        "walking_time": "약 11분"
      },
      {
        "school_lat": 37.4812582784976,
        "school_lon": 126.961912338875,
        "school_type": "중학교",
        "school_name": "관악중학교",
        "distance": 785.698487319418,
        "walking_time": "약 12분"
      },
      {
        "school_lat": 37.4892174749954,
        "school_lon": 126.946271723126,
        "school_type": "초등학교",
        "school_name": "서울구암초등학교",
        "distance": 853.9298521480027,
        "walking_time": "약 13분"
      },
      {
        "school_lat": 37.4909219003444,
        "school_lon": 126.961475595626,
        "school_type": "중학교",
        "school_name": "상도중학교",
        "distance": 912.5570226191564,
        "walking_time": "약 14분"
      },
      {
        "school_lat": 37.4925540129161,
        "school_lon": 126.950219161074,
        "school_type": "고등학교",
        "school_name": "구암고등학교",
        "distance": 917.498310454096,
        "walking_time": "약 14분"
      },
      {
        "school_lat": 37.4767252713626,
        "school_lon": 126.951284574125,
        "school_type": "초등학교",
        "school_name": "서울청룡초등학교",
        "distance": 956.6297927087312,
        "walking_time": "약 15분"
      }
    ],
    "subway": [
      {
        "subway_lat": 37.4811526631844,
        "subway_lon": 126.952645104944,
        "subway_type": "지하철",
        "subway_name": "2호선-서울대입구(관악구청)역",
        "distance": 451.07410234606033,
        "walking_time": "약 7분"
      },
      {
        "subway_lat": 37.4825562153548,
        "subway_lon": 126.941495272047,
        "subway_type": "지하철",
        "subway_name": "2호선-봉천역",
        "distance": 1165.164073442305,
        "walking_time": "약 18분"
      },
      {
        "subway_lat": 37.4770651843603,
        "subway_lon": 126.963409959152,
        "subway_type": "지하철",
        "subway_name": "2호선-낙성대(강감찬)역",
        "distance": 1189.349644901885,
        "walking_time": "약 18분"
      },
      {
        "subway_lat": 37.4958143308836,
        "subway_lon": 126.954060246067,
        "subway_type": "지하철",
        "subway_name": "7호선-숭실대입구(살피재)역",
        "distance": 1205.077164440259,
        "walking_time": "약 18분"
      }
    ],
    "supermarket": [
      {
        "supermarket_lat": 37.48362314,
        "supermarket_lon": 126.9551835,
        "supermarket_type": "마트",
        "supermarket_name": "관악프라자",
        "distance": 168.04991318308078,
        "walking_time": "약 3분"
      },
      {
        "supermarket_lat": 37.480948,
        "supermarket_lon": 126.9520838,
        "supermarket_type": "마트",
        "supermarket_name": "라붐아울렛",
        "distance": 490.55128174727565,
        "walking_time": "약 8분"
      },
      {
        "supermarket_lat": 37.48756216,
        "supermarket_lon": 126.9599377,
        "supermarket_type": "마트",
        "supermarket_name": "지에스 더 프레시(GS THE FRESH) 관악청림점",
        "distance": 571.1543419384701,
        "walking_time": "약 9분"
      },
      {
        "supermarket_lat": 37.48865052,
        "supermarket_lon": 126.959506,
        "supermarket_type": "마트",
        "supermarket_name": "관악쇼핑",
        "distance": 611.7360137384643,
        "walking_time": "약 10분"
      },
      {
        "supermarket_lat": 37.48615809,
        "supermarket_lon": 126.9472386,
        "supermarket_type": "마트",
        "supermarket_name": "홈플러스 익스프레스 봉천점",
        "distance": 640.3671569695275,
        "walking_time": "약 10분"
      },
      {
        "supermarket_lat": 37.48658496,
        "supermarket_lon": 126.9465719,
        "supermarket_type": "마트",
        "supermarket_name": "봉천현대시장",
        "distance": 708.4985282946343,
        "walking_time": "약 11분"
      },
      {
        "supermarket_lat": 37.47933913,
        "supermarket_lon": 126.9490155,
        "supermarket_type": "마트",
        "supermarket_name": "(주)지에스리테일 관악점",
        "distance": 783.7372125049793,
        "walking_time": "약 12분"
      },
      {
        "supermarket_lat": 37.49205505,
        "supermarket_lon": 126.9589248,
        "supermarket_type": "마트",
        "supermarket_name": "관악현대상가",
        "distance": 884.6028829480351,
        "walking_time": "약 14분"
      },
      {
        "supermarket_lat": 37.47697388,
        "supermarket_lon": 126.961321,
        "supermarket_type": "마트",
        "supermarket_name": "(주)지에스리테일 낙성대점",
        "distance": 1082.375629550488,
        "walking_time": "약 17분"
      },
      {
        "supermarket_lat": 37.48629672,
        "supermarket_lon": 126.9412497,
        "supermarket_type": "마트",
        "supermarket_name": "(주)이마트에브리데이 봉천동점",
        "distance": 1164.4811642460566,
        "walking_time": "약 18분"
      }
    ],
    "theater": [
      {
        "theater_lat": 37.4809479979455,
        "theater_lon": 126.952083773717,
        "theater_type": "영화관",
        "theater_name": "롯데시네마 서울대입구",
        "distance": 490.5524327131832,
        "walking_time": "약 8분"
      }
    ],
    "university": [
      {
        "university_lat": 37.4964019323152,
        "university_lon": 126.956588222367,
        "university_type": "대학교",
        "university_name": "숭실대학교",
        "distance": 1285.5190835679407,
        "walking_time": "약 20분"
      },
      {
        "university_lat": 37.4908791135567,
        "university_lon": 126.967182104111,
        "university_type": "대학교",
        "university_name": "총신대학교",
        "distance": 1309.1048232393323,
        "walking_time": "약 20분"
      }
    ]
  }
}