{
  "클러스터_위도": 37.50494716789619,
  "클러스터_경도": 127.08913350007796,
  "클러스터_level": 4.0,
  "facilities": {
    "bus": [
      {
        "bus_lat": 37.50393207,
        "bus_lon": 127.0889638,
        "bus_type": "버스정류장",
        "bus_name": "삼전역",
        "distance": 113.86205162614618,
        "walking_time": "약 2분"
      },
      {
        "bus_lat": 37.50390498,
        "bus_lon": 127.0890344,
        "bus_type": "버스정류장",
        "bus_name": "삼전역",
        "distance": 116.21525399317852,
        "walking_time": "약 2분"
      },
      {
        "bus_lat": 37.50395426,
        "bus_lon": 127.0897903,
        "bus_type": "버스정류장",
        "bus_name": "삼전역",
        "distance": 124.68478386968366,
        "walking_time": "약 2분"
      },
      {
        "bus_lat": 37.50628078,
        "bus_lon": 127.0898346,
        "bus_type": "버스정류장",
        "bus_name": "삼전삼밭나루공원입구",
        "distance": 160.67014224232125,
        "walking_time": "약 3분"
      },
      {
        "bus_lat": 37.506535,
        "bus_lon": 127.089623,
        "bus_type": "버스정류장",
        "bus_name": "영빌딩앞",
        "distance": 181.7620624942716,
        "walking_time": "약 3분"
      },
      {
        "bus_lat": 37.50375774,
        "bus_lon": 127.0872895,
        "bus_type": "버스정류장",
        "bus_name": "삼전역.잠실현대아파트",
        "distance": 209.64573781948505,
        "walking_time": "약 4분"
      },
      {
        "bus_lat": 37.50342636,
        "bus_lon": 127.0874732,
        "bus_type": "버스정류장",
        "bus_name": "삼전역.잠실현대아파트",
        "distance": 223.7116488097846,
        "walking_time": "약 4분"
      },
      {
        "bus_lat": 37.503537,
        "bus_lon": 127.091536,
        "bus_type": "버스정류장",
        "bus_name": "삼전동주민센터",
        "distance": 263.63086385446314,
        "walking_time": "약 4분"
      },
      {
        "bus_lat": 37.50758601,
        "bus_lon": 127.0893716,
        "bus_type": "버스정류장",
        "bus_name": "잠실학원사거리.잠실트리지움남문",
        "distance": 294.17655221490764,
        "walking_time": "약 5분"
      },
      {
        "bus_lat": 37.50768266,
        "bus_lon": 127.0902574,
        "bus_type": "버스정류장",
        "bus_name": "잠실학원사거리.잠실트리지움남문",
        "distance": 319.9211930524507,
        "walking_time": "약 5분"
      }
    ],
    "community_center": [
      {
        "community_center_lat": 37.50272901,
        "community_center_lon": 127.0925211,
        "community_center_type": "주민센터",
        "community_center_name": "삼전동 자치회관",
        "distance": 387.4705346404044,
        "walking_time": "약 6분"
      },
      {
        "community_center_lat": 37.50615944,
        "community_center_lon": 127.0842989,
        "community_center_type": "주민센터",
        "community_center_name": "잠실본동 자치회관",
        "distance": 447.25841509321305,
        "walking_time": "약 7분"
      },
      {
        "community_center_lat": 37.51189159,
        "community_center_lon": 127.0885409,
        "community_center_type": "주민센터",
        "community_center_name": "잠실2동 자치회관",
        "distance": 773.9516871297794,
        "walking_time": "약 12분"
      },
      {
        "community_center_lat": 37.51329966,
        "community_center_lon": 127.0943752,
        "community_center_type": "주민센터",
        "community_center_name": "잠실3동 자치회관",
        "distance": 1037.47421693476,
        "walking_time": "약 16분"
      },
      {
        "community_center_lat": 37.50865223,
        "community_center_lon": 127.0765197,
        "community_center_type": "주민센터",
        "community_center_name": "잠실7동 자치회관",
        "distance": 1186.472823324529,
        "walking_time": "약 18분"
      },
      {
        "community_center_lat": 37.49265809,
        "community_center_lon": 127.0755825,
        "community_center_type": "주민센터",
        "community_center_name": "일원1동 주민자치센터",
        "distance": 1815.5900051692915,
        "walking_time": "약 28분"
      }
    ],
    "convenience_store": [
      {
        "convenience_store_lat": 37.50498766,
        "convenience_store_lon": 127.0899474,
        "convenience_store_type": "편의점",
        "convenience_store_name": "GS25 삼전프라자점",
        "distance": 71.93596987710676,
        "walking_time": "약 2분"
      },
      {
        "convenience_store_lat": 37.505188,
        "convenience_store_lon": 127.0878479,
        "convenience_store_type": "편의점",
        "convenience_store_name": "GS25 잠실화영점",
        "distance": 116.52286832308724,
        "walking_time": "약 2분"
      },
      {
        "convenience_store_lat": 37.50332078,
        "convenience_store_lon": 127.0893782,
        "convenience_store_type": "편의점",
        "convenience_store_name": "CU 삼전희망점",
        "distance": 182.1297284222265,
        "walking_time": "약 3분"
      },
      {
        "convenience_store_lat": 37.50295282,
        "convenience_store_lon": 127.0892495,
        "convenience_store_type": "편의점",
        "convenience_store_name": "미니스톱 삼전점",
        "distance": 221.99732119688164,
        "walking_time": "약 4분"
      },
      {
        "convenience_store_lat": 37.50639668,
        "convenience_store_lon": 127.0872611,
        "convenience_store_type": "편의점",
        "convenience_store_name": "세븐일레븐 잠실고분로점",
        "distance": 230.7766425772067,
        "walking_time": "약 4분"
      },
      {
        "convenience_store_lat": 37.50555706,
        "convenience_store_lon": 127.0866244,
        "convenience_store_type": "편의점",
        "convenience_store_name": "CU 잠실무지개점",
        "distance": 231.48612467038168,
        "walking_time": "약 4분"
      },
      {
        "convenience_store_lat": 37.50328836,
        "convenience_store_lon": 127.0907823,
        "convenience_store_type": "편의점",
        "convenience_store_name": "세븐일레븐 삼전최고점",
        "distance": 234.89597614733825,
        "walking_time": "약 4분"
      },
      {
        "convenience_store_lat": 37.50297628,
        "convenience_store_lon": 127.0877584,
        "convenience_store_type": "편의점",
        "convenience_store_name": "세븐일레븐 삼전으뜸점",
        "distance": 250.48303900755195,
        "walking_time": "약 4분"
      },
      {
        "convenience_store_lat": 37.50654113,
        "convenience_store_lon": 127.0914089,
        "convenience_store_type": "편의점",
        "convenience_store_name": "GS25 삼전나루점",
        "distance": 267.7685317698839,
        "walking_time": "약 4분"
      },
      {
        "convenience_store_lat": 37.50536563,
        "convenience_store_lon": 127.0921673,
        "convenience_store_type": "편의점",
        "convenience_store_name": "세븐일레븐 삼전중앙점",
        "distance": 271.62895364441863,
        "walking_time": "약 5분"
      }
    ],
    "daycare": [
      {
        "daycare_lat": 37.50441158,
        "daycare_lon": 127.0899326,
        "daycare_type": "어린이집",
        "daycare_name": "꿀벌어린이집",
        "distance": 92.27974411058992,
        "walking_time": "약 2분"
      },
      {
        "daycare_lat": 37.50563875,
        "daycare_lon": 127.0875877,
        "daycare_type": "어린이집",
        "daycare_name": "초원어린이집",
        "distance": 156.54592279163427,
        "walking_time": "약 3분"
      },
      {
        "daycare_lat": 37.50340275,
        "daycare_lon": 127.0889258,
        "daycare_type": "어린이집",
        "daycare_name": "달님어린이집",
        "distance": 172.70601500121714,
        "walking_time": "약 3분"
      },
      {
        "daycare_lat": 37.50343748,
        "daycare_lon": 127.0896899,
        "daycare_type": "어린이집",
        "daycare_name": "신나라어린이집",
        "distance": 174.89759533392603,
        "walking_time": "약 3분"
      },
      {
        "daycare_lat": 37.50339764107309,
        "daycare_lon": 127.08972936185256,
        "daycare_type": "어린이집",
        "daycare_name": "라온몬테소리어린이집",
        "distance": 180.13856242020134,
        "walking_time": "약 3분"
      },
      {
        "daycare_lat": 37.50587219,
        "daycare_lon": 127.0908683,
        "daycare_type": "어린이집",
        "daycare_name": "0세아카데미어린이집",
        "distance": 184.3831424450198,
        "walking_time": "약 3분"
      },
      {
        "daycare_lat": 37.50282216,
        "daycare_lon": 127.0883017,
        "daycare_type": "어린이집",
        "daycare_name": "키즈달님 어린이집",
        "distance": 247.42048723790063,
        "walking_time": "약 4분"
      },
      {
        "daycare_lat": 37.505355579041925,
        "daycare_lon": 127.09200214072298,
        "daycare_type": "어린이집",
        "daycare_name": "삼전하늘어린이집",
        "distance": 257.08782510178594,
        "walking_time": "약 4분"
      },
      {
        "daycare_lat": 37.50517343,
        "daycare_lon": 127.092035,
        "daycare_type": "어린이집",
        "daycare_name": "행복한꿀벌어린이집",
        "distance": 257.1774813652275,
        "walking_time": "약 4분"
      },
      {
        "daycare_lat": 37.505862395648734,
        "daycare_lon": 127.08636738478042,
        "daycare_type": "어린이집",
        "daycare_name": "주주어린이집",
        "distance": 264.37291936627395,
        "walking_time": "약 4분"
      }
    ],
    "education": [
      {
        "education_lat": 37.50727531,
        "education_lon": 127.0942308,
        "education_type": "도서관",
        "education_name": "소나무언덕2호도서관",
        "distance": 518.8310535575704,
        "walking_time": "약 8분"
      },
      {
        "education_lat": 37.50677711,
        "education_lon": 127.0982436,
        "education_type": "공연장",
        "education_name": "석촌호수 아뜰리에",
        "distance": 828.9628368764681,
        "walking_time": "약 13분"
      },
      {
        "education_lat": 37.50936664,
        "education_lon": 127.0981982,
        "education_type": "공연장",
        "education_name": "서울놀이마당",
        "distance": 938.5249326714433,
        "walking_time": "약 15분"
      },
      {
        "education_lat": 37.51210207,
        "education_lon": 127.0824292,
        "education_type": "도서관",
        "education_name": "송파어린이도서관",
        "distance": 991.2991010514291,
        "walking_time": "약 15분"
      },
      {
        "education_lat": 37.51130961,
        "education_lon": 127.0981418,
        "education_type": "공연장",
        "education_name": "샤롯데씨어터",
        "distance": 1063.9082487578307,
        "walking_time": "약 16분"
      },
      {
        "education_lat": 37.51130961,
        "education_lon": 127.0981418,
        "education_type": "공연장",
        "education_name": "롯데월드 가든스테이지",
        "distance": 1063.9082487578307,
        "walking_time": "약 16분"
      },
      {
        "education_lat": 37.50307882,
        "education_lon": 127.0768971,
        "education_type": "도서관",
        "education_name": "소나무언덕잠실본동도서관",
        "distance": 1099.2098457119637,
        "walking_time": "약 17분"
      },
      {
        "education_lat": 37.51068239,
        "education_lon": 127.0759368,
        "education_type": "문화원",
        "education_name": "송파문화원",
        "distance": 1327.2935392772156,
        "walking_time": "약 20분"
      },
      {
        "education_lat": 37.51592726,
        "education_lon": 127.0996432,
        "education_type": "박물관/기념관",
        "education_name": "한국광고박물관",
        "distance": 1532.973017242161,
        "walking_time": "약 23분"
      },
      {
        "education_lat": 37.49066929,
        "education_lon": 127.0803569,
        "education_type": "도서관",
        "education_name": "강남구립 개포하늘꿈도서관",
        "distance": 1766.3664814525014,
        "walking_time": "약 27분"
      }
    ],
    "electric_gas_station": [
      {
        "electric_gas_station_lat": 37.51130961,
        "electric_gas_station_lon": 127.0981418,
        "electric_gas_station_type": "전기차 충전소",
        "electric_gas_station_name": "롯데마트 잠실점",
        "distance": 1063.9082487578307,
        "walking_time": "약 16분"
      },
      {
        "electric_gas_station_lat": 37.49457661,
        "electric_gas_station_lon": 127.0863537,
        "electric_gas_station_type": "전기차 충전소",
        "electric_gas_station_name": "탄천제2호 공영주차장",
        "distance": 1178.93962014362,
        "walking_time": "약 18분"
      },
      {
        "electric_gas_station_lat": 37.49567866,
        "electric_gas_station_lon": 127.071912,
        "electric_gas_station_type": "전기차 충전소",
        "electric_gas_station_name": "학여울역 공영주차장",
        "distance": 1835.807661651642,
        "walking_time": "약 28분"
      }
    ],
    "fitness": [
      {
        "fitness_lat": 37.50381382,
        "fitness_lon": 127.0890048,
        "fitness_type": "운동시설",
        "fitness_name": "삼전W짐",
        "distance": 126.53286870381444,
        "walking_time": "약 2분"
      },
      {
        "fitness_lat": 37.50374869,
        "fitness_lon": 127.0892345,
        "fitness_type": "운동시설",
        "fitness_name": "GREEN DAY GYM",
        "distance": 133.56214689982863,
        "walking_time": "약 2분"
      },
      {
        "fitness_lat": 37.50615076,
        "fitness_lon": 127.088644,
        "fitness_type": "운동시설",
        "fitness_name": "와이낫짐",
        "distance": 140.62639792073458,
        "walking_time": "약 3분"
      },
      {
        "fitness_lat": 37.50559514,
        "fitness_lon": 127.0906308,
        "fitness_type": "운동시설",
        "fitness_name": "크로스핏 라텔",
        "distance": 150.45237622368614,
        "walking_time": "약 3분"
      },
      {
        "fitness_lat": 37.50356906,
        "fitness_lon": 127.0891852,
        "fitness_type": "운동시설",
        "fitness_name": "더디젤",
        "distance": 153.30645475680944,
        "walking_time": "약 3분"
      },
      {
        "fitness_lat": 37.50351541,
        "fitness_lon": 127.0886462,
        "fitness_type": "운동시설",
        "fitness_name": "The third Place",
        "distance": 164.90526953105731,
        "walking_time": "약 3분"
      },
      {
        "fitness_lat": 37.50638886,
        "fitness_lon": 127.0885692,
        "fitness_type": "운동시설",
        "fitness_name": "모션퍼포먼스짐 PT 잠실새내점",
        "distance": 167.85909849491466,
        "walking_time": "약 3분"
      },
      {
        "fitness_lat": 37.50665578,
        "fitness_lon": 127.0895943,
        "fitness_type": "운동시설",
        "fitness_name": "유니핏",
        "distance": 194.2884745537308,
        "walking_time": "약 3분"
      },
      {
        "fitness_lat": 37.50510914,
        "fitness_lon": 127.086778,
        "fitness_type": "운동시설",
        "fitness_name": "엠알티핏 잠실점",
        "distance": 208.55995710937788,
        "walking_time": "약 4분"
      },
      {
        "fitness_lat": 37.50679583,
        "fitness_lon": 127.0904959,
        "fitness_type": "운동시설",
        "fitness_name": "삼손헬스",
        "distance": 238.1139065989942,
        "walking_time": "약 4분"
      }
    ],
    "gas_station": [
      {
        "gas_station_lat": 37.50665089,
        "gas_station_lon": 127.0808877,
        "gas_station_type": "주유소",
        "gas_station_name": "삼화셀프주유소 (셀프)",
        "distance": 751.6283638709555,
        "walking_time": "약 12분"
      },
      {
        "gas_station_lat": 37.50169367,
        "gas_station_lon": 127.0972329,
        "gas_station_type": "주유소",
        "gas_station_name": "송파제일주유소 (셀프)",
        "distance": 800.8429425528668,
        "walking_time": "약 12분"
      },
      {
        "gas_station_lat": 37.50288822,
        "gas_station_lon": 127.0985431,
        "gas_station_type": "주유소",
        "gas_station_name": "석촌주유소 (셀프)",
        "distance": 861.0372289759418,
        "walking_time": "약 13분"
      },
      {
        "gas_station_lat": 37.49930776,
        "gas_station_lon": 127.0971844,
        "gas_station_type": "주유소",
        "gas_station_name": "퍼스트주유소 (셀프)",
        "distance": 947.4240186779537,
        "walking_time": "약 15분"
      },
      {
        "gas_station_lat": 37.50461065,
        "gas_station_lon": 127.0773939,
        "gas_station_type": "주유소",
        "gas_station_name": "아시아주유소 (셀프)",
        "distance": 1036.2402768989773,
        "walking_time": "약 16분"
      },
      {
        "gas_station_lat": 37.49491156,
        "gas_station_lon": 127.0842858,
        "gas_station_type": "주유소",
        "gas_station_name": "대청주유소",
        "distance": 1195.046495337249,
        "walking_time": "약 18분"
      },
      {
        "gas_station_lat": 37.49844847,
        "gas_station_lon": 127.0775716,
        "gas_station_type": "주유소",
        "gas_station_name": "㈜비자인터내셔날학여울주유소",
        "distance": 1249.977183376473,
        "walking_time": "약 19분"
      },
      {
        "gas_station_lat": 37.49105817,
        "gas_station_lon": 127.0878189,
        "gas_station_type": "주유소",
        "gas_station_name": "일원주유소",
        "distance": 1548.7343767340535,
        "walking_time": "약 24분"
      }
    ],
    "hospital": [
      {
        "hospital_lat": 37.50448673,
        "hospital_lon": 127.0886006,
        "hospital_type": "병원",
        "hospital_name": "성모에스케이마취통증의학과의원",
        "distance": 69.50543586633567,
        "walking_time": "약 2분"
      },
      {
        "hospital_lat": 37.50448673,
        "hospital_lon": 127.0886006,
        "hospital_type": "병원",
        "hospital_name": "연세그레이튼정형외과의원",
        "distance": 69.50543586633567,
        "walking_time": "약 2분"
      },
      {
        "hospital_lat": 37.50448673,
        "hospital_lon": 127.0886006,
        "hospital_type": "병원",
        "hospital_name": "연세하얀치과의원",
        "distance": 69.50543586633567,
        "walking_time": "약 2분"
      },
      {
        "hospital_lat": 37.50561866,
        "hospital_lon": 127.0887258,
        "hospital_type": "병원",
        "hospital_name": "메디큐내과의원",
        "distance": 82.8761744178936,
        "walking_time": "약 2분"
      },
      {
        "hospital_lat": 37.50561866,
        "hospital_lon": 127.0887258,
        "hospital_type": "병원",
        "hospital_name": "시원정형외과의원",
        "distance": 82.8761744178936,
        "walking_time": "약 2분"
      },
      {
        "hospital_lat": 37.50418898,
        "hospital_lon": 127.0893949,
        "hospital_type": "병원",
        "hospital_name": "송파바울의원",
        "distance": 87.40311153936787,
        "walking_time": "약 2분"
      },
      {
        "hospital_lat": 37.50418898,
        "hospital_lon": 127.0893949,
        "hospital_type": "병원",
        "hospital_name": "김영득치과의원",
        "distance": 87.40311153936787,
        "walking_time": "약 2분"
      },
      {
        "hospital_lat": 37.50584414,
        "hospital_lon": 127.0897301,
        "hospital_type": "병원",
        "hospital_name": "아이유안과의원",
        "distance": 112.77124090551104,
        "walking_time": "약 2분"
      },
      {
        "hospital_lat": 37.50584414,
        "hospital_lon": 127.0897301,
        "hospital_type": "병원",
        "hospital_name": "해솔정신건강의학과의원",
        "distance": 112.77124090551104,
        "walking_time": "약 2분"
      },
      {
        "hospital_lat": 37.5047453,
        "hospital_lon": 127.0877816,
        "hospital_type": "병원",
        "hospital_name": "24시열린의원",
        "distance": 121.34680773016224,
        "walking_time": "약 2분"
      }
    ],
    "music_room": [
      {
        "music_room_lat": 37.50458339,
        "music_room_lon": 127.0900542,
        "music_room_type": "노래방",
        "music_room_name": "마야노래연습장",
        "distance": 90.73188325268268,
        "walking_time": "약 2분"
      },
      {
        "music_room_lat": 37.50491582,
        "music_room_lon": 127.0902255,
        "music_room_type": "노래방",
        "music_room_name": "몽",
        "distance": 96.38949638732574,
        "walking_time": "약 2분"
      },
      {
        "music_room_lat": 37.50374869,
        "music_room_lon": 127.0892345,
        "music_room_type": "노래방",
        "music_room_name": "파티파티",
        "distance": 133.56214689982863,
        "walking_time": "약 2분"
      },
      {
        "music_room_lat": 37.5036663,
        "music_room_lon": 127.0895189,
        "music_room_type": "노래방",
        "music_room_name": "코드코인노래연습장",
        "distance": 146.42729280775634,
        "walking_time": "약 3분"
      },
      {
        "music_room_lat": 37.50356906,
        "music_room_lon": 127.0891852,
        "music_room_type": "노래방",
        "music_room_name": "썸 노래연습장",
        "distance": 153.30645475680944,
        "walking_time": "약 3분"
      },
      {
        "music_room_lat": 37.50349181,
        "music_room_lon": 127.0894738,
        "music_room_type": "노래방",
        "music_room_name": "헤라 노래연습장",
        "distance": 164.5890210853731,
        "walking_time": "약 3분"
      },
      {
        "music_room_lat": 37.5059792,
        "music_room_lon": 127.0905634,
        "music_room_type": "노래방",
        "music_room_name": "뚜뚜루",
        "distance": 170.5239126153917,
        "walking_time": "약 3분"
      },
      {
        "music_room_lat": 37.50338766,
        "music_room_lon": 127.0891124,
        "music_room_type": "노래방",
        "music_room_name": "라이브",
        "distance": 173.41935479216343,
        "walking_time": "약 3분"
      },
      {
        "music_room_lat": 37.50332078,
        "music_room_lon": 127.0893782,
        "music_room_type": "노래방",
        "music_room_name": "앵커노래연습장",
        "distance": 182.1297284222265,
        "walking_time": "약 3분"
      },
      {
        "music_room_lat": 37.50437734,
        "music_room_lon": 127.0870352,
        "music_room_type": "노래방",
        "music_room_name": "체리 노래연습장",
        "distance": 195.63867459062948,
        "walking_time": "약 3분"
      }
    ],
    "park": [
      {
        "park_lat": 37.5069328,
        "park_lon": 127.0983002,
        "park_type": "공원",
        "park_name": "송파나루근린공원(석촌호수)",
        "distance": 838.1957889209992,
        "walking_time": "약 13분"
      },
      {
        "park_lat": 37.5102779,
        "park_lon": 127.0762885,
        "park_type": "공원",
        "park_name": "아시아근린공원",
        "distance": 1278.7142955670392,
        "walking_time": "약 20분"
      }
    ],
    "park_station": [
      {
        "park_station_lat": 37.5064192,
        "park_station_lon": 127.0903883,
        "park_station_type": "주차장",
        "park_station_name": "승복유료주차장",
        "distance": 197.5939580313197,
        "walking_time": "약 3분"
      },
      {
        "park_station_lat": 37.50828962,
        "park_station_lon": 127.0877253,
        "park_station_type": "주차장",
        "park_station_name": "새마을시장",
        "distance": 391.8718278106393,
        "walking_time": "약 6분"
      },
      {
        "park_station_lat": 37.50224759,
        "park_station_lon": 127.0861091,
        "park_station_type": "주차장",
        "park_station_name": "21-37",
        "distance": 401.60264665277526,
        "walking_time": "약 6분"
      },
      {
        "park_station_lat": 37.50131226,
        "park_station_lon": 127.0857304,
        "park_station_type": "주차장",
        "park_station_name": "14-19",
        "distance": 503.4710893477328,
        "walking_time": "약 8분"
      },
      {
        "park_station_lat": 37.51030735,
        "park_station_lon": 127.0842385,
        "park_station_type": "주차장",
        "park_station_name": "유료주차장",
        "distance": 735.9875253703686,
        "walking_time": "약 11분"
      },
      {
        "park_station_lat": 37.50213533,
        "park_station_lon": 127.097248,
        "park_station_type": "주차장",
        "park_station_name": "210-1 주차장",
        "distance": 781.1080710344035,
        "walking_time": "약 12분"
      },
      {
        "park_station_lat": 37.50024605,
        "park_station_lon": 127.095875,
        "park_station_type": "주차장",
        "park_station_name": "삼전동",
        "distance": 791.7813640678788,
        "walking_time": "약 12분"
      },
      {
        "park_station_lat": 37.51062687,
        "park_station_lon": 127.0834432,
        "park_station_type": "주차장",
        "park_station_name": "신천주차장",
        "distance": 806.7170096819254,
        "walking_time": "약 13분"
      },
      {
        "park_station_lat": 37.50224879,
        "park_station_lon": 127.0977662,
        "park_station_type": "주차장",
        "park_station_name": "광명주차장",
        "distance": 818.4923149324071,
        "walking_time": "약 13분"
      },
      {
        "park_station_lat": 37.50134992,
        "park_station_lon": 127.0982285,
        "park_station_type": "주차장",
        "park_station_name": "석촌주차장",
        "distance": 896.4817636812309,
        "walking_time": "약 14분"
      }
    ],
    "pc_room": [
      {
        "pc_room_lat": 37.5044911308581,
        "pc_room_lon": 127.089690068942,
        "pc_room_type": "PC방",
        "pc_room_name": "힘쎈수달",
        "distance": 70.58177395648022,
        "walking_time": "약 2분"
      },
      {
        "pc_room_lat": 37.5051928150991,
        "pc_room_lon": 127.090069671623,
        "pc_room_type": "PC방",
        "pc_room_name": "로하스PC방(잠실정)",
        "distance": 86.98065930333492,
        "walking_time": "약 2분"
      },
      {
        "pc_room_lat": 37.5051181697269,
        "pc_room_lon": 127.088094450601,
        "pc_room_type": "PC방",
        "pc_room_name": "pc mong",
        "distance": 93.6070788808522,
        "walking_time": "약 2분"
      },
      {
        "pc_room_lat": 37.5041183948621,
        "pc_room_lon": 127.089795706905,
        "pc_room_type": "PC방",
        "pc_room_name": "엔플PC방",
        "distance": 109.10928516179008,
        "walking_time": "약 2분"
      },
      {
        "pc_room_lat": 37.5039376838599,
        "pc_room_lon": 127.088561618297,
        "pc_room_type": "PC방",
        "pc_room_name": "제로백PC 삼전역점",
        "distance": 123.06426036773875,
        "walking_time": "약 2분"
      },
      {
        "pc_room_lat": 37.503569063928,
        "pc_room_lon": 127.089185240922,
        "pc_room_type": "PC방",
        "pc_room_name": "조이웹플러스",
        "distance": 153.30612560351804,
        "walking_time": "약 3분"
      },
      {
        "pc_room_lat": 37.5060052118567,
        "pc_room_lon": 127.087118886126,
        "pc_room_type": "PC방",
        "pc_room_name": "샹떼 PC방",
        "distance": 213.1246639763751,
        "walking_time": "약 4분"
      },
      {
        "pc_room_lat": 37.5030293379148,
        "pc_room_lon": 127.088977862805,
        "pc_room_type": "PC방",
        "pc_room_name": "몽키타운",
        "distance": 213.6944427444008,
        "walking_time": "약 4분"
      },
      {
        "pc_room_lat": 37.5028755130831,
        "pc_room_lon": 127.088889014623,
        "pc_room_type": "PC방",
        "pc_room_name": "뮤토PC",
        "distance": 231.3648607821985,
        "walking_time": "약 4분"
      },
      {
        "pc_room_lat": 37.5065269983435,
        "pc_room_lon": 127.087343203156,
        "pc_room_type": "PC방",
        "pc_room_name": "망고피시방",
        "distance": 236.21828939175043,
        "walking_time": "약 4분"
      }
    ],
    "police_office": [
      {
        "police_office_lat": 37.50267459,
        "police_office_lon": 127.0927489,
        "police_office_type": "경찰소",
        "police_office_name": "삼전지구대",
        "distance": 406.9013575184835,
        "walking_time": "약 7분"
      },
      {
        "police_office_lat": 37.51209885,
        "police_office_lon": 127.0821403,
        "police_office_type": "경찰소",
        "police_office_name": "잠실지구대",
        "distance": 1006.425927158814,
        "walking_time": "약 16분"
      },
      {
        "police_office_lat": 37.49241615,
        "police_office_lon": 127.0833736,
        "police_office_type": "경찰소",
        "police_office_name": "일원지구대",
        "distance": 1483.1449234925617,
        "walking_time": "약 23분"
      }
    ],
    "post_office": [
      {
        "post_office_lat": 37.50620782,
        "post_office_lon": 127.0912116,
        "post_office_type": "우체국",
        "post_office_name": "서울삼전서호우편취급국",
        "distance": 230.76476380950132,
        "walking_time": "약 4분"
      },
      {
        "post_office_lat": 37.50231501,
        "post_office_lon": 127.09479,
        "post_office_type": "우체국",
        "post_office_name": "서울삼전동우체국",
        "distance": 578.4795501667261,
        "walking_time": "약 9분"
      },
      {
        "post_office_lat": 37.51209204,
        "post_office_lon": 127.0827306,
        "post_office_type": "우체국",
        "post_office_name": "서울잠실2동우체국",
        "distance": 974.7634977818,
        "walking_time": "약 15분"
      },
      {
        "post_office_lat": 37.51315353,
        "post_office_lon": 127.0943617,
        "post_office_type": "우체국",
        "post_office_name": "서울잠실3동우체국",
        "distance": 1022.4162475705986,
        "walking_time": "약 16분"
      },
      {
        "post_office_lat": 37.50656181,
        "post_office_lon": 127.074256,
        "post_office_type": "우체국",
        "post_office_name": "서울잠실우성우편취급국",
        "distance": 1324.5696511310782,
        "walking_time": "약 20분"
      },
      {
        "post_office_lat": 37.49219714,
        "post_office_lon": 127.0878147,
        "post_office_type": "우체국",
        "post_office_name": "서울일원동우체국",
        "distance": 1422.5040690875046,
        "walking_time": "약 22분"
      },
      {
        "post_office_lat": 37.49357934,
        "post_office_lon": 127.0781146,
        "post_office_type": "우체국",
        "post_office_name": "서울강남우체국",
        "distance": 1594.5891579506972,
        "walking_time": "약 24분"
      }
    ],
    "school": [
      {
        "school_lat": 37.5017012801562,
        "school_lon": 127.093268133907,
        "school_type": "초등학교",
        "school_name": "서울삼전초등학교",
        "distance": 513.1222254819253,
        "walking_time": "약 8분"
      },
      {
        "school_lat": 37.5073349275982,
        "school_lon": 127.083864376692,
        "school_type": "초등학교",
        "school_name": "서울잠전초등학교",
        "distance": 535.2766550663804,
        "walking_time": "약 8분"
      },
      {
        "school_lat": 37.5099746522433,
        "school_lon": 127.089443727735,
        "school_type": "고등학교",
        "school_name": "영동일고등학교",
        "distance": 559.7001010187237,
        "walking_time": "약 9분"
      },
      {
        "school_lat": 37.5102185018601,
        "school_lon": 127.089274587416,
        "school_type": "초등학교",
        "school_name": "서울버들초등학교",
        "distance": 586.2776946101067,
        "walking_time": "약 9분"
      },
      {
        "school_lat": 37.5088312569718,
        "school_lon": 127.095121373383,
        "school_type": "초등학교",
        "school_name": "서울송전초등학교",
        "distance": 682.2805717681333,
        "walking_time": "약 11분"
      },
      {
        "school_lat": 37.4976894981876,
        "school_lon": 127.095811765574,
        "school_type": "고등학교",
        "school_name": "배명고등학교",
        "distance": 999.1713915214384,
        "walking_time": "약 15분"
      },
      {
        "school_lat": 37.4976894981876,
        "school_lon": 127.095811765574,
        "school_type": "중학교",
        "school_name": "배명중학교",
        "distance": 999.1713915214384,
        "walking_time": "약 15분"
      },
      {
        "school_lat": 37.5141697474146,
        "school_lon": 127.08797670792,
        "school_type": "초등학교",
        "school_name": "서울잠신초등학교",
        "distance": 1030.5677119671268,
        "walking_time": "약 16분"
      },
      {
        "school_lat": 37.5147012912615,
        "school_lon": 127.08828295987,
        "school_type": "고등학교",
        "school_name": "잠신고등학교",
        "distance": 1087.200566029373,
        "walking_time": "약 17분"
      },
      {
        "school_lat": 37.5052044945698,
        "school_lon": 127.076298941322,
        "school_type": "중학교",
        "school_name": "아주중학교",
        "distance": 1132.5091090183118,
        "walking_time": "약 17분"
      }
    ],
    "self_laundromat": [
      {
        "self_laundromat_lat": 37.50569099,
        "self_laundromat_lon": 127.0937596,
        "self_laundromat_type": "셀프 빨래방",
        "self_laundromat_name": "잠실24시셀프빨래방",
        "distance": 416.3685057639034,
        "walking_time": "약 7분"
      },
      {
        "self_laundromat_lat": 37.50569099,
        "self_laundromat_lon": 127.0937596,
        "self_laundromat_type": "셀프 빨래방",
        "self_laundromat_name": "잠실24시셀프빨래방",
        "distance": 416.3685057639034,
        "walking_time": "약 7분"
      },
      {
        "self_laundromat_lat": 37.50520846,
        "self_laundromat_lon": 127.0828563,
        "self_laundromat_type": "셀프 빨래방",
        "self_laundromat_name": "동전빨래방",
        "distance": 554.4789996609843,
        "walking_time": "약 9분"
      },
      {
        "self_laundromat_lat": 37.50520846,
        "self_laundromat_lon": 127.0828563,
        "self_laundromat_type": "셀프 빨래방",
        "self_laundromat_name": "동전빨래방",
        "distance": 554.4789996609843,
        "walking_time": "약 9분"
      },
      {
        "self_laundromat_lat": 37.50869068,
        "self_laundromat_lon": 127.0835954,
        "self_laundromat_type": "셀프 빨래방",
        "self_laundromat_name": "새마을빨래방",
        "distance": 641.8046977383236,
        "walking_time": "약 10분"
      },
      {
        "self_laundromat_lat": 37.50869068,
        "self_laundromat_lon": 127.0835954,
        "self_laundromat_type": "셀프 빨래방",
        "self_laundromat_name": "새마을빨래방",
        "distance": 641.8046977383236,
        "walking_time": "약 10분"
      },
      {
        "self_laundromat_lat": 37.50141835,
        "self_laundromat_lon": 127.0962019,
        "self_laundromat_type": "셀프 빨래방",
        "self_laundromat_name": "워시팡팡셀프빨래방24시 삼전점",
        "distance": 736.7165974488945,
        "walking_time": "약 11분"
      },
      {
        "self_laundromat_lat": 37.50141835,
        "self_laundromat_lon": 127.0962019,
        "self_laundromat_type": "셀프 빨래방",
        "self_laundromat_name": "워시팡팡셀프빨래방24시 삼전점",
        "distance": 736.7165974488945,
        "walking_time": "약 11분"
      },
      {
        "self_laundromat_lat": 37.50139956,
        "self_laundromat_lon": 127.0988799,
        "self_laundromat_type": "셀프 빨래방",
        "self_laundromat_name": "워시엔조이 셀프빨래방 석촌점",
        "distance": 945.9382214978152,
        "walking_time": "약 15분"
      },
      {
        "self_laundromat_lat": 37.50139956,
        "self_laundromat_lon": 127.0988799,
        "self_laundromat_type": "셀프 빨래방",
        "self_laundromat_name": "워시엔조이 셀프빨래방 석촌점",
        "distance": 945.9382214978152,
        "walking_time": "약 15분"
      }
    ],
    "subway": [
      {
        "subway_lat": 37.504501913851,
        "subway_lon": 127.087445571156,
        "subway_type": "지하철",
        "subway_name": "9호선-삼전역",
        "distance": 156.91008595241587,
        "walking_time": "약 3분"
      },
      {
        "subway_lat": 37.5024703189666,
        "subway_lon": 127.096703734242,
        "subway_type": "지하철",
        "subway_name": "9호선-석촌고분역",
        "distance": 722.3535895822388,
        "walking_time": "약 11분"
      },
      {
        "subway_lat": 37.5115918057305,
        "subway_lon": 127.086375252836,
        "subway_type": "지하철",
        "subway_name": "2호선-잠실새내역",
        "distance": 777.8770895929938,
        "walking_time": "약 12분"
      },
      {
        "subway_lat": 37.5114806299192,
        "subway_lon": 127.076008084574,
        "subway_type": "지하철",
        "subway_name": "9호선-종합운동장역",
        "distance": 1366.814797980095,
        "walking_time": "약 21분"
      },
      {
        "subway_lat": 37.4937218597788,
        "subway_lon": 127.079493645766,
        "subway_type": "지하철",
        "subway_name": "3호선-대청역",
        "distance": 1510.3594711916603,
        "walking_time": "약 23분"
      },
      {
        "subway_lat": 37.5109692748993,
        "subway_lon": 127.073356018706,
        "subway_type": "지하철",
        "subway_name": "2호선-종합운동장역",
        "distance": 1544.411490985098,
        "walking_time": "약 24분"
      },
      {
        "subway_lat": 37.4956786590374,
        "subway_lon": 127.071912029293,
        "subway_type": "지하철",
        "subway_name": "3호선-학여울역",
        "distance": 1835.805583260863,
        "walking_time": "약 28분"
      }
    ],
    "supermarket": [
      {
        "supermarket_lat": 37.50411839,
        "supermarket_lon": 127.0897957,
        "supermarket_type": "마트",
        "supermarket_name": "홈플러스 익스프레스 삼전역점",
        "distance": 109.1094157017846,
        "walking_time": "약 2분"
      },
      {
        "supermarket_lat": 37.50765196,
        "supermarket_lon": 127.0917875,
        "supermarket_type": "마트",
        "supermarket_name": "홈플러스(주)익스프레스 잠실점",
        "distance": 381.13322527545085,
        "walking_time": "약 6분"
      },
      {
        "supermarket_lat": 37.51069605,
        "supermarket_lon": 127.0862248,
        "supermarket_type": "마트",
        "supermarket_name": "롯데쇼핑(주)롯데슈퍼잠실3동점",
        "distance": 688.8135012435621,
        "walking_time": "약 11분"
      },
      {
        "supermarket_lat": 37.51070678,
        "supermarket_lon": 127.0942316,
        "supermarket_type": "마트",
        "supermarket_name": "갤러리아팰리스 아케이드",
        "distance": 782.5504215982097,
        "walking_time": "약 12분"
      },
      {
        "supermarket_lat": 37.50496607,
        "supermarket_lon": 127.0986018,
        "supermarket_type": "마트",
        "supermarket_name": "GS THE FRESH 송파석촌호수점",
        "distance": 835.2109455472911,
        "walking_time": "약 13분"
      },
      {
        "supermarket_lat": 37.50218648,
        "supermarket_lon": 127.0989069,
        "supermarket_type": "마트",
        "supermarket_name": "롯데쇼핑(주)롯데슈퍼석촌점",
        "distance": 915.1581584843644,
        "walking_time": "약 14분"
      },
      {
        "supermarket_lat": 37.51248608,
        "supermarket_lon": 127.0933226,
        "supermarket_type": "마트",
        "supermarket_name": "(주)지에스리테일 잠실점",
        "distance": 916.1129031441736,
        "walking_time": "약 14분"
      },
      {
        "supermarket_lat": 37.51248608,
        "supermarket_lon": 127.0933226,
        "supermarket_type": "마트",
        "supermarket_name": "잠실중앙상가",
        "distance": 916.1129031441736,
        "walking_time": "약 14분"
      },
      {
        "supermarket_lat": 37.51216127,
        "supermarket_lon": 127.0830622,
        "supermarket_type": "마트",
        "supermarket_name": "롯데쇼핑(주)롯데슈퍼신천점",
        "distance": 964.5057104411314,
        "walking_time": "약 15분"
      },
      {
        "supermarket_lat": 37.51130961,
        "supermarket_lon": 127.0981418,
        "supermarket_type": "마트",
        "supermarket_name": "롯데하이마트잠실점",
        "distance": 1063.9082487578307,
        "walking_time": "약 16분"
      }
    ]
  }
}