{
  "클러스터_위도": 37.50323150001405,
  "클러스터_경도": 127.11522699996009,
  "클러스터_level": 4.0,
  "facilities": {
    "bus": [
      {
        "bus_lat": 37.503707,
        "bus_lon": 127.113797,
        "bus_type": "버스정류장",
        "bus_name": "한양공원",
        "distance": 136.7769961162947,
        "walking_time": "약 3분"
      },
      {
        "bus_lat": 37.50387311,
        "bus_lon": 127.1138832,
        "bus_type": "버스정류장",
        "bus_name": "한양공원",
        "distance": 138.3535650585709,
        "walking_time": "약 3분"
      },
      {
        "bus_lat": 37.50209169,
        "bus_lon": 127.1174129,
        "bus_type": "버스정류장",
        "bus_name": "가락중학교",
        "distance": 230.74946639503708,
        "walking_time": "약 4분"
      },
      {
        "bus_lat": 37.50165249,
        "bus_lon": 127.1173726,
        "bus_type": "버스정류장",
        "bus_name": "가락고등학교",
        "distance": 258.16944109937765,
        "walking_time": "약 4분"
      },
      {
        "bus_lat": 37.50299524,
        "bus_lon": 127.1182081,
        "bus_type": "버스정류장",
        "bus_name": "송파현대아파트.가락중학교",
        "distance": 264.28131191063204,
        "walking_time": "약 4분"
      },
      {
        "bus_lat": 37.50257222,
        "bus_lon": 127.1120106,
        "bus_type": "버스정류장",
        "bus_name": "잠실여고후문",
        "distance": 293.04725143179684,
        "walking_time": "약 5분"
      },
      {
        "bus_lat": 37.50305012,
        "bus_lon": 127.118551,
        "bus_type": "버스정류장",
        "bus_name": "가락중학교.래미안송파파인탑",
        "distance": 293.9133390513783,
        "walking_time": "약 5분"
      },
      {
        "bus_lat": 37.50595672,
        "bus_lon": 127.1154171,
        "bus_type": "버스정류장",
        "bus_name": "송파동한양1차아파트",
        "distance": 303.4942600898506,
        "walking_time": "약 5분"
      },
      {
        "bus_lat": 37.50599792,
        "bus_lon": 127.1157234,
        "bus_type": "버스정류장",
        "bus_name": "송파한양2차아파트",
        "distance": 310.7128304524243,
        "walking_time": "약 5분"
      },
      {
        "bus_lat": 37.50250109,
        "bus_lon": 127.111619,
        "bus_type": "버스정류장",
        "bus_name": "잠실여고후문",
        "distance": 328.47348801293026,
        "walking_time": "약 5분"
      }
    ],
    "community_center": [
      {
        "community_center_lat": 37.50233682,
        "community_center_lon": 127.1167171,
        "community_center_type": "주민센터",
        "community_center_name": "송파2동 자치회관",
        "distance": 164.8495383061494,
        "walking_time": "약 3분"
      },
      {
        "community_center_lat": 37.50626355,
        "community_center_lon": 127.1093124,
        "community_center_type": "주민센터",
        "community_center_name": "송파1동 자치회관",
        "distance": 621.1890537114257,
        "walking_time": "약 10분"
      },
      {
        "community_center_lat": 37.49650407,
        "community_center_lon": 127.1098544,
        "community_center_type": "주민센터",
        "community_center_name": "가락1동 자치회관",
        "distance": 885.5625527336696,
        "walking_time": "약 14분"
      },
      {
        "community_center_lat": 37.50356569,
        "community_center_lon": 127.1036892,
        "community_center_type": "주민센터",
        "community_center_name": "석촌동 자치회관",
        "distance": 1018.4603817045293,
        "walking_time": "약 16분"
      },
      {
        "community_center_lat": 37.49558031,
        "community_center_lon": 127.1217613,
        "community_center_type": "주민센터",
        "community_center_name": "가락본동 자치회관",
        "distance": 1027.6666342243204,
        "walking_time": "약 16분"
      },
      {
        "community_center_lat": 37.49867369,
        "community_center_lon": 127.1266091,
        "community_center_type": "주민센터",
        "community_center_name": "가락2동 자치회관",
        "distance": 1124.7351194790235,
        "walking_time": "약 17분"
      },
      {
        "community_center_lat": 37.50298784,
        "community_center_lon": 127.1280698,
        "community_center_type": "주민센터",
        "community_center_name": "오금동 자치회관",
        "distance": 1133.2283224495202,
        "walking_time": "약 17분"
      },
      {
        "community_center_lat": 37.51097122,
        "community_center_lon": 127.1239058,
        "community_center_type": "주민센터",
        "community_center_name": "방이1동 자치회관",
        "distance": 1151.8332513407129,
        "walking_time": "약 18분"
      },
      {
        "community_center_lat": 37.5164187,
        "community_center_lon": 127.111305,
        "community_center_type": "주민센터",
        "community_center_name": "방이2동 자치회관",
        "distance": 1506.6043710456288,
        "walking_time": "약 23분"
      },
      {
        "community_center_lat": 37.49007616,
        "community_center_lon": 127.1241791,
        "community_center_type": "주민센터",
        "community_center_name": "문정1동 자치회관",
        "distance": 1662.3862062743096,
        "walking_time": "약 25분"
      }
    ],
    "convenience_store": [
      {
        "convenience_store_lat": 37.5010193,
        "convenience_store_lon": 127.1145811,
        "convenience_store_type": "편의점",
        "convenience_store_name": "GS25 송파일신점",
        "distance": 252.49807613353,
        "walking_time": "약 4분"
      },
      {
        "convenience_store_lat": 37.50381402,
        "convenience_store_lon": 127.1118706,
        "convenience_store_type": "편의점",
        "convenience_store_name": "CU 송파부자점",
        "distance": 303.07958632461026,
        "walking_time": "약 5분"
      },
      {
        "convenience_store_lat": 37.50240656,
        "convenience_store_lon": 127.1118749,
        "convenience_store_type": "편의점",
        "convenience_store_name": "GS25 송파행운점",
        "distance": 309.6014775164604,
        "walking_time": "약 5분"
      },
      {
        "convenience_store_lat": 37.50034726,
        "convenience_store_lon": 127.1165909,
        "convenience_store_type": "편의점",
        "convenience_store_name": "CU 송파성지점",
        "distance": 342.53861309228466,
        "walking_time": "약 6분"
      },
      {
        "convenience_store_lat": 37.50634621,
        "convenience_store_lon": 127.1133814,
        "convenience_store_type": "편의점",
        "convenience_store_name": "GS25 한양나누리점",
        "distance": 382.6957633959656,
        "walking_time": "약 6분"
      },
      {
        "convenience_store_lat": 37.50461197,
        "convenience_store_lon": 127.110702,
        "convenience_store_type": "편의점",
        "convenience_store_name": "GS25 송파세원점",
        "distance": 427.65830058434096,
        "walking_time": "약 7분"
      },
      {
        "convenience_store_lat": 37.49968667,
        "convenience_store_lon": 127.1121799,
        "convenience_store_type": "편의점",
        "convenience_store_name": "GS25 S8송파역점",
        "distance": 477.0967883440296,
        "walking_time": "약 8분"
      },
      {
        "convenience_store_lat": 37.50734135,
        "convenience_store_lon": 127.1116938,
        "convenience_store_type": "편의점",
        "convenience_store_name": "세븐일레븐 송파초교점",
        "distance": 553.1541285652436,
        "walking_time": "약 9분"
      },
      {
        "convenience_store_lat": 37.50373726,
        "convenience_store_lon": 127.1089791,
        "convenience_store_type": "편의점",
        "convenience_store_name": "CU 석촌역점",
        "distance": 554.0062230864901,
        "walking_time": "약 9분"
      },
      {
        "convenience_store_lat": 37.50154003,
        "convenience_store_lon": 127.1093116,
        "convenience_store_type": "편의점",
        "convenience_store_name": "세븐일레븐 송파은혜점",
        "distance": 554.6825382601971,
        "walking_time": "약 9분"
      }
    ],
    "daycare": [
      {
        "daycare_lat": 37.50297905,
        "daycare_lon": 127.1132916,
        "daycare_type": "어린이집",
        "daycare_name": "리나어린이집",
        "distance": 173.02016741639582,
        "walking_time": "약 3분"
      },
      {
        "daycare_lat": 37.50108619,
        "daycare_lon": 127.1152479,
        "daycare_type": "어린이집",
        "daycare_name": "티움어린이집",
        "distance": 238.55471424802377,
        "walking_time": "약 4분"
      },
      {
        "daycare_lat": 37.50317278,
        "daycare_lon": 127.1179852,
        "daycare_type": "어린이집",
        "daycare_name": "베베라움어린이집",
        "distance": 243.3969238485909,
        "walking_time": "약 4분"
      },
      {
        "daycare_lat": 37.50357743,
        "daycare_lon": 127.1122225,
        "daycare_type": "어린이집",
        "daycare_name": "송파제일어린이집",
        "distance": 267.8122779206456,
        "walking_time": "약 4분"
      },
      {
        "daycare_lat": 37.50341441,
        "daycare_lon": 127.1117528,
        "daycare_type": "어린이집",
        "daycare_name": "키즈어린이집",
        "distance": 307.14353454459734,
        "walking_time": "약 5분"
      },
      {
        "daycare_lat": 37.50211924,
        "daycare_lon": 127.1117719,
        "daycare_type": "어린이집",
        "daycare_name": "명운어린이집",
        "distance": 328.92458959925324,
        "walking_time": "약 5분"
      },
      {
        "daycare_lat": 37.50463022,
        "daycare_lon": 127.1187688,
        "daycare_type": "어린이집",
        "daycare_name": "삼성래미안어린이집",
        "distance": 349.00185459085174,
        "walking_time": "약 6분"
      },
      {
        "daycare_lat": 37.50607937,
        "daycare_lon": 127.1171129,
        "daycare_type": "어린이집",
        "daycare_name": "보혜어린이집",
        "distance": 357.70656374613105,
        "walking_time": "약 6분"
      },
      {
        "daycare_lat": 37.50612872,
        "daycare_lon": 127.1131163,
        "daycare_type": "어린이집",
        "daycare_name": "라움어린이집",
        "distance": 372.0892911550259,
        "walking_time": "약 6분"
      },
      {
        "daycare_lat": 37.506317788887166,
        "daycare_lon": 127.11702367029405,
        "daycare_type": "어린이집",
        "daycare_name": "브니엘어린이집",
        "distance": 378.0082675583516,
        "walking_time": "약 6분"
      }
    ],
    "education": [
      {
        "education_lat": 37.50221326,
        "education_lon": 127.1168433,
        "education_type": "도서관",
        "education_name": "소나무언덕4호작은도서관",
        "distance": 182.06716901249584,
        "walking_time": "약 3분"
      },
      {
        "education_lat": 37.50272019,
        "education_lon": 127.1110266,
        "education_type": "미술관/갤러리",
        "education_name": "갤러리 무모",
        "distance": 374.8679561768924,
        "walking_time": "약 6분"
      },
      {
        "education_lat": 37.5059055,
        "education_lon": 127.1097882,
        "education_type": "문화예술회관",
        "education_name": "송파문화여성회관",
        "distance": 564.4309057551542,
        "walking_time": "약 9분"
      },
      {
        "education_lat": 37.50945708,
        "education_lon": 127.1132204,
        "education_type": "미술관/갤러리",
        "education_name": "갤러리아리아",
        "distance": 714.5232092908198,
        "walking_time": "약 11분"
      },
      {
        "education_lat": 37.50024473,
        "education_lon": 127.1066645,
        "education_type": "공연장",
        "education_name": "온쉼표",
        "distance": 825.1284736573496,
        "walking_time": "약 13분"
      },
      {
        "education_lat": 37.50356569,
        "education_lon": 127.1036892,
        "education_type": "도서관",
        "education_name": "돌마리도서관",
        "distance": 1018.4603817045293,
        "walking_time": "약 16분"
      },
      {
        "education_lat": 37.51061468,
        "education_lon": 127.1082343,
        "education_type": "미술관/갤러리",
        "education_name": "언바운드",
        "distance": 1026.8682212908795,
        "walking_time": "약 16분"
      },
      {
        "education_lat": 37.49888418,
        "education_lon": 127.1043834,
        "education_type": "박물관/기념관",
        "education_name": "송파책박물관",
        "distance": 1071.7793375802598,
        "walking_time": "약 16분"
      },
      {
        "education_lat": 37.51543881335773,
        "education_lon": 127.12088940368128,
        "education_type": "박물관/기념관",
        "education_name": "한성백제박물관",
        "distance": 1446.3638967592194,
        "walking_time": "약 22분"
      },
      {
        "education_lat": 37.51659259,
        "education_lon": 127.1139562,
        "education_type": "미술관/갤러리",
        "education_name": "뮤지엄한미 방이",
        "distance": 1489.9079119021965,
        "walking_time": "약 23분"
      }
    ],
    "fitness": [
      {
        "fitness_lat": 37.50378424,
        "fitness_lon": 127.1140872,
        "fitness_type": "운동시설",
        "fitness_name": "짐스휘트니스",
        "distance": 117.84239997994368,
        "walking_time": "약 2분"
      },
      {
        "fitness_lat": 37.50424105,
        "fitness_lon": 127.1139939,
        "fitness_type": "운동시설",
        "fitness_name": "H휘트니스",
        "distance": 156.31234186212464,
        "walking_time": "약 3분"
      },
      {
        "fitness_lat": 37.50254292,
        "fitness_lon": 127.117225,
        "fitness_type": "운동시설",
        "fitness_name": "팀에이치오씨",
        "distance": 192.16315755776697,
        "walking_time": "약 3분"
      },
      {
        "fitness_lat": 37.50337775,
        "fitness_lon": 127.1130179,
        "fitness_type": "운동시설",
        "fitness_name": "크리스탈 짐",
        "distance": 195.54862694416545,
        "walking_time": "약 3분"
      },
      {
        "fitness_lat": 37.50300081,
        "fitness_lon": 127.1121148,
        "fitness_type": "운동시설",
        "fitness_name": "앵글짐&프리모필라테스",
        "distance": 275.7328515589468,
        "walking_time": "약 5분"
      },
      {
        "fitness_lat": 37.50240656,
        "fitness_lon": 127.1118749,
        "fitness_type": "운동시설",
        "fitness_name": "에스바디짐",
        "distance": 309.6014775164604,
        "walking_time": "약 5분"
      },
      {
        "fitness_lat": 37.50525374,
        "fitness_lon": 127.1178045,
        "fitness_type": "운동시설",
        "fitness_name": "Refresh PT Gym",
        "distance": 319.779009170738,
        "walking_time": "약 5분"
      },
      {
        "fitness_lat": 37.50149057,
        "fitness_lon": 127.1122784,
        "fitness_type": "운동시설",
        "fitness_name": "피티찬스",
        "distance": 324.23818617770456,
        "walking_time": "약 5분"
      },
      {
        "fitness_lat": 37.50375261,
        "fitness_lon": 127.119026,
        "fitness_type": "운동시설",
        "fitness_name": "어나더 필라테스 라운지",
        "distance": 340.0928554497993,
        "walking_time": "약 6분"
      },
      {
        "fitness_lat": 37.50568966,
        "fitness_lon": 127.1179689,
        "fitness_type": "운동시설",
        "fitness_name": "라이트짐 송파점",
        "distance": 364.9819274331778,
        "walking_time": "약 6분"
      }
    ],
    "gas_station": [
      {
        "gas_station_lat": 37.50255308,
        "gas_station_lon": 127.116428,
        "gas_station_type": "주유소",
        "gas_station_name": "송파주유소 (셀프)",
        "distance": 130.05739888027435,
        "walking_time": "약 2분"
      },
      {
        "gas_station_lat": 37.50273441,
        "gas_station_lon": 127.1090104,
        "gas_station_type": "주유소",
        "gas_station_name": "잠실셀프주유소 (셀프)",
        "distance": 551.1656462706812,
        "walking_time": "약 9분"
      },
      {
        "gas_station_lat": 37.5063759,
        "gas_station_lon": 127.1066563,
        "gas_station_type": "주유소",
        "gas_station_name": "잠실주유소 (셀프)",
        "distance": 832.9663332653007,
        "walking_time": "약 13분"
      },
      {
        "gas_station_lat": 37.51106698,
        "gas_station_lon": 127.1110496,
        "gas_station_type": "주유소",
        "gas_station_name": "백제고분로주유소 (셀프)",
        "distance": 945.9823762137644,
        "walking_time": "약 15분"
      },
      {
        "gas_station_lat": 37.5106973,
        "gas_station_lon": 127.1206916,
        "gas_station_type": "주유소",
        "gas_station_name": "방이주유소",
        "distance": 959.9542329043549,
        "walking_time": "약 15분"
      },
      {
        "gas_station_lat": 37.49854598,
        "gas_station_lon": 127.1253716,
        "gas_station_type": "주유소",
        "gas_station_name": "제트라인디엠주유소",
        "distance": 1035.5282168217498,
        "walking_time": "약 16분"
      },
      {
        "gas_station_lat": 37.51261467,
        "gas_station_lon": 127.1140423,
        "gas_station_type": "주유소",
        "gas_station_name": "남성주유소",
        "distance": 1048.580990854694,
        "walking_time": "약 16분"
      },
      {
        "gas_station_lat": 37.49577944,
        "gas_station_lon": 127.124781,
        "gas_station_type": "주유소",
        "gas_station_name": "서원주유소",
        "distance": 1181.9439011745203,
        "walking_time": "약 18분"
      },
      {
        "gas_station_lat": 37.49951845,
        "gas_station_lon": 127.1017358,
        "gas_station_type": "주유소",
        "gas_station_name": "가락로주유소 (셀프)",
        "distance": 1259.7109613679258,
        "walking_time": "약 19분"
      },
      {
        "gas_station_lat": 37.49123101,
        "gas_station_lon": 127.1153536,
        "gas_station_type": "주유소",
        "gas_station_name": "훼미리주유소",
        "distance": 1334.4403460450287,
        "walking_time": "약 20분"
      }
    ],
    "hospital": [
      {
        "hospital_lat": 37.5033609,
        "hospital_lon": 127.1158108,
        "hospital_type": "병원",
        "hospital_name": "밝은빛한의원",
        "distance": 53.47104184135984,
        "walking_time": "약 1분"
      },
      {
        "hospital_lat": 37.50378424,
        "hospital_lon": 127.1140872,
        "hospital_type": "병원",
        "hospital_name": "단우한의원",
        "distance": 117.84239997994368,
        "walking_time": "약 2분"
      },
      {
        "hospital_lat": 37.50400504,
        "hospital_lon": 127.1143096,
        "hospital_type": "병원",
        "hospital_name": "일동한의원",
        "distance": 118.09917334380847,
        "walking_time": "약 2분"
      },
      {
        "hospital_lat": 37.50421249,
        "hospital_lon": 127.1145548,
        "hospital_type": "병원",
        "hospital_name": "가락미소치과의원",
        "distance": 124.156166418158,
        "walking_time": "약 2분"
      },
      {
        "hospital_lat": 37.50355447,
        "hospital_lon": 127.1138232,
        "hospital_type": "병원",
        "hospital_name": "송파본치과의원",
        "distance": 128.9355633801345,
        "walking_time": "약 2분"
      },
      {
        "hospital_lat": 37.50355447,
        "hospital_lon": 127.1138232,
        "hospital_type": "병원",
        "hospital_name": "시온정형외과의원",
        "distance": 128.9355633801345,
        "walking_time": "약 2분"
      },
      {
        "hospital_lat": 37.50355447,
        "hospital_lon": 127.1138232,
        "hospital_type": "병원",
        "hospital_name": "연세메디칼내과의원",
        "distance": 128.9355633801345,
        "walking_time": "약 2분"
      },
      {
        "hospital_lat": 37.50337615,
        "hospital_lon": 127.1136458,
        "hospital_type": "병원",
        "hospital_name": "잘봄경희한의원",
        "distance": 140.40665067720357,
        "walking_time": "약 3분"
      },
      {
        "hospital_lat": 37.50405943,
        "hospital_lon": 127.1138793,
        "hospital_type": "병원",
        "hospital_name": "S앤비한의원",
        "distance": 150.3621001856486,
        "walking_time": "약 3분"
      },
      {
        "hospital_lat": 37.50453137,
        "hospital_lon": 127.1141667,
        "hospital_type": "병원",
        "hospital_name": "송파박내과의원",
        "distance": 172.16168190500946,
        "walking_time": "약 3분"
      }
    ],
    "music_room": [
      {
        "music_room_lat": 37.5043441,
        "music_room_lon": 127.1142071,
        "music_room_type": "노래방",
        "music_room_name": "신도깨비노래연습장",
        "distance": 152.9696900524301,
        "walking_time": "약 3분"
      },
      {
        "music_room_lat": 37.50230288,
        "music_room_lon": 127.1107956,
        "music_room_type": "노래방",
        "music_room_name": "준",
        "distance": 404.3174469662632,
        "walking_time": "약 7분"
      },
      {
        "music_room_lat": 37.50656548,
        "music_room_lon": 127.1177435,
        "music_room_type": "노래방",
        "music_room_name": "썬",
        "distance": 432.1007786768492,
        "walking_time": "약 7분"
      },
      {
        "music_room_lat": 37.50719993,
        "music_room_lon": 127.1161485,
        "music_room_type": "노래방",
        "music_room_name": "울타리노래연습장",
        "distance": 448.6936811539273,
        "walking_time": "약 7분"
      },
      {
        "music_room_lat": 37.50729234,
        "music_room_lon": 127.1166377,
        "music_room_type": "노래방",
        "music_room_name": "잇츠코인노래연습장",
        "distance": 468.3777503176188,
        "walking_time": "약 7분"
      },
      {
        "music_room_lat": 37.50141003,
        "music_room_lon": 127.1101699,
        "music_room_type": "노래방",
        "music_room_name": "뮤젠",
        "distance": 489.9324076091318,
        "walking_time": "약 8분"
      },
      {
        "music_room_lat": 37.50156404,
        "music_room_lon": 127.1100397,
        "music_room_type": "노래방",
        "music_room_name": "1,2,3 노래연습장",
        "distance": 493.72973511077686,
        "walking_time": "약 8분"
      },
      {
        "music_room_lat": 37.50336753,
        "music_room_lon": 127.1093166,
        "music_room_type": "노래방",
        "music_room_name": "피그코인노래연습장",
        "distance": 521.5932891087431,
        "walking_time": "약 8분"
      },
      {
        "music_room_lat": 37.50192851,
        "music_room_lon": 127.109546,
        "music_room_type": "노래방",
        "music_room_name": "SBS 노래연습장",
        "distance": 521.6664851554682,
        "walking_time": "약 8분"
      },
      {
        "music_room_lat": 37.50551811,
        "music_room_lon": 127.1100337,
        "music_room_type": "노래방",
        "music_room_name": "테크노",
        "distance": 523.9393589059565,
        "walking_time": "약 8분"
      }
    ],
    "park_station": [
      {
        "park_station_lat": 37.50241635,
        "park_station_lon": 127.1127618,
        "park_station_type": "주차장",
        "park_station_name": "센틀주차장",
        "distance": 235.59774170374365,
        "walking_time": "약 4분"
      },
      {
        "park_station_lat": 37.50632775,
        "park_station_lon": 127.1178797,
        "park_station_type": "주차장",
        "park_station_name": "공유) 12-37",
        "distance": 416.2796627914648,
        "walking_time": "약 7분"
      },
      {
        "park_station_lat": 37.50702621,
        "park_station_lon": 127.1133659,
        "park_station_type": "주차장",
        "park_station_name": "송파동",
        "distance": 452.7641923292422,
        "walking_time": "약 7분"
      },
      {
        "park_station_lat": 37.50589821,
        "park_station_lon": 127.1097796,
        "park_station_type": "주차장",
        "park_station_name": "송파근린공원",
        "distance": 564.6497788084324,
        "walking_time": "약 9분"
      },
      {
        "park_station_lat": 37.5079307,
        "park_station_lon": 127.1180913,
        "park_station_type": "주차장",
        "park_station_name": "방이고분",
        "distance": 580.4068356155377,
        "walking_time": "약 9분"
      },
      {
        "park_station_lat": 37.50527031,
        "park_station_lon": 127.1085983,
        "park_station_type": "주차장",
        "park_station_name": "신 송파주차장",
        "distance": 627.139776492056,
        "walking_time": "약 10분"
      },
      {
        "park_station_lat": 37.50578773,
        "park_station_lon": 127.1078362,
        "park_station_type": "주차장",
        "park_station_name": "석촌역",
        "distance": 711.2215329906876,
        "walking_time": "약 11분"
      },
      {
        "park_station_lat": 37.49691386,
        "park_station_lon": 127.1167037,
        "park_station_type": "주차장",
        "park_station_name": "비석거리",
        "distance": 714.466040900503,
        "walking_time": "약 11분"
      },
      {
        "park_station_lat": 37.50914917,
        "park_station_lon": 127.1077667,
        "park_station_type": "주차장",
        "park_station_name": "부영주차장",
        "distance": 930.6123460337874,
        "walking_time": "약 14분"
      },
      {
        "park_station_lat": 37.511556,
        "park_station_lon": 127.1135691,
        "park_station_type": "주차장",
        "park_station_name": "삼성주차장",
        "distance": 937.1230605160248,
        "walking_time": "약 14분"
      }
    ],
    "pc_room": [
      {
        "pc_room_lat": 37.5043441013731,
        "pc_room_lon": 127.114207097572,
        "pc_room_type": "PC방",
        "pc_room_name": "몽키타운",
        "distance": 152.9699395013889,
        "walking_time": "약 3분"
      },
      {
        "pc_room_lat": 37.5042410521594,
        "pc_room_lon": 127.113993867811,
        "pc_room_type": "PC방",
        "pc_room_name": "존앤존",
        "distance": 156.31449024553646,
        "walking_time": "약 3분"
      },
      {
        "pc_room_lat": 37.5060943255808,
        "pc_room_lon": 127.117128842613,
        "pc_room_type": "PC방",
        "pc_room_name": "피씨클럽거기",
        "distance": 359.833097840008,
        "walking_time": "약 6분"
      },
      {
        "pc_room_lat": 37.5061910863799,
        "pc_room_lon": 127.116954142891,
        "pc_room_type": "PC방",
        "pc_room_name": "핫플PC방",
        "distance": 362.6464876642229,
        "walking_time": "약 6분"
      },
      {
        "pc_room_lat": 37.5056896593404,
        "pc_room_lon": 127.11796886887,
        "pc_room_type": "PC방",
        "pc_room_name": "올스타PC방",
        "distance": 364.98005276606943,
        "walking_time": "약 6분"
      },
      {
        "pc_room_lat": 37.5066105446509,
        "pc_room_lon": 127.116639701972,
        "pc_room_type": "PC방",
        "pc_room_name": "샤먼PC CAFE",
        "distance": 395.8587278076597,
        "walking_time": "약 6분"
      },
      {
        "pc_room_lat": 37.5043767828743,
        "pc_room_lon": 127.11092396566,
        "pc_room_type": "PC방",
        "pc_room_name": "딸기PC방",
        "distance": 400.374278153102,
        "walking_time": "약 6분"
      },
      {
        "pc_room_lat": 37.5068260721295,
        "pc_room_lon": 127.115624287487,
        "pc_room_type": "PC방",
        "pc_room_name": "봉봉PC게임",
        "distance": 401.2315993272367,
        "walking_time": "약 6분"
      },
      {
        "pc_room_lat": 37.5028451320194,
        "pc_room_lon": 127.109801165729,
        "pc_room_type": "PC방",
        "pc_room_name": "Play# PC",
        "distance": 480.55490273355554,
        "walking_time": "약 8분"
      },
      {
        "pc_room_lat": 37.5022521743632,
        "pc_room_lon": 127.109419287195,
        "pc_room_type": "PC방",
        "pc_room_name": "B-ONE PC",
        "distance": 523.7647602855051,
        "walking_time": "약 8분"
      }
    ],
    "police_office": [
      {
        "police_office_lat": 37.49818447,
        "police_office_lon": 127.1253134,
        "police_office_type": "경찰소",
        "police_office_name": "가락지구대",
        "distance": 1051.9802202484343,
        "walking_time": "약 16분"
      },
      {
        "police_office_lat": 37.50689952,
        "police_office_lon": 127.128101,
        "police_office_type": "경찰소",
        "police_office_name": "오금파출소",
        "distance": 1206.6492732471604,
        "walking_time": "약 19분"
      },
      {
        "police_office_lat": 37.51024991,
        "police_office_lon": 127.1257464,
        "police_office_type": "경찰소",
        "police_office_name": "방이지구대",
        "distance": 1212.4559463921798,
        "walking_time": "약 19분"
      }
    ],
    "post_office": [
      {
        "post_office_lat": 37.50277096,
        "post_office_lon": 127.116404,
        "post_office_type": "우체국",
        "post_office_name": "서울송파한양우편취급국",
        "distance": 115.76915669850564,
        "walking_time": "약 2분"
      },
      {
        "post_office_lat": 37.5059055,
        "post_office_lon": 127.1097882,
        "post_office_type": "우체국",
        "post_office_name": "서울송파1동우체국",
        "distance": 564.4309057551542,
        "walking_time": "약 9분"
      },
      {
        "post_office_lat": 37.50898861,
        "post_office_lon": 127.1151301,
        "post_office_type": "우체국",
        "post_office_name": "서울방이동우체국",
        "distance": 640.2184837220024,
        "walking_time": "약 10분"
      },
      {
        "post_office_lat": 37.49572319,
        "post_office_lon": 127.1210871,
        "post_office_type": "우체국",
        "post_office_name": "서울가락본동우체국",
        "distance": 981.9804655296364,
        "walking_time": "약 15분"
      },
      {
        "post_office_lat": 37.50257386,
        "post_office_lon": 127.128043,
        "post_office_type": "우체국",
        "post_office_name": "서울송파우체국",
        "distance": 1132.9059324378427,
        "walking_time": "약 17분"
      },
      {
        "post_office_lat": 37.50821281,
        "post_office_lon": 127.1274412,
        "post_office_type": "우체국",
        "post_office_name": "서울오금대림우편취급국",
        "distance": 1211.4562259372094,
        "walking_time": "약 19분"
      },
      {
        "post_office_lat": 37.49761457,
        "post_office_lon": 127.1025318,
        "post_office_type": "우체국",
        "post_office_name": "헬리오시티우편취급국",
        "distance": 1282.3117884288952,
        "walking_time": "약 20분"
      },
      {
        "post_office_lat": 37.4900237,
        "post_office_lon": 127.1112679,
        "post_office_type": "우체국",
        "post_office_name": "서울문정동우체국",
        "distance": 1509.6018112811132,
        "walking_time": "약 23분"
      },
      {
        "post_office_lat": 37.51733948,
        "post_office_lon": 127.1007161,
        "post_office_type": "우체국",
        "post_office_name": "서울장미아파트우편취급국",
        "distance": 2024.636314403528,
        "walking_time": "약 31분"
      }
    ],
    "public_health_center": [
      {
        "public_health_center_lat": 37.51447718,
        "public_health_center_lon": 127.10586,
        "public_health_center_type": "보건소",
        "public_health_center_name": "송파구보건소",
        "distance": 1498.770033187664,
        "walking_time": "약 23분"
      }
    ],
    "school": [
      {
        "school_lat": 37.5017941334924,
        "school_lon": 127.114241325581,
        "school_type": "고등학교",
        "school_name": "잠실여자고등학교",
        "distance": 181.94856417000727,
        "walking_time": "약 3분"
      },
      {
        "school_lat": 37.5017941334924,
        "school_lon": 127.114241325581,
        "school_type": "고등학교",
        "school_name": "일신여자상업고등학교",
        "distance": 181.94856417000727,
        "walking_time": "약 3분"
      },
      {
        "school_lat": 37.5017941334924,
        "school_lon": 127.114241325581,
        "school_type": "중학교",
        "school_name": "일신여자중학교",
        "distance": 181.94856417000727,
        "walking_time": "약 3분"
      },
      {
        "school_lat": 37.5010563298142,
        "school_lon": 127.116425801136,
        "school_type": "고등학교",
        "school_name": "가락고등학교",
        "distance": 263.9762206971304,
        "walking_time": "약 4분"
      },
      {
        "school_lat": 37.5023397085349,
        "school_lon": 127.11897125744,
        "school_type": "중학교",
        "school_name": "가락중학교",
        "distance": 344.8587962131753,
        "walking_time": "약 6분"
      },
      {
        "school_lat": 37.4998119038214,
        "school_lon": 127.113605457993,
        "school_type": "초등학교",
        "school_name": "서울중대초등학교",
        "distance": 406.2579198076487,
        "walking_time": "약 7분"
      },
      {
        "school_lat": 37.5003207198096,
        "school_lon": 127.119700425145,
        "school_type": "초등학교",
        "school_name": "서울신가초등학교",
        "distance": 510.3773431657909,
        "walking_time": "약 8분"
      },
      {
        "school_lat": 37.5069549745149,
        "school_lon": 127.111247174893,
        "school_type": "초등학교",
        "school_name": "서울송파초등학교",
        "distance": 542.8331382229441,
        "walking_time": "약 9분"
      },
      {
        "school_lat": 37.5014549929626,
        "school_lon": 127.121117352937,
        "school_type": "중학교",
        "school_name": "석촌중학교",
        "distance": 555.8941439020655,
        "walking_time": "약 9분"
      },
      {
        "school_lat": 37.5083995194679,
        "school_lon": 127.120469638696,
        "school_type": "고등학교",
        "school_name": "방산고등학교",
        "distance": 737.6274113496219,
        "walking_time": "약 12분"
      }
    ],
    "self_laundromat": [
      {
        "self_laundromat_lat": 37.50397122,
        "self_laundromat_lon": 127.1114248,
        "self_laundromat_type": "셀프 빨래방",
        "self_laundromat_name": "더런드리셀프빨래방 송파동점",
        "distance": 345.3405096487965,
        "walking_time": "약 6분"
      },
      {
        "self_laundromat_lat": 37.50397122,
        "self_laundromat_lon": 127.1114248,
        "self_laundromat_type": "셀프 빨래방",
        "self_laundromat_name": "더런드리셀프빨래방 송파동점",
        "distance": 345.3405096487965,
        "walking_time": "약 6분"
      },
      {
        "self_laundromat_lat": 37.50752987,
        "self_laundromat_lon": 127.1136474,
        "self_laundromat_type": "셀프 빨래방",
        "self_laundromat_name": "워시팡팡 셀프빨래방 24시 송파점",
        "distance": 497.8531106612816,
        "walking_time": "약 8분"
      },
      {
        "self_laundromat_lat": 37.50752987,
        "self_laundromat_lon": 127.1136474,
        "self_laundromat_type": "셀프 빨래방",
        "self_laundromat_name": "워시팡팡 셀프빨래방 24시 송파점",
        "distance": 497.8531106612816,
        "walking_time": "약 8분"
      },
      {
        "self_laundromat_lat": 37.50770698,
        "self_laundromat_lon": 127.1223366,
        "self_laundromat_type": "셀프 빨래방",
        "self_laundromat_name": "코인워시24셀프빨래방 방이1동점",
        "distance": 800.600799012374,
        "walking_time": "약 12분"
      },
      {
        "self_laundromat_lat": 37.50770698,
        "self_laundromat_lon": 127.1223366,
        "self_laundromat_type": "셀프 빨래방",
        "self_laundromat_name": "코인워시24셀프빨래방 방이1동점",
        "distance": 800.600799012374,
        "walking_time": "약 12분"
      },
      {
        "self_laundromat_lat": 37.51033097,
        "self_laundromat_lon": 127.1170047,
        "self_laundromat_type": "셀프 빨래방",
        "self_laundromat_name": "더런드리셀프빨래방 방이점",
        "distance": 804.8483872836368,
        "walking_time": "약 13분"
      },
      {
        "self_laundromat_lat": 37.51033097,
        "self_laundromat_lon": 127.1170047,
        "self_laundromat_type": "셀프 빨래방",
        "self_laundromat_name": "더런드리셀프빨래방 방이점",
        "distance": 804.8483872836368,
        "walking_time": "약 13분"
      },
      {
        "self_laundromat_lat": 37.4961402,
        "self_laundromat_lon": 127.1211482,
        "self_laundromat_type": "셀프 빨래방",
        "self_laundromat_name": "에코런드렛 셀프빨래방&amp;아이스크림",
        "distance": 945.8382115498212,
        "walking_time": "약 15분"
      },
      {
        "self_laundromat_lat": 37.4961402,
        "self_laundromat_lon": 127.1211482,
        "self_laundromat_type": "셀프 빨래방",
        "self_laundromat_name": "에코런드렛 셀프빨래방&amp;아이스크림",
        "distance": 945.8382115498212,
        "walking_time": "약 15분"
      }
    ],
    "subway": [
      {
        "subway_lat": 37.4996866748478,
        "subway_lon": 127.112179893361,
        "subway_type": "지하철",
        "subway_name": "8호선-송파역",
        "distance": 477.0966729528536,
        "walking_time": "약 8분"
      },
      {
        "subway_lat": 37.5104581017222,
        "subway_lon": 127.112744120149,
        "subway_type": "지하철",
        "subway_name": "9호선-송파나루역",
        "distance": 832.8728389457959,
        "walking_time": "약 13분"
      },
      {
        "subway_lat": 37.5059496431187,
        "subway_lon": 127.106345349428,
        "subway_type": "지하철",
        "subway_name": "8호선-석촌역",
        "distance": 839.7415463192758,
        "walking_time": "약 13분"
      },
      {
        "subway_lat": 37.5059496431187,
        "subway_lon": 127.106345349428,
        "subway_type": "지하철",
        "subway_name": "9호선-석촌역",
        "distance": 839.7415463192758,
        "walking_time": "약 13분"
      },
      {
        "subway_lat": 37.5085564458698,
        "subway_lon": 127.125854699016,
        "subway_type": "지하철",
        "subway_name": "5호선-방이역",
        "distance": 1108.8000117969098,
        "walking_time": "약 17분"
      },
      {
        "subway_lat": 37.5022659793733,
        "subway_lon": 127.127879247544,
        "subway_type": "지하철",
        "subway_name": "3호선-오금역",
        "distance": 1121.2523410820515,
        "walking_time": "약 17분"
      },
      {
        "subway_lat": 37.5022659793733,
        "subway_lon": 127.127879247544,
        "subway_type": "지하철",
        "subway_name": "5호선-오금역",
        "distance": 1121.2523410820515,
        "walking_time": "약 17분"
      },
      {
        "subway_lat": 37.4956031419934,
        "subway_lon": 127.124067847413,
        "subway_type": "지하철",
        "subway_name": "3호선-경찰병원역",
        "distance": 1152.2908150959531,
        "walking_time": "약 18분"
      },
      {
        "subway_lat": 37.4927440321316,
        "subway_lon": 127.118485741487,
        "subway_type": "지하철",
        "subway_name": "3호선-가락시장역",
        "distance": 1201.066285232601,
        "walking_time": "약 18분"
      },
      {
        "subway_lat": 37.4927440321316,
        "subway_lon": 127.118485741487,
        "subway_type": "지하철",
        "subway_name": "8호선-가락시장역",
        "distance": 1201.066285232601,
        "walking_time": "약 18분"
      }
    ],
    "supermarket": [
      {
        "supermarket_lat": 37.50516461,
        "supermarket_lon": 127.1145255,
        "supermarket_type": "마트",
        "supermarket_name": "한화 송파지점",
        "distance": 223.6818878116896,
        "walking_time": "약 4분"
      },
      {
        "supermarket_lat": 37.50516461,
        "supermarket_lon": 127.1145255,
        "supermarket_type": "마트",
        "supermarket_name": "롯데쇼핑(주)롯데슈퍼송파점",
        "distance": 223.6818878116896,
        "walking_time": "약 4분"
      },
      {
        "supermarket_lat": 37.50636817,
        "supermarket_lon": 127.1167393,
        "supermarket_type": "마트",
        "supermarket_name": "홈플러스(주) 익스프레스 송파점",
        "distance": 373.4230510874222,
        "walking_time": "약 6분"
      },
      {
        "supermarket_lat": 37.50140348,
        "supermarket_lon": 127.1076013,
        "supermarket_type": "마트",
        "supermarket_name": "엄마손상가",
        "distance": 702.7340522939242,
        "walking_time": "약 11분"
      },
      {
        "supermarket_lat": 37.49631121,
        "supermarket_lon": 127.1183069,
        "supermarket_type": "마트",
        "supermarket_name": "(주)이마트에브리데이 가락동점",
        "distance": 816.0593572662322,
        "walking_time": "약 13분"
      },
      {
        "supermarket_lat": 37.50733798,
        "supermarket_lon": 127.1231562,
        "supermarket_type": "마트",
        "supermarket_name": "(주)지에스리테일 방이점",
        "distance": 835.2948228922348,
        "walking_time": "약 13분"
      },
      {
        "supermarket_lat": 37.51249624,
        "supermarket_lon": 127.1121003,
        "supermarket_type": "마트",
        "supermarket_name": "GS THE FRESH 송파나루역점",
        "distance": 1066.47109999822,
        "walking_time": "약 16분"
      },
      {
        "supermarket_lat": 37.49761457,
        "supermarket_lon": 127.1025318,
        "supermarket_type": "마트",
        "supermarket_name": "이마트에브리데이 송파점",
        "distance": 1282.3117884288952,
        "walking_time": "약 20분"
      },
      {
        "supermarket_lat": 37.49176204,
        "supermarket_lon": 127.1178428,
        "supermarket_type": "마트",
        "supermarket_name": "롯데쇼핑(주)롯데마트 송파점",
        "distance": 1296.0553607061045,
        "walking_time": "약 20분"
      },
      {
        "supermarket_lat": 37.50995749,
        "supermarket_lon": 127.1275468,
        "supermarket_type": "마트",
        "supermarket_name": "올림픽파크동부센트레빌 상가",
        "distance": 1319.20610066558,
        "walking_time": "약 20분"
      }
    ],
    "theater": [
      {
        "theater_lat": 37.5137129859207,
        "theater_lon": 127.104301829165,
        "theater_type": "영화관",
        "theater_name": "롯데시네마 월드타워",
        "distance": 1512.2935714783869,
        "walking_time": "약 23분"
      }
    ],
    "university": [
      {
        "university_lat": 37.5198703733617,
        "university_lon": 127.129660488669,
        "university_type": "대학교",
        "university_name": "한국체육대학교",
        "distance": 2245.844780247186,
        "walking_time": "약 34분"
      }
    ]
  }
}