{
  "클러스터_위도": 37.635292,
  "클러스터_경도": 127.039475,
  "클러스터_level": 3.0,
  "facilities": {
    "bus": [
      {
        "bus_lat": 37.63548391,
        "bus_lon": 127.0384278,
        "bus_type": "버스정류장",
        "bus_name": "창번교",
        "distance": 94.64986878842642,
        "walking_time": "약 2분"
      },
      {
        "bus_lat": 37.63546864,
        "bus_lon": 127.038224,
        "bus_type": "버스정류장",
        "bus_name": "창번교앞",
        "distance": 111.89625299896385,
        "walking_time": "약 2분"
      },
      {
        "bus_lat": 37.63370446,
        "bus_lon": 127.0402309,
        "bus_type": "버스정류장",
        "bus_name": "신화초교입구",
        "distance": 188.658894341156,
        "walking_time": "약 3분"
      },
      {
        "bus_lat": 37.63340725,
        "bus_lon": 127.0400822,
        "bus_type": "버스정류장",
        "bus_name": "신화초교입구",
        "distance": 216.28785629210628,
        "walking_time": "약 4분"
      },
      {
        "bus_lat": 37.63410933,
        "bus_lon": 127.0414906,
        "bus_type": "버스정류장",
        "bus_name": "북서울농협창동지점",
        "distance": 220.8988254534318,
        "walking_time": "약 4분"
      },
      {
        "bus_lat": 37.63385199,
        "bus_lon": 127.0412155,
        "bus_type": "버스정류장",
        "bus_name": "북서울농협창동지점",
        "distance": 221.65049720324345,
        "walking_time": "약 4분"
      },
      {
        "bus_lat": 37.6332852,
        "bus_lon": 127.0385729,
        "bus_type": "버스정류장",
        "bus_name": "신창교",
        "distance": 236.86363173942752,
        "walking_time": "약 4분"
      },
      {
        "bus_lat": 37.633019,
        "bus_lon": 127.039682,
        "bus_type": "버스정류장",
        "bus_name": "신창교",
        "distance": 253.40251813735657,
        "walking_time": "약 4분"
      },
      {
        "bus_lat": 37.63438127,
        "bus_lon": 127.0367038,
        "bus_type": "버스정류장",
        "bus_name": "한성운수차고지",
        "distance": 264.20305175206,
        "walking_time": "약 4분"
      },
      {
        "bus_lat": 37.63449251,
        "bus_lon": 127.0423499,
        "bus_type": "버스정류장",
        "bus_name": "창3동염광아트필",
        "distance": 268.31126502858905,
        "walking_time": "약 5분"
      }
    ],
    "community_center": [
      {
        "community_center_lat": 37.6318813,
        "community_center_lon": 127.0390622,
        "community_center_type": "주민센터",
        "community_center_name": "번2동 자치회관",
        "distance": 380.9906269009477,
        "walking_time": "약 6분"
      },
      {
        "community_center_lat": 37.63799988,
        "community_center_lon": 127.0429904,
        "community_center_type": "주민센터",
        "community_center_name": "창3동 자치회관",
        "distance": 431.8372560453962,
        "walking_time": "약 7분"
      },
      {
        "community_center_lat": 37.64141508,
        "community_center_lon": 127.035653,
        "community_center_type": "주민센터",
        "community_center_name": "창2동 자치회관",
        "distance": 759.4884597098674,
        "walking_time": "약 12분"
      },
      {
        "community_center_lat": 37.63789129,
        "community_center_lon": 127.0288472,
        "community_center_type": "주민센터",
        "community_center_name": "번1동 자치회관",
        "distance": 979.4495612950632,
        "walking_time": "약 15분"
      },
      {
        "community_center_lat": 37.62586737,
        "community_center_lon": 127.0465907,
        "community_center_type": "주민센터",
        "community_center_name": "번3동 자치회관",
        "distance": 1221.025252502801,
        "walking_time": "약 19분"
      },
      {
        "community_center_lat": 37.62709135,
        "community_center_lon": 127.0269751,
        "community_center_type": "주민센터",
        "community_center_name": "미아동 자치회관",
        "distance": 1429.400033681099,
        "walking_time": "약 22분"
      },
      {
        "community_center_lat": 37.6387147,
        "community_center_lon": 127.0231464,
        "community_center_type": "주민센터",
        "community_center_name": "수유3동 자치회관",
        "distance": 1487.3286192925689,
        "walking_time": "약 23분"
      },
      {
        "community_center_lat": 37.64837711,
        "community_center_lon": 127.0438238,
        "community_center_type": "주민센터",
        "community_center_name": "창1동 자치회관",
        "distance": 1504.5387906102433,
        "walking_time": "약 23분"
      },
      {
        "community_center_lat": 37.64898155,
        "community_center_lon": 127.0279211,
        "community_center_type": "주민센터",
        "community_center_name": "쌍문3동 자치회관",
        "distance": 1830.8547906411093,
        "walking_time": "약 28분"
      },
      {
        "community_center_lat": 37.64803784,
        "community_center_lon": 127.0260513,
        "community_center_type": "주민센터",
        "community_center_name": "쌍문1동 자치회관",
        "distance": 1845.4428724963911,
        "walking_time": "약 28분"
      }
    ],
    "convenience_store": [
      {
        "convenience_store_lat": 37.63461514,
        "convenience_store_lon": 127.0409998,
        "convenience_store_type": "편의점",
        "convenience_store_name": "GS25 창동소망점",
        "distance": 153.92499038946286,
        "walking_time": "약 3분"
      },
      {
        "convenience_store_lat": 37.63432152,
        "convenience_store_lon": 127.0412037,
        "convenience_store_type": "편의점",
        "convenience_store_name": "GS25 신창동점",
        "distance": 186.5944074897559,
        "walking_time": "약 3분"
      },
      {
        "convenience_store_lat": 37.63720983,
        "convenience_store_lon": 127.0390246,
        "convenience_store_type": "편의점",
        "convenience_store_name": "GS25 신창동점",
        "distance": 216.9095756918944,
        "walking_time": "약 4분"
      },
      {
        "convenience_store_lat": 37.63674149,
        "convenience_store_lon": 127.0411835,
        "convenience_store_type": "편의점",
        "convenience_store_name": "GS25 신창초교점",
        "distance": 220.47889231933985,
        "walking_time": "약 4분"
      },
      {
        "convenience_store_lat": 37.63653953,
        "convenience_store_lon": 127.0420843,
        "convenience_store_type": "편의점",
        "convenience_store_name": "GS25 신창초교점",
        "distance": 268.3929010264098,
        "walking_time": "약 5분"
      },
      {
        "convenience_store_lat": 37.63470155,
        "convenience_store_lon": 127.04275,
        "convenience_store_type": "편의점",
        "convenience_store_name": "CU 도봉초안점",
        "distance": 295.76630719153513,
        "walking_time": "약 5분"
      },
      {
        "convenience_store_lat": 37.63464015,
        "convenience_store_lon": 127.0361299,
        "convenience_store_type": "편의점",
        "convenience_store_name": "CU 센트로힐점",
        "distance": 303.34685384251213,
        "walking_time": "약 5분"
      },
      {
        "convenience_store_lat": 37.63819101,
        "convenience_store_lon": 127.0406025,
        "convenience_store_type": "편의점",
        "convenience_store_name": "CU 사랑점",
        "distance": 337.2978063031836,
        "walking_time": "약 6분"
      },
      {
        "convenience_store_lat": 37.63858829,
        "convenience_store_lon": 127.039185,
        "convenience_store_type": "편의점",
        "convenience_store_name": "GS25 강북번동점",
        "distance": 367.4191807636972,
        "walking_time": "약 6분"
      },
      {
        "convenience_store_lat": 37.63198031,
        "convenience_store_lon": 127.0382705,
        "convenience_store_type": "편의점",
        "convenience_store_name": "GS25 강북번동점",
        "distance": 383.214244724385,
        "walking_time": "약 6분"
      }
    ],
    "daycare": [
      {
        "daycare_lat": 37.63603776,
        "daycare_lon": 127.0396893,
        "daycare_type": "어린이집",
        "daycare_name": "예일어린이집",
        "distance": 85.04472572669218,
        "walking_time": "약 2분"
      },
      {
        "daycare_lat": 37.63603776,
        "daycare_lon": 127.0396893,
        "daycare_type": "어린이집",
        "daycare_name": "예일키즈어린이집",
        "distance": 85.04472572669218,
        "walking_time": "약 2분"
      },
      {
        "daycare_lat": 37.63425696,
        "daycare_lon": 127.0401983,
        "daycare_type": "어린이집",
        "daycare_name": "한우리어린이집",
        "distance": 131.53951314944845,
        "walking_time": "약 2분"
      },
      {
        "daycare_lat": 37.63651808,
        "daycare_lon": 127.0393659,
        "daycare_type": "어린이집",
        "daycare_name": "딩동댕어린이집",
        "distance": 136.67193743155732,
        "walking_time": "약 3분"
      },
      {
        "daycare_lat": 37.63635645,
        "daycare_lon": 127.0383279,
        "daycare_type": "어린이집",
        "daycare_name": "본향선교어린이집",
        "distance": 155.60299212894566,
        "walking_time": "약 3분"
      },
      {
        "daycare_lat": 37.63405384,
        "daycare_lon": 127.040704,
        "daycare_type": "어린이집",
        "daycare_name": "한우리예체능어린이집",
        "distance": 175.12034911573429,
        "walking_time": "약 3분"
      },
      {
        "daycare_lat": 37.63712707,
        "daycare_lon": 127.0396855,
        "daycare_type": "어린이집",
        "daycare_name": "신도아이숲어린이집",
        "distance": 204.89062694460247,
        "walking_time": "약 4분"
      },
      {
        "daycare_lat": 37.63462305,
        "daycare_lon": 127.0364729,
        "daycare_type": "어린이집",
        "daycare_name": "어린왕자어린이집",
        "distance": 274.62208971289533,
        "walking_time": "약 5분"
      },
      {
        "daycare_lat": 37.6349234,
        "daycare_lon": 127.0428644,
        "daycare_type": "어린이집",
        "daycare_name": "무지개어린이집",
        "distance": 301.261510982296,
        "walking_time": "약 5분"
      },
      {
        "daycare_lat": 37.63496116581506,
        "daycare_lon": 127.0428825893358,
        "daycare_type": "어린이집",
        "daycare_name": "무지개어린이집",
        "distance": 302.30862561149974,
        "walking_time": "약 5분"
      }
    ],
    "education": [
      {
        "education_lat": 37.64469094,
        "education_lon": 127.0437683,
        "education_type": "도서관",
        "education_name": "도봉문화정보도서관",
        "distance": 1111.382511003269,
        "walking_time": "약 17분"
      },
      {
        "education_lat": 37.62511539,
        "education_lon": 127.0360797,
        "education_type": "도서관",
        "education_name": "강북문화정보도서관",
        "distance": 1170.4233628108973,
        "walking_time": "약 18분"
      },
      {
        "education_lat": 37.62254520644527,
        "education_lon": 127.04139068396869,
        "education_type": "미술관/갤러리",
        "education_name": "북서울꿈의숲 상상톡톡미술관",
        "distance": 1427.3834236086298,
        "walking_time": "약 22분"
      },
      {
        "education_lat": 37.64856049,
        "education_lon": 127.0338822,
        "education_type": "공연장",
        "education_name": "극단 대학로극장",
        "distance": 1555.400005408263,
        "walking_time": "약 24분"
      },
      {
        "education_lat": 37.62025446,
        "education_lon": 127.0443247,
        "education_type": "공연장",
        "education_name": "북서울꿈의숲아트센터 퍼포먼스홀",
        "distance": 1725.7809764070553,
        "walking_time": "약 26분"
      },
      {
        "education_lat": 37.62025446,
        "education_lon": 127.0443247,
        "education_type": "공연장",
        "education_name": "북서울꿈의숲아트센터",
        "distance": 1725.7809764070553,
        "walking_time": "약 26분"
      },
      {
        "education_lat": 37.62025446,
        "education_lon": 127.0443247,
        "education_type": "미술관/갤러리",
        "education_name": "북서울꿈의숲아트센터 드림갤러리",
        "distance": 1725.7809764070553,
        "walking_time": "약 26분"
      },
      {
        "education_lat": 37.64704212,
        "education_lon": 127.0262302,
        "education_type": "도서관",
        "education_name": "쌍문채움도서관",
        "distance": 1751.3167384771514,
        "walking_time": "약 27분"
      },
      {
        "education_lat": 37.62308136,
        "education_lon": 127.0215555,
        "education_type": "도서관",
        "education_name": "강북청소년문화정보도서관",
        "distance": 2081.777797535276,
        "walking_time": "약 32분"
      }
    ],
    "electric_gas_station": [
      {
        "electric_gas_station_lat": 37.6446776,
        "electric_gas_station_lon": 127.0351607,
        "electric_gas_station_type": "전기차 충전소",
        "electric_gas_station_name": "빅마켓 도봉점",
        "distance": 1110.6188469750998,
        "walking_time": "약 17분"
      }
    ],
    "fitness": [
      {
        "fitness_lat": 37.63409604,
        "fitness_lon": 127.0411072,
        "fitness_type": "운동시설",
        "fitness_name": "스마일보이짐 창동점",
        "distance": 195.8124160552833,
        "walking_time": "약 3분"
      },
      {
        "fitness_lat": 37.63804247,
        "fitness_lon": 127.0372381,
        "fitness_type": "운동시설",
        "fitness_name": "슈퍼스타S 휘트니스",
        "distance": 363.7780605450467,
        "walking_time": "약 6분"
      },
      {
        "fitness_lat": 37.63997921,
        "fitness_lon": 127.0389752,
        "fitness_type": "운동시설",
        "fitness_name": "주식회사 바디크러쉬",
        "distance": 523.0487387557869,
        "walking_time": "약 8분"
      },
      {
        "fitness_lat": 37.64016493,
        "fitness_lon": 127.0391511,
        "fitness_type": "운동시설",
        "fitness_name": "라이프플러스휘트니스",
        "distance": 542.5951839271843,
        "walking_time": "약 9분"
      },
      {
        "fitness_lat": 37.62883597,
        "fitness_lon": 127.0398738,
        "fitness_type": "운동시설",
        "fitness_name": "라이프 플러스 휘트니스",
        "distance": 718.7362689064577,
        "walking_time": "약 11분"
      },
      {
        "fitness_lat": 37.640693,
        "fitness_lon": 127.0345239,
        "fitness_type": "운동시설",
        "fitness_name": "벙커짐",
        "distance": 742.1184667593395,
        "walking_time": "약 12분"
      },
      {
        "fitness_lat": 37.62823008,
        "fitness_lon": 127.0395375,
        "fitness_type": "운동시설",
        "fitness_name": "라인짐2호점",
        "distance": 785.2689642205172,
        "walking_time": "약 12분"
      },
      {
        "fitness_lat": 37.64291383,
        "fitness_lon": 127.036641,
        "fitness_type": "운동시설",
        "fitness_name": "U&I Gym",
        "distance": 883.4825888989687,
        "walking_time": "약 14분"
      },
      {
        "fitness_lat": 37.62746252,
        "fitness_lon": 127.041411,
        "fitness_type": "운동시설",
        "fitness_name": "라인짐",
        "distance": 887.134406601973,
        "walking_time": "약 14분"
      },
      {
        "fitness_lat": 37.62770179,
        "fitness_lon": 127.0439903,
        "fitness_type": "운동시설",
        "fitness_name": "번 휘트니스",
        "distance": 932.9673337435852,
        "walking_time": "약 14분"
      }
    ],
    "gas_station": [
      {
        "gas_station_lat": 37.63426997,
        "gas_station_lon": 127.0377638,
        "gas_station_type": "주유소",
        "gas_station_name": "세원주유소",
        "distance": 188.73444857405823,
        "walking_time": "약 3분"
      },
      {
        "gas_station_lat": 37.63556362,
        "gas_station_lon": 127.0328871,
        "gas_station_type": "주유소",
        "gas_station_name": "현대오일뱅크㈜ 번동셀프주유소",
        "distance": 580.8939211548711,
        "walking_time": "약 9분"
      },
      {
        "gas_station_lat": 37.6414534,
        "gas_station_lon": 127.0402982,
        "gas_station_type": "주유소",
        "gas_station_name": "대성산업㈜ 신창주유소",
        "distance": 688.9402256441838,
        "walking_time": "약 11분"
      },
      {
        "gas_station_lat": 37.63501625,
        "gas_station_lon": 127.0313097,
        "gas_station_type": "주유소",
        "gas_station_name": "㈜미래아스팔트 덕릉로주유소",
        "distance": 719.6648654032198,
        "walking_time": "약 11분"
      },
      {
        "gas_station_lat": 37.64222693,
        "gas_station_lon": 127.029534,
        "gas_station_type": "주유소",
        "gas_station_name": "수유동주유소",
        "distance": 1166.5527964327175,
        "walking_time": "약 18분"
      },
      {
        "gas_station_lat": 37.64463064,
        "gas_station_lon": 127.032708,
        "gas_station_type": "주유소",
        "gas_station_name": "동일석유㈜ 창동주유소",
        "distance": 1197.2145580584013,
        "walking_time": "약 18분"
      },
      {
        "gas_station_lat": 37.64497226,
        "gas_station_lon": 127.0321589,
        "gas_station_type": "주유소",
        "gas_station_name": "삼미상사㈜ 북부주유소",
        "distance": 1254.4357313079956,
        "walking_time": "약 19분"
      },
      {
        "gas_station_lat": 37.64684419,
        "gas_station_lon": 127.0394451,
        "gas_station_type": "주유소",
        "gas_station_name": "구도일주유소 파크빌",
        "distance": 1284.5476175019855,
        "walking_time": "약 20분"
      },
      {
        "gas_station_lat": 37.62652601,
        "gas_station_lon": 127.0264596,
        "gas_station_type": "주유소",
        "gas_station_name": "씨앤에스에너지㈜ 미아셀프주유소",
        "distance": 1504.5905024731196,
        "walking_time": "약 23분"
      },
      {
        "gas_station_lat": 37.62163476,
        "gas_station_lon": 127.0455418,
        "gas_station_type": "주유소",
        "gas_station_name": "에덴주유소",
        "distance": 1609.8572884546636,
        "walking_time": "약 25분"
      }
    ],
    "hospital": [
      {
        "hospital_lat": 37.63385589,
        "hospital_lon": 127.0412147,
        "hospital_type": "병원",
        "hospital_name": "고려가정의학과의원",
        "distance": 221.2886441707809,
        "walking_time": "약 4분"
      },
      {
        "hospital_lat": 37.63403782,
        "hospital_lon": 127.0416775,
        "hospital_type": "병원",
        "hospital_name": "신창기독의원",
        "distance": 238.88068640344105,
        "walking_time": "약 4분"
      },
      {
        "hospital_lat": 37.63747546,
        "hospital_lon": 127.0373003,
        "hospital_type": "병원",
        "hospital_name": "연세외과의원",
        "distance": 309.2197950813835,
        "walking_time": "약 5분"
      },
      {
        "hospital_lat": 37.63780395,
        "hospital_lon": 127.0376253,
        "hospital_type": "병원",
        "hospital_name": "서현내과의원",
        "distance": 323.3357893643647,
        "walking_time": "약 5분"
      },
      {
        "hospital_lat": 37.63842158,
        "hospital_lon": 127.0381475,
        "hospital_type": "병원",
        "hospital_name": "임안과의원",
        "distance": 367.1013119894545,
        "walking_time": "약 6분"
      },
      {
        "hospital_lat": 37.6318813,
        "hospital_lon": 127.0390622,
        "hospital_type": "병원",
        "hospital_name": "강북구보건소",
        "distance": 380.9906269009477,
        "walking_time": "약 6분"
      },
      {
        "hospital_lat": 37.63827012,
        "hospital_lon": 127.0373344,
        "hospital_type": "병원",
        "hospital_name": "양시영내과의원",
        "distance": 381.0383614226673,
        "walking_time": "약 6분"
      },
      {
        "hospital_lat": 37.63848635,
        "hospital_lon": 127.0376405,
        "hospital_type": "병원",
        "hospital_name": "남강한의원",
        "distance": 390.2024561110086,
        "walking_time": "약 6분"
      },
      {
        "hospital_lat": 37.638746,
        "hospital_lon": 127.038511,
        "hospital_type": "병원",
        "hospital_name": "강준구내과의원",
        "distance": 393.33585686985657,
        "walking_time": "약 6분"
      },
      {
        "hospital_lat": 37.638746,
        "hospital_lon": 127.038511,
        "hospital_type": "병원",
        "hospital_name": "박진수치과의원",
        "distance": 393.33585686985657,
        "walking_time": "약 6분"
      }
    ],
    "music_room": [
      {
        "music_room_lat": 37.63409604,
        "music_room_lon": 127.0411072,
        "music_room_type": "노래방",
        "music_room_name": "네박자 노래연습장",
        "distance": 195.8124160552833,
        "walking_time": "약 3분"
      },
      {
        "music_room_lat": 37.63709607,
        "music_room_lon": 127.0389292,
        "music_room_type": "노래방",
        "music_room_name": "따봉노래연습장",
        "distance": 206.28033823208372,
        "walking_time": "약 4분"
      },
      {
        "music_room_lat": 37.63724541,
        "music_room_lon": 127.0385288,
        "music_room_type": "노래방",
        "music_room_name": "애니 노래연습장",
        "distance": 232.6409246592396,
        "walking_time": "약 4분"
      },
      {
        "music_room_lat": 37.63419535,
        "music_room_lon": 127.0420754,
        "music_room_type": "노래방",
        "music_room_name": "신창노래연습장",
        "distance": 259.4296691465816,
        "walking_time": "약 4분"
      },
      {
        "music_room_lat": 37.63749128,
        "music_room_lon": 127.0377117,
        "music_room_type": "노래방",
        "music_room_name": "세븐 노래연습장",
        "distance": 289.6762450808235,
        "walking_time": "약 5분"
      },
      {
        "music_room_lat": 37.63749128,
        "music_room_lon": 127.0377117,
        "music_room_type": "노래방",
        "music_room_name": "OK노래연습장",
        "distance": 289.6762450808235,
        "walking_time": "약 5분"
      },
      {
        "music_room_lat": 37.63761967,
        "music_room_lon": 127.0379884,
        "music_room_type": "노래방",
        "music_room_name": "송송 노래연습장",
        "distance": 290.04494056145643,
        "walking_time": "약 5분"
      },
      {
        "music_room_lat": 37.63794195,
        "music_room_lon": 127.0396368,
        "music_room_type": "노래방",
        "music_room_name": "궁전노래방",
        "distance": 295.0052355259319,
        "walking_time": "약 5분"
      },
      {
        "music_room_lat": 37.6376672,
        "music_room_lon": 127.0378368,
        "music_room_type": "노래방",
        "music_room_name": "하모니 노래연습장",
        "distance": 300.9367419780969,
        "walking_time": "약 5분"
      },
      {
        "music_room_lat": 37.63761211,
        "music_room_lon": 127.0373899,
        "music_room_type": "노래방",
        "music_room_name": "소리샘 노래연습장",
        "distance": 316.6489099763768,
        "walking_time": "약 5분"
      }
    ],
    "park": [
      {
        "park_lat": 37.6327957,
        "park_lon": 127.0317269,
        "park_type": "공원",
        "park_name": "오동근린공원",
        "distance": 736.5868080448413,
        "walking_time": "약 11분"
      },
      {
        "park_lat": 37.6233355,
        "park_lon": 127.0407344,
        "park_type": "공원",
        "park_name": "북서울꿈의숲",
        "distance": 1334.1201011784017,
        "walking_time": "약 20분"
      },
      {
        "park_lat": 37.6479483,
        "park_lon": 127.0405382,
        "park_type": "공원",
        "park_name": "초안산생태공원",
        "distance": 1410.4264920795508,
        "walking_time": "약 22분"
      },
      {
        "park_lat": 37.648316,
        "park_lon": 127.0455446,
        "park_type": "공원",
        "park_name": "초안산근린공원",
        "distance": 1543.664032369166,
        "walking_time": "약 24분"
      }
    ],
    "park_station": [
      {
        "park_station_lat": 37.63306872,
        "park_station_lon": 127.0414081,
        "park_station_type": "주차장",
        "park_station_name": "창3동 1공영주차장",
        "distance": 300.15505922425683,
        "walking_time": "약 5분"
      },
      {
        "park_station_lat": 37.63709454,
        "park_station_lon": 127.0329989,
        "park_station_type": "주차장",
        "park_station_name": "수송초등학교 공영주차장",
        "distance": 604.4561607169418,
        "walking_time": "약 10분"
      },
      {
        "park_station_lat": 37.64126334,
        "park_station_lon": 127.036287,
        "park_station_type": "주차장",
        "park_station_name": "창2동4공영주차장",
        "distance": 720.883657606051,
        "walking_time": "약 11분"
      },
      {
        "park_station_lat": 37.64222734,
        "park_station_lon": 127.0421345,
        "park_station_type": "주차장",
        "park_station_name": "초안산꽃동산공영주차장",
        "distance": 805.9458641588352,
        "walking_time": "약 13분"
      },
      {
        "park_station_lat": 37.62682004,
        "park_station_lon": 127.0367329,
        "park_station_type": "주차장",
        "park_station_name": "번2동 공영주차장",
        "distance": 972.495369432488,
        "walking_time": "약 15분"
      },
      {
        "park_station_lat": 37.63963922,
        "park_station_lon": 127.0268633,
        "park_station_type": "주차장",
        "park_station_name": "구청앞",
        "distance": 1211.1582786493236,
        "walking_time": "약 19분"
      },
      {
        "park_station_lat": 37.62509068,
        "park_station_lon": 127.0334033,
        "park_station_type": "주차장",
        "park_station_name": "번동 햇살 주차장",
        "distance": 1254.0376744132843,
        "walking_time": "약 19분"
      },
      {
        "park_station_lat": 37.64006723,
        "park_station_lon": 127.025884,
        "park_station_type": "주차장",
        "park_station_name": "시범 공영주차장",
        "distance": 1309.2482019625706,
        "walking_time": "약 20분"
      },
      {
        "park_station_lat": 37.64712558,
        "park_station_lon": 127.0371832,
        "park_station_type": "주차장",
        "park_station_name": "창1동 1공영주차장",
        "distance": 1331.2172892178446,
        "walking_time": "약 20분"
      },
      {
        "park_station_lat": 37.64756826,
        "park_station_lon": 127.0359277,
        "park_station_type": "주차장",
        "park_station_name": "창동 쌍리단길 상점가 공영주차장",
        "distance": 1400.3349299968893,
        "walking_time": "약 21분"
      }
    ],
    "pc_room": [
      {
        "pc_room_lat": 37.6374041482732,
        "pc_room_lon": 127.037156498664,
        "pc_room_type": "PC방",
        "pc_room_name": "골든PC",
        "distance": 311.1901768535587,
        "walking_time": "약 5분"
      },
      {
        "pc_room_lat": 37.6376121119885,
        "pc_room_lon": 127.037389882528,
        "pc_room_type": "PC방",
        "pc_room_name": "귀족PC방",
        "distance": 316.64998220238846,
        "walking_time": "약 5분"
      },
      {
        "pc_room_lat": 37.6348400645376,
        "pc_room_lon": 127.035597434114,
        "pc_room_type": "PC방",
        "pc_room_name": "종점PC",
        "distance": 345.12522296098126,
        "walking_time": "약 6분"
      },
      {
        "pc_room_lat": 37.6384863481039,
        "pc_room_lon": 127.037640485246,
        "pc_room_type": "PC방",
        "pc_room_name": "수작PC",
        "distance": 390.2028020219402,
        "walking_time": "약 6분"
      },
      {
        "pc_room_lat": 37.6392659811392,
        "pc_room_lon": 127.038994138248,
        "pc_room_type": "PC방",
        "pc_room_name": "비원PC방",
        "distance": 443.9105324653696,
        "walking_time": "약 7분"
      },
      {
        "pc_room_lat": 37.6395039823435,
        "pc_room_lon": 127.037728466815,
        "pc_room_type": "PC방",
        "pc_room_name": "리치PC",
        "distance": 492.9543636255293,
        "walking_time": "약 8분"
      },
      {
        "pc_room_lat": 37.6329712952548,
        "pc_room_lon": 127.034502266654,
        "pc_room_type": "PC방",
        "pc_room_name": "우주인터넷프라자",
        "distance": 508.2691497970045,
        "walking_time": "약 8분"
      },
      {
        "pc_room_lat": 37.6343855765606,
        "pc_room_lon": 127.033550579883,
        "pc_room_type": "PC방",
        "pc_room_name": "게임팩토리",
        "distance": 531.3355886408103,
        "walking_time": "약 8분"
      },
      {
        "pc_room_lat": 37.6343855765606,
        "pc_room_lon": 127.033550579883,
        "pc_room_type": "PC방",
        "pc_room_name": "Njoy",
        "distance": 531.3355886408103,
        "walking_time": "약 8분"
      },
      {
        "pc_room_lat": 37.6401649316932,
        "pc_room_lon": 127.039151077797,
        "pc_room_type": "PC방",
        "pc_room_name": "777PC",
        "distance": 542.5954747110926,
        "walking_time": "약 9분"
      }
    ],
    "police_office": [
      {
        "police_office_lat": 37.6359778,
        "police_office_lon": 127.0325802,
        "police_office_type": "경찰소",
        "police_office_name": "번동파출소",
        "distance": 611.9014424477848,
        "walking_time": "약 10분"
      },
      {
        "police_office_lat": 37.64351954,
        "police_office_lon": 127.0346164,
        "police_office_type": "경찰소",
        "police_office_name": "신창파출소",
        "distance": 1009.9458636727564,
        "walking_time": "약 16분"
      },
      {
        "police_office_lat": 37.62362546,
        "police_office_lon": 127.04813,
        "police_office_type": "경찰소",
        "police_office_name": "번3파출소",
        "distance": 1504.5993475688322,
        "walking_time": "약 23분"
      },
      {
        "police_office_lat": 37.64433521,
        "police_office_lon": 127.0265847,
        "police_office_type": "경찰소",
        "police_office_name": "수유3파출소",
        "distance": 1516.3756353539873,
        "walking_time": "약 23분"
      },
      {
        "police_office_lat": 37.64751276,
        "police_office_lon": 127.0255828,
        "police_office_type": "경찰소",
        "police_office_name": "숭미파출소",
        "distance": 1828.3312716190085,
        "walking_time": "약 28분"
      },
      {
        "police_office_lat": 37.62015534,
        "police_office_lon": 127.0282649,
        "police_office_type": "경찰소",
        "police_office_name": "미아지구대",
        "distance": 1951.283462889725,
        "walking_time": "약 30분"
      }
    ],
    "post_office": [
      {
        "post_office_lat": 37.63180799,
        "post_office_lon": 127.037878,
        "post_office_type": "우체국",
        "post_office_name": "서울번2동우체국",
        "distance": 412.1393368837355,
        "walking_time": "약 7분"
      },
      {
        "post_office_lat": 37.63895292,
        "post_office_lon": 127.0377962,
        "post_office_type": "우체국",
        "post_office_name": "서울창2동우편취급국",
        "distance": 433.08567484688587,
        "walking_time": "약 7분"
      },
      {
        "post_office_lat": 37.64122994,
        "post_office_lon": 127.0286569,
        "post_office_type": "우체국",
        "post_office_name": "서울수유3동우체국",
        "distance": 1159.0265780850943,
        "walking_time": "약 18분"
      },
      {
        "post_office_lat": 37.62571443,
        "post_office_lon": 127.0462356,
        "post_office_type": "우체국",
        "post_office_name": "서울번3동우체국",
        "distance": 1220.0918206695594,
        "walking_time": "약 19분"
      },
      {
        "post_office_lat": 37.64492915,
        "post_office_lon": 127.0316588,
        "post_office_type": "우체국",
        "post_office_name": "서울쌍문한양우편취급국",
        "distance": 1273.571591627854,
        "walking_time": "약 20분"
      },
      {
        "post_office_lat": 37.62402918,
        "post_office_lon": 127.0284335,
        "post_office_type": "우체국",
        "post_office_name": "서울강북우체국",
        "distance": 1585.5271580217084,
        "walking_time": "약 24분"
      },
      {
        "post_office_lat": 37.63560227,
        "post_office_lon": 127.0200628,
        "post_office_type": "우체국",
        "post_office_name": "서울인수동우편취급국",
        "distance": 1709.7204217244205,
        "walking_time": "약 26분"
      },
      {
        "post_office_lat": 37.6479235,
        "post_office_lon": 127.0272422,
        "post_office_type": "우체국",
        "post_office_name": "서울도봉우체국",
        "distance": 1770.0019305866997,
        "walking_time": "약 27분"
      }
    ],
    "public_health_center": [
      {
        "public_health_center_lat": 37.6318813,
        "public_health_center_lon": 127.0390622,
        "public_health_center_type": "보건소",
        "public_health_center_name": "강북구보건소",
        "distance": 380.9906269009477,
        "walking_time": "약 6분"
      },
      {
        "public_health_center_lat": 37.64141508,
        "public_health_center_lon": 127.035653,
        "public_health_center_type": "보건소",
        "public_health_center_name": "창동 보건지소",
        "distance": 759.4884597098674,
        "walking_time": "약 12분"
      }
    ],
    "school": [
      {
        "school_lat": 37.6331950434853,
        "school_lon": 127.04088417427,
        "school_type": "초등학교",
        "school_name": "서울신화초등학교",
        "distance": 264.1340304138181,
        "walking_time": "약 4분"
      },
      {
        "school_lat": 37.6365395299158,
        "school_lon": 127.042084340998,
        "school_type": "초등학교",
        "school_name": "서울신창초등학교",
        "distance": 268.39598673204586,
        "walking_time": "약 5분"
      },
      {
        "school_lat": 37.6324556910711,
        "school_lon": 127.036206363566,
        "school_type": "중학교",
        "school_name": "번동중학교",
        "distance": 426.9815938355892,
        "walking_time": "약 7분"
      },
      {
        "school_lat": 37.6367599332935,
        "school_lon": 127.03358552315,
        "school_type": "중학교",
        "school_name": "수송중학교",
        "distance": 543.6840121871271,
        "walking_time": "약 9분"
      },
      {
        "school_lat": 37.6373144075316,
        "school_lon": 127.032917771185,
        "school_type": "초등학교",
        "school_name": "서울수송초등학교",
        "distance": 619.6475896104404,
        "walking_time": "약 10분"
      },
      {
        "school_lat": 37.6290238580608,
        "school_lon": 127.040039390037,
        "school_type": "초등학교",
        "school_name": "서울번동초등학교",
        "distance": 698.7553502227328,
        "walking_time": "약 11분"
      },
      {
        "school_lat": 37.6316734128872,
        "school_lon": 127.048388273455,
        "school_type": "고등학교",
        "school_name": "월계고등학교",
        "distance": 882.0192217778027,
        "walking_time": "약 14분"
      },
      {
        "school_lat": 37.6432370796248,
        "school_lon": 127.041604074164,
        "school_type": "초등학교",
        "school_name": "서울창림초등학교",
        "distance": 903.1241196616704,
        "walking_time": "약 14분"
      },
      {
        "school_lat": 37.6302844506448,
        "school_lon": 127.049264552091,
        "school_type": "고등학교",
        "school_name": "염광고등학교",
        "distance": 1026.2547687889864,
        "walking_time": "약 16분"
      },
      {
        "school_lat": 37.6302844506448,
        "school_lon": 127.049264552091,
        "school_type": "고등학교",
        "school_name": "염광메디텍고등학교",
        "distance": 1026.2547687889864,
        "walking_time": "약 16분"
      }
    ],
    "self_laundromat": [
      {
        "self_laundromat_lat": 37.62144228,
        "self_laundromat_lon": 127.0463268,
        "self_laundromat_type": "셀프 빨래방",
        "self_laundromat_name": "크린토피아 코인워시 성북장위루첸점",
        "distance": 1654.011271876702,
        "walking_time": "약 25분"
      },
      {
        "self_laundromat_lat": 37.62144228,
        "self_laundromat_lon": 127.0463268,
        "self_laundromat_type": "셀프 빨래방",
        "self_laundromat_name": "크린토피아 코인워시 성북장위루첸점",
        "distance": 1654.011271876702,
        "walking_time": "약 25분"
      }
    ],
    "subway": [
      {
        "subway_lat": 37.6377452337445,
        "subway_lon": 127.025356901379,
        "subway_type": "지하철",
        "subway_name": "4호선-수유(강북구청)역",
        "distance": 1272.7505448165743,
        "walking_time": "약 19분"
      },
      {
        "subway_lat": 37.6264436445109,
        "subway_lon": 127.026103434413,
        "subway_type": "지하철",
        "subway_name": "4호선-미아(서울사이버대학)역",
        "distance": 1534.4751856249195,
        "walking_time": "약 23분"
      },
      {
        "subway_lat": 37.6488498649136,
        "subway_lon": 127.034880717215,
        "subway_type": "지하철",
        "subway_name": "4호선-쌍문역",
        "distance": 1560.8945315215778,
        "walking_time": "약 24분"
      }
    ],
    "supermarket": [
      {
        "supermarket_lat": 37.64003977,
        "supermarket_lon": 127.0372354,
        "supermarket_type": "마트",
        "supermarket_name": "삼익쇼핑",
        "distance": 563.5583219123798,
        "walking_time": "약 9분"
      },
      {
        "supermarket_lat": 37.63623599,
        "supermarket_lon": 127.0303422,
        "supermarket_type": "마트",
        "supermarket_name": "북부시장",
        "distance": 811.021258873229,
        "walking_time": "약 13분"
      },
      {
        "supermarket_lat": 37.63623599,
        "supermarket_lon": 127.0303422,
        "supermarket_type": "마트",
        "supermarket_name": "강북 북부시장",
        "distance": 811.021258873229,
        "walking_time": "약 13분"
      },
      {
        "supermarket_lat": 37.64260638,
        "supermarket_lon": 127.0373306,
        "supermarket_type": "마트",
        "supermarket_name": "대우상가",
        "distance": 834.9523685564116,
        "walking_time": "약 13분"
      },
      {
        "supermarket_lat": 37.64333589,
        "supermarket_lon": 127.0350214,
        "supermarket_type": "마트",
        "supermarket_name": "(주)에브리데이리테일 창동점",
        "distance": 976.6283290047852,
        "walking_time": "약 15분"
      },
      {
        "supermarket_lat": 37.64333589,
        "supermarket_lon": 127.0350214,
        "supermarket_type": "마트",
        "supermarket_name": "(주)이마트에브리데이 창동점",
        "distance": 976.6283290047852,
        "walking_time": "약 15분"
      },
      {
        "supermarket_lat": 37.64333589,
        "supermarket_lon": 127.0350214,
        "supermarket_type": "마트",
        "supermarket_name": "(주)에브리데이리테일 창동점",
        "distance": 976.6283290047852,
        "walking_time": "약 15분"
      },
      {
        "supermarket_lat": 37.64641958,
        "supermarket_lon": 127.0371393,
        "supermarket_type": "마트",
        "supermarket_name": "롯데프레쉬 창동점",
        "distance": 1254.305454855578,
        "walking_time": "약 19분"
      },
      {
        "supermarket_lat": 37.63169253,
        "supermarket_lon": 127.0234675,
        "supermarket_type": "마트",
        "supermarket_name": "수유프라자",
        "distance": 1465.3242431269057,
        "walking_time": "약 22분"
      },
      {
        "supermarket_lat": 37.63169253,
        "supermarket_lon": 127.0234675,
        "supermarket_type": "마트",
        "supermarket_name": "수유프라자",
        "distance": 1465.3242431269057,
        "walking_time": "약 22분"
      }
    ],
    "theater": [
      {
        "theater_lat": 37.6424075100379,
        "theater_lon": 127.029806166339,
        "theater_type": "영화관",
        "theater_name": "CGV 수유",
        "distance": 1162.254050128862,
        "walking_time": "약 18분"
      },
      {
        "theater_lat": 37.6356640949861,
        "theater_lon": 127.02383520999,
        "theater_type": "영화관",
        "theater_name": "(주)써니트 롯데시네마 수유",
        "distance": 1377.8075110584468,
        "walking_time": "약 21분"
      }
    ],
    "university": [
      {
        "university_lat": 37.629843917766,
        "university_lon": 127.027123065417,
        "university_type": "대학교",
        "university_name": "서울사이버대학교",
        "distance": 1245.0336645264642,
        "walking_time": "약 19분"
      }
    ]
  }
}