{
  "클러스터_위도": 37.64214,
  "클러스터_경도": 127.03128800000002,
  "클러스터_level": 3.0,
  "facilities": {
    "bus": [
      {
        "bus_lat": 37.64262665,
        "bus_lon": 127.0317879,
        "bus_type": "버스정류장",
        "bus_name": "태영데시앙아파트",
        "distance": 69.7536522138667,
        "walking_time": "약 2분"
      },
      {
        "bus_lat": 37.64238437,
        "bus_lon": 127.0324449,
        "bus_type": "버스정류장",
        "bus_name": "태영데시앙아파트",
        "distance": 105.4253040617558,
        "walking_time": "약 2분"
      },
      {
        "bus_lat": 37.64393309,
        "bus_lon": 127.0317544,
        "bus_type": "버스정류장",
        "bus_name": "우이1교",
        "distance": 203.5675636327116,
        "walking_time": "약 4분"
      },
      {
        "bus_lat": 37.64134568,
        "bus_lon": 127.0291615,
        "bus_type": "버스정류장",
        "bus_name": "수유3동우체국",
        "distance": 207.0234155027032,
        "walking_time": "약 4분"
      },
      {
        "bus_lat": 37.64399377,
        "bus_lon": 127.0321793,
        "bus_type": "버스정류장",
        "bus_name": "우이1교앞",
        "distance": 220.5631655765599,
        "walking_time": "약 4분"
      },
      {
        "bus_lat": 37.640778,
        "bus_lon": 127.033467,
        "bus_type": "버스정류장",
        "bus_name": "창2동주민센터.보건지소",
        "distance": 244.43102503520765,
        "walking_time": "약 4분"
      },
      {
        "bus_lat": 37.64089905,
        "bus_lon": 127.0336398,
        "bus_type": "버스정류장",
        "bus_name": "창2동주민센터.보건지소",
        "distance": 248.83807972607173,
        "walking_time": "약 4분"
      },
      {
        "bus_lat": 37.64089302,
        "bus_lon": 127.0288271,
        "bus_type": "버스정류장",
        "bus_name": "수유3동우체국",
        "distance": 257.2480518134934,
        "walking_time": "약 4분"
      },
      {
        "bus_lat": 37.64076745,
        "bus_lon": 127.0337768,
        "bus_type": "버스정류장",
        "bus_name": "창2동건영아파트",
        "distance": 267.0473927866309,
        "walking_time": "약 4분"
      },
      {
        "bus_lat": 37.644652,
        "bus_lon": 127.03242,
        "bus_type": "버스정류장",
        "bus_name": "우이1교앞",
        "distance": 296.57137020713606,
        "walking_time": "약 5분"
      }
    ],
    "community_center": [
      {
        "community_center_lat": 37.64141508,
        "community_center_lon": 127.035653,
        "community_center_type": "주민센터",
        "community_center_name": "창2동 자치회관",
        "distance": 392.6963376326963,
        "walking_time": "약 6분"
      },
      {
        "community_center_lat": 37.63789129,
        "community_center_lon": 127.0288472,
        "community_center_type": "주민센터",
        "community_center_name": "번1동 자치회관",
        "distance": 519.0216037340665,
        "walking_time": "약 8분"
      },
      {
        "community_center_lat": 37.64803784,
        "community_center_lon": 127.0260513,
        "community_center_type": "주민센터",
        "community_center_name": "쌍문1동 자치회관",
        "distance": 801.6661382967997,
        "walking_time": "약 12분"
      },
      {
        "community_center_lat": 37.6387147,
        "community_center_lon": 127.0231464,
        "community_center_type": "주민센터",
        "community_center_name": "수유3동 자치회관",
        "distance": 811.772255790654,
        "walking_time": "약 13분"
      },
      {
        "community_center_lat": 37.64898155,
        "community_center_lon": 127.0279211,
        "community_center_type": "주민센터",
        "community_center_name": "쌍문3동 자치회관",
        "distance": 816.4613143995017,
        "walking_time": "약 13분"
      },
      {
        "community_center_lat": 37.63799988,
        "community_center_lon": 127.0429904,
        "community_center_type": "주민센터",
        "community_center_name": "창3동 자치회관",
        "distance": 1128.5722030921,
        "walking_time": "약 17분"
      },
      {
        "community_center_lat": 37.64837711,
        "community_center_lon": 127.0438238,
        "community_center_type": "주민센터",
        "community_center_name": "창1동 자치회관",
        "distance": 1303.5243230100102,
        "walking_time": "약 20분"
      },
      {
        "community_center_lat": 37.6318813,
        "community_center_lon": 127.0390622,
        "community_center_type": "주민센터",
        "community_center_name": "번2동 자치회관",
        "distance": 1330.3561290449786,
        "walking_time": "약 20분"
      },
      {
        "community_center_lat": 37.65646373,
        "community_center_lon": 127.0284052,
        "community_center_type": "주민센터",
        "community_center_name": "쌍문4동 자치회관",
        "distance": 1612.8211362769964,
        "walking_time": "약 25분"
      },
      {
        "community_center_lat": 37.65793243,
        "community_center_lon": 127.0388203,
        "community_center_type": "주민센터",
        "community_center_name": "쌍문2동 자치회관",
        "distance": 1877.0781579348595,
        "walking_time": "약 29분"
      }
    ],
    "convenience_store": [
      {
        "convenience_store_lat": 37.64189375,
        "convenience_store_lon": 127.0312675,
        "convenience_store_type": "편의점",
        "convenience_store_name": "GS25 강북한천점",
        "distance": 27.4411788738998,
        "walking_time": "약 1분"
      },
      {
        "convenience_store_lat": 37.64242774,
        "convenience_store_lon": 127.0292682,
        "convenience_store_type": "편의점",
        "convenience_store_name": "CU 수유한천점",
        "distance": 180.69555955178376,
        "walking_time": "약 3분"
      },
      {
        "convenience_store_lat": 37.64320468,
        "convenience_store_lon": 127.0329434,
        "convenience_store_type": "편의점",
        "convenience_store_name": "세븐일레븐 창동태영점",
        "distance": 187.7762574522484,
        "walking_time": "약 3분"
      },
      {
        "convenience_store_lat": 37.64041762,
        "convenience_store_lon": 127.0340297,
        "convenience_store_type": "편의점",
        "convenience_store_name": "CU 창동트리플점",
        "distance": 308.15037229777533,
        "walking_time": "약 5분"
      },
      {
        "convenience_store_lat": 37.63935337,
        "convenience_store_lon": 127.0314608,
        "convenience_store_type": "편의점",
        "convenience_store_name": "CU 번동중앙점",
        "distance": 310.2324489623911,
        "walking_time": "약 5분"
      },
      {
        "convenience_store_lat": 37.64492915,
        "convenience_store_lon": 127.0316588,
        "convenience_store_type": "편의점",
        "convenience_store_name": "CU 쌍문사랑점",
        "distance": 311.8529858161816,
        "walking_time": "약 5분"
      },
      {
        "convenience_store_lat": 37.64257181,
        "convenience_store_lon": 127.0277699,
        "convenience_store_type": "편의점",
        "convenience_store_name": "GS25 수유씨티빌점",
        "distance": 313.46233210395366,
        "walking_time": "약 5분"
      },
      {
        "convenience_store_lat": 37.64381406,
        "convenience_store_lon": 127.0278774,
        "convenience_store_type": "편의점",
        "convenience_store_name": "세븐일레븐 수유북부시장점",
        "distance": 353.3100950593907,
        "walking_time": "약 6분"
      },
      {
        "convenience_store_lat": 37.63942489,
        "convenience_store_lon": 127.0287322,
        "convenience_store_type": "편의점",
        "convenience_store_name": "CU 수유번동점",
        "distance": 376.550145947468,
        "walking_time": "약 6분"
      },
      {
        "convenience_store_lat": 37.64071593,
        "convenience_store_lon": 127.0353012,
        "convenience_store_type": "편의점",
        "convenience_store_name": "세븐일레븐 창동타운점",
        "distance": 387.218306408196,
        "walking_time": "약 6분"
      }
    ],
    "daycare": [
      {
        "daycare_lat": 37.64143964,
        "daycare_lon": 127.0318876,
        "daycare_type": "어린이집",
        "daycare_name": "아가페어린이집",
        "distance": 94.08494342515652,
        "walking_time": "약 2분"
      },
      {
        "daycare_lat": 37.64130361,
        "daycare_lon": 127.0295869,
        "daycare_type": "어린이집",
        "daycare_name": "구립번1동어린이집",
        "distance": 176.30544336650922,
        "walking_time": "약 3분"
      },
      {
        "daycare_lat": 37.64245955658824,
        "daycare_lon": 127.0332890765062,
        "daycare_type": "어린이집",
        "daycare_name": "리틀노벨 어린이집",
        "distance": 179.73905474945224,
        "walking_time": "약 3분"
      },
      {
        "daycare_lat": 37.64283172,
        "daycare_lon": 127.0334253,
        "daycare_type": "어린이집",
        "daycare_name": "창2동엘리트어린이집",
        "distance": 203.2973930857887,
        "walking_time": "약 4분"
      },
      {
        "daycare_lat": 37.64283172,
        "daycare_lon": 127.0334253,
        "daycare_type": "어린이집",
        "daycare_name": "딸기어린이집",
        "distance": 203.2973930857887,
        "walking_time": "약 4분"
      },
      {
        "daycare_lat": 37.64283172,
        "daycare_lon": 127.0334253,
        "daycare_type": "어린이집",
        "daycare_name": "예닮누리 어린이집",
        "distance": 203.2973930857887,
        "walking_time": "약 4분"
      },
      {
        "daycare_lat": 37.64283172,
        "daycare_lon": 127.0334253,
        "daycare_type": "어린이집",
        "daycare_name": "태영영재어린이집",
        "distance": 203.2973930857887,
        "walking_time": "약 4분"
      },
      {
        "daycare_lat": 37.64354865680211,
        "daycare_lon": 127.03326994042202,
        "daycare_type": "어린이집",
        "daycare_name": "태영어린이집",
        "distance": 234.4927839661065,
        "walking_time": "약 4분"
      },
      {
        "daycare_lat": 37.641394,
        "daycare_lon": 127.0340139,
        "daycare_type": "어린이집",
        "daycare_name": "바로클엔젤어린이집",
        "distance": 253.94331704391035,
        "walking_time": "약 4분"
      },
      {
        "daycare_lat": 37.641394,
        "daycare_lon": 127.0340139,
        "daycare_type": "어린이집",
        "daycare_name": "바로클어린이집",
        "distance": 253.94331704391035,
        "walking_time": "약 4분"
      }
    ],
    "education": [
      {
        "education_lat": 37.64704212,
        "education_lon": 127.0262302,
        "education_type": "도서관",
        "education_name": "쌍문채움도서관",
        "distance": 703.8693398956068,
        "walking_time": "약 11분"
      },
      {
        "education_lat": 37.64856049,
        "education_lon": 127.0338822,
        "education_type": "공연장",
        "education_name": "극단 대학로극장",
        "distance": 749.5728799810083,
        "walking_time": "약 12분"
      },
      {
        "education_lat": 37.64469094,
        "education_lon": 127.0437683,
        "education_type": "도서관",
        "education_name": "도봉문화정보도서관",
        "distance": 1134.874580365719,
        "walking_time": "약 17분"
      },
      {
        "education_lat": 37.65242986,
        "education_lon": 127.0276385,
        "education_type": "박물관/기념관",
        "education_name": "둘리뮤지엄",
        "distance": 1188.4398922254702,
        "walking_time": "약 18분"
      },
      {
        "education_lat": 37.65296162,
        "education_lon": 127.0347964,
        "education_type": "박물관/기념관",
        "education_name": "함석헌기념관",
        "distance": 1242.3222533834755,
        "walking_time": "약 19분"
      },
      {
        "education_lat": 37.65419928,
        "education_lon": 127.0388705,
        "education_type": "문화원",
        "education_name": "도봉문화원",
        "distance": 1497.9156927616225,
        "walking_time": "약 23분"
      },
      {
        "education_lat": 37.65992371,
        "education_lon": 127.0238016,
        "education_type": "박물관/기념관",
        "education_name": "김수영문학관",
        "distance": 2084.403811761423,
        "walking_time": "약 32분"
      },
      {
        "education_lat": 37.6590571,
        "education_lon": 127.049575,
        "education_type": "도서관",
        "education_name": "도봉아이나라도서관",
        "distance": 2475.984760569428,
        "walking_time": "약 37분"
      }
    ],
    "electric_gas_station": [
      {
        "electric_gas_station_lat": 37.6446776,
        "electric_gas_station_lon": 127.0351607,
        "electric_gas_station_type": "전기차 충전소",
        "electric_gas_station_name": "빅마켓 도봉점",
        "distance": 442.5906084109197,
        "walking_time": "약 7분"
      }
    ],
    "fitness": [
      {
        "fitness_lat": 37.64253861,
        "fitness_lon": 127.0301221,
        "fitness_type": "운동시설",
        "fitness_name": "체대입시 FA",
        "distance": 111.81569698898662,
        "walking_time": "약 2분"
      },
      {
        "fitness_lat": 37.64436418,
        "fitness_lon": 127.0294308,
        "fitness_type": "운동시설",
        "fitness_name": "수 골프 앤 짐",
        "distance": 296.4882020103026,
        "walking_time": "약 5분"
      },
      {
        "fitness_lat": 37.640693,
        "fitness_lon": 127.0345239,
        "fitness_type": "운동시설",
        "fitness_name": "벙커짐",
        "distance": 327.2118613373183,
        "walking_time": "약 5분"
      },
      {
        "fitness_lat": 37.64058473,
        "fitness_lon": 127.0279763,
        "fitness_type": "운동시설",
        "fitness_name": "휘트니스피플 우먼 수유점",
        "distance": 339.0199904284541,
        "walking_time": "약 6분"
      },
      {
        "fitness_lat": 37.64333589,
        "fitness_lon": 127.0350214,
        "fitness_type": "운동시설",
        "fitness_name": "휴먼(HUMAN)휘트니스",
        "distance": 354.596306048623,
        "walking_time": "약 6분"
      },
      {
        "fitness_lat": 37.6454118,
        "fitness_lon": 127.0323702,
        "fitness_type": "운동시설",
        "fitness_name": "피넛짐 PT",
        "distance": 376.0784680480524,
        "walking_time": "약 6분"
      },
      {
        "fitness_lat": 37.64586709,
        "fitness_lon": 127.0325907,
        "fitness_type": "운동시설",
        "fitness_name": "건운재 피트니스 센터",
        "distance": 430.0125392707181,
        "walking_time": "약 7분"
      },
      {
        "fitness_lat": 37.63913588,
        "fitness_lon": 127.027475,
        "fitness_type": "운동시설",
        "fitness_name": "수유역점 스포애니 (주)케이디헬스케어",
        "distance": 473.6069670393903,
        "walking_time": "약 8분"
      },
      {
        "fitness_lat": 37.64291383,
        "fitness_lon": 127.036641,
        "fitness_type": "운동시설",
        "fitness_name": "U&I Gym",
        "distance": 479.1120834566016,
        "walking_time": "약 8분"
      },
      {
        "fitness_lat": 37.63978299,
        "fitness_lon": 127.026607,
        "fitness_type": "운동시설",
        "fitness_name": "하이엔드짐",
        "distance": 488.4339098545154,
        "walking_time": "약 8분"
      }
    ],
    "gas_station": [
      {
        "gas_station_lat": 37.64222693,
        "gas_station_lon": 127.029534,
        "gas_station_type": "주유소",
        "gas_station_name": "수유동주유소",
        "distance": 154.7394756611135,
        "walking_time": "약 3분"
      },
      {
        "gas_station_lat": 37.64463064,
        "gas_station_lon": 127.032708,
        "gas_station_type": "주유소",
        "gas_station_name": "동일석유㈜ 창동주유소",
        "distance": 303.86038711296305,
        "walking_time": "약 5분"
      },
      {
        "gas_station_lat": 37.64497226,
        "gas_station_lon": 127.0321589,
        "gas_station_type": "주유소",
        "gas_station_name": "삼미상사㈜ 북부주유소",
        "distance": 324.1336137864056,
        "walking_time": "약 5분"
      },
      {
        "gas_station_lat": 37.63556362,
        "gas_station_lon": 127.0328871,
        "gas_station_type": "주유소",
        "gas_station_name": "현대오일뱅크㈜ 번동셀프주유소",
        "distance": 744.6927746073183,
        "walking_time": "약 12분"
      },
      {
        "gas_station_lat": 37.63501625,
        "gas_station_lon": 127.0313097,
        "gas_station_type": "주유소",
        "gas_station_name": "㈜미래아스팔트 덕릉로주유소",
        "distance": 792.1271632144048,
        "walking_time": "약 12분"
      },
      {
        "gas_station_lat": 37.6414534,
        "gas_station_lon": 127.0402982,
        "gas_station_type": "주유소",
        "gas_station_name": "대성산업㈜ 신창주유소",
        "distance": 797.0048616694105,
        "walking_time": "약 12분"
      },
      {
        "gas_station_lat": 37.64908371,
        "gas_station_lon": 127.0268164,
        "gas_station_type": "주유소",
        "gas_station_name": "현대오일뱅크(주)직영 쌍문셀프주유소",
        "distance": 866.6869862192787,
        "walking_time": "약 13분"
      },
      {
        "gas_station_lat": 37.64684419,
        "gas_station_lon": 127.0394451,
        "gas_station_type": "주유소",
        "gas_station_name": "구도일주유소 파크빌",
        "distance": 888.4957480216643,
        "walking_time": "약 14분"
      },
      {
        "gas_station_lat": 37.63426997,
        "gas_station_lon": 127.0377638,
        "gas_station_type": "주유소",
        "gas_station_name": "세원주유소",
        "distance": 1044.4898185081122,
        "walking_time": "약 16분"
      },
      {
        "gas_station_lat": 37.6540051,
        "gas_station_lon": 127.0375376,
        "gas_station_type": "주유소",
        "gas_station_name": "한이에너지㈜ 쌍문주유소",
        "distance": 1429.4763868459006,
        "walking_time": "약 22분"
      }
    ],
    "hospital": [
      {
        "hospital_lat": 37.64269912,
        "hospital_lon": 127.030313,
        "hospital_type": "병원",
        "hospital_name": "인화의원",
        "distance": 105.99528564816347,
        "walking_time": "약 2분"
      },
      {
        "hospital_lat": 37.64269912,
        "hospital_lon": 127.030313,
        "hospital_type": "병원",
        "hospital_name": "전종호정신건강의학과의원",
        "distance": 105.99528564816347,
        "walking_time": "약 2분"
      },
      {
        "hospital_lat": 37.64201313,
        "hospital_lon": 127.0295335,
        "hospital_type": "병원",
        "hospital_name": "자애내과외과의원",
        "distance": 155.12432085401204,
        "walking_time": "약 3분"
      },
      {
        "hospital_lat": 37.64098401,
        "hospital_lon": 127.0292253,
        "hospital_type": "병원",
        "hospital_name": "경한의원",
        "distance": 222.50436910558773,
        "walking_time": "약 4분"
      },
      {
        "hospital_lat": 37.64098401,
        "hospital_lon": 127.0292253,
        "hospital_type": "병원",
        "hospital_name": "최신치과의원",
        "distance": 222.50436910558773,
        "walking_time": "약 4분"
      },
      {
        "hospital_lat": 37.64112707,
        "hospital_lon": 127.0285616,
        "hospital_type": "병원",
        "hospital_name": "그린치과의원",
        "distance": 265.1673676223602,
        "walking_time": "약 4분"
      },
      {
        "hospital_lat": 37.64112707,
        "hospital_lon": 127.0285616,
        "hospital_type": "병원",
        "hospital_name": "현명한의원",
        "distance": 265.1673676223602,
        "walking_time": "약 4분"
      },
      {
        "hospital_lat": 37.64013704,
        "hospital_lon": 127.0290219,
        "hospital_type": "병원",
        "hospital_name": "현대플러스치과의원",
        "distance": 299.0248795944349,
        "walking_time": "약 5분"
      },
      {
        "hospital_lat": 37.64071983,
        "hospital_lon": 127.0281521,
        "hospital_type": "병원",
        "hospital_name": "뉴욕M치과의원",
        "distance": 318.0826280396666,
        "walking_time": "약 5분"
      },
      {
        "hospital_lat": 37.64071983,
        "hospital_lon": 127.0281521,
        "hospital_type": "병원",
        "hospital_name": "청풍한의원",
        "distance": 318.0826280396666,
        "walking_time": "약 5분"
      }
    ],
    "music_room": [
      {
        "music_room_lat": 37.64134489,
        "music_room_lon": 127.0308519,
        "music_room_type": "노래방",
        "music_room_name": "알프스노래연습장",
        "distance": 96.39056360620174,
        "walking_time": "약 2분"
      },
      {
        "music_room_lat": 37.64135638,
        "music_room_lon": 127.0296291,
        "music_room_type": "노래방",
        "music_room_name": "테마",
        "distance": 170.0803644673768,
        "walking_time": "약 3분"
      },
      {
        "music_room_lat": 37.64084227,
        "music_room_lon": 127.0299961,
        "music_room_type": "노래방",
        "music_room_name": "고래고래 노래연습장",
        "distance": 183.74460864311985,
        "walking_time": "약 3분"
      },
      {
        "music_room_lat": 37.64089795,
        "music_room_lon": 127.0327077,
        "music_room_type": "노래방",
        "music_room_name": "우이천노래연습장",
        "distance": 186.27992888369067,
        "walking_time": "약 3분"
      },
      {
        "music_room_lat": 37.64184565,
        "music_room_lon": 127.0291044,
        "music_room_type": "노래방",
        "music_room_name": "김가네노래방",
        "distance": 195.0294882780585,
        "walking_time": "약 3분"
      },
      {
        "music_room_lat": 37.64163818,
        "music_room_lon": 127.0290039,
        "music_room_type": "노래방",
        "music_room_name": "황금 노래연습장",
        "distance": 208.7101218102662,
        "walking_time": "약 4분"
      },
      {
        "music_room_lat": 37.64139335,
        "music_room_lon": 127.0287643,
        "music_room_type": "노래방",
        "music_room_name": "홀인원 노래연습장",
        "distance": 237.2130078223473,
        "walking_time": "약 4분"
      },
      {
        "music_room_lat": 37.6413667,
        "music_room_lon": 127.0286958,
        "music_room_type": "노래방",
        "music_room_name": "떳다노래연습장",
        "distance": 243.9009990586615,
        "walking_time": "약 4분"
      },
      {
        "music_room_lat": 37.64078387,
        "music_room_lon": 127.0289663,
        "music_room_type": "노래방",
        "music_room_name": "만남 노래연습장",
        "distance": 254.0244512975253,
        "walking_time": "약 4분"
      },
      {
        "music_room_lat": 37.64161138,
        "music_room_lon": 127.0284125,
        "music_room_type": "노래방",
        "music_room_name": "성원노래연습장",
        "distance": 259.9185171715084,
        "walking_time": "약 4분"
      }
    ],
    "park": [
      {
        "park_lat": 37.6479483,
        "park_lon": 127.0405382,
        "park_type": "공원",
        "park_name": "초안산생태공원",
        "distance": 1039.4386060940556,
        "walking_time": "약 16분"
      },
      {
        "park_lat": 37.6327957,
        "park_lon": 127.0317269,
        "park_type": "공원",
        "park_name": "오동근린공원",
        "distance": 1039.7572409696302,
        "walking_time": "약 16분"
      },
      {
        "park_lat": 37.6531456,
        "park_lon": 127.0271316,
        "park_type": "공원",
        "park_name": "쌍문근린공원",
        "distance": 1277.308214254896,
        "walking_time": "약 20분"
      },
      {
        "park_lat": 37.648316,
        "park_lon": 127.0455446,
        "park_type": "공원",
        "park_name": "초안산근린공원",
        "distance": 1430.8022197112407,
        "walking_time": "약 22분"
      },
      {
        "park_lat": 37.6597135,
        "park_lon": 127.031982,
        "park_type": "공원",
        "park_name": "발바닥공원",
        "distance": 1955.0389972732976,
        "walking_time": "약 30분"
      }
    ],
    "park_station": [
      {
        "park_station_lat": 37.64126334,
        "park_station_lon": 127.036287,
        "park_station_type": "주차장",
        "park_station_name": "창2동4공영주차장",
        "distance": 450.8229554408688,
        "walking_time": "약 7분"
      },
      {
        "park_station_lat": 37.63963922,
        "park_station_lon": 127.0268633,
        "park_station_type": "주차장",
        "park_station_name": "구청앞",
        "distance": 478.6541786225145,
        "walking_time": "약 8분"
      },
      {
        "park_station_lat": 37.64006723,
        "park_station_lon": 127.025884,
        "park_station_type": "주차장",
        "park_station_name": "시범 공영주차장",
        "distance": 528.704027789405,
        "walking_time": "약 8분"
      },
      {
        "park_station_lat": 37.63709454,
        "park_station_lon": 127.0329989,
        "park_station_type": "주차장",
        "park_station_name": "수송초등학교 공영주차장",
        "distance": 580.9034807808574,
        "walking_time": "약 9분"
      },
      {
        "park_station_lat": 37.64756826,
        "park_station_lon": 127.0359277,
        "park_station_type": "주차장",
        "park_station_name": "창동 쌍리단길 상점가 공영주차장",
        "distance": 728.8366022332214,
        "walking_time": "약 11분"
      },
      {
        "park_station_lat": 37.64712558,
        "park_station_lon": 127.0371832,
        "park_station_type": "주차장",
        "park_station_name": "창1동 1공영주차장",
        "distance": 759.4322215089543,
        "walking_time": "약 12분"
      },
      {
        "park_station_lat": 37.64604831,
        "park_station_lon": 127.0219257,
        "park_station_type": "주차장",
        "park_station_name": "수유2동 공영주차장",
        "distance": 931.8588387969664,
        "walking_time": "약 14분"
      },
      {
        "park_station_lat": 37.64222734,
        "park_station_lon": 127.0421345,
        "park_station_type": "주차장",
        "park_station_name": "초안산꽃동산공영주차장",
        "distance": 955.0686746055436,
        "walking_time": "약 15분"
      },
      {
        "park_station_lat": 37.64915283,
        "park_station_lon": 127.0400853,
        "park_station_type": "주차장",
        "park_station_name": "초안산 창골주차장",
        "distance": 1099.0941877490884,
        "walking_time": "약 17분"
      },
      {
        "park_station_lat": 37.65325029,
        "park_station_lon": 127.0335631,
        "park_station_type": "주차장",
        "park_station_name": "쌍문2동 2공영주차장",
        "distance": 1251.540867108902,
        "walking_time": "약 19분"
      }
    ],
    "pc_room": [
      {
        "pc_room_lat": 37.641068927668,
        "pc_room_lon": 127.031161643215,
        "pc_room_type": "PC방",
        "pc_room_name": "클릭PC방",
        "distance": 119.61633570664316,
        "walking_time": "약 2분"
      },
      {
        "pc_room_lat": 37.641068927668,
        "pc_room_lon": 127.031161643215,
        "pc_room_type": "PC방",
        "pc_room_name": "프리타임 PC방",
        "distance": 119.61633570664316,
        "walking_time": "약 2분"
      },
      {
        "pc_room_lat": 37.6416222394674,
        "pc_room_lon": 127.030053308433,
        "pc_room_type": "PC방",
        "pc_room_name": "런PC방",
        "distance": 123.01691653917338,
        "walking_time": "약 2분"
      },
      {
        "pc_room_lat": 37.6424075100379,
        "pc_room_lon": 127.029806166339,
        "pc_room_type": "PC방",
        "pc_room_name": "BS PC",
        "distance": 133.8210639725349,
        "walking_time": "약 2분"
      },
      {
        "pc_room_lat": 37.6410214029362,
        "pc_room_lon": 127.031994967243,
        "pc_room_type": "PC방",
        "pc_room_name": "조은PC",
        "distance": 139.0890850448827,
        "walking_time": "약 3분"
      },
      {
        "pc_room_lat": 37.6412705269995,
        "pc_room_lon": 127.029927966467,
        "pc_room_type": "PC방",
        "pc_room_name": "마카오PC",
        "distance": 153.90658583172737,
        "walking_time": "약 3분"
      },
      {
        "pc_room_lat": 37.6426006854172,
        "pc_room_lon": 127.029429956149,
        "pc_room_type": "PC방",
        "pc_room_name": "타이탄pc",
        "distance": 171.43022790499816,
        "walking_time": "약 3분"
      },
      {
        "pc_room_lat": 37.6417388610523,
        "pc_room_lon": 127.028833183206,
        "pc_room_type": "PC방",
        "pc_room_name": "골드PC",
        "distance": 220.69836732470984,
        "walking_time": "약 4분"
      },
      {
        "pc_room_lat": 37.6409840098933,
        "pc_room_lon": 127.029225259709,
        "pc_room_type": "PC방",
        "pc_room_name": "플레잇피씨카페(번동점)",
        "distance": 222.5072716967045,
        "walking_time": "약 4분"
      },
      {
        "pc_room_lat": 37.6409840098933,
        "pc_room_lon": 127.029225259709,
        "pc_room_type": "PC방",
        "pc_room_name": "아마존인터넷PC방",
        "distance": 222.5072716967045,
        "walking_time": "약 4분"
      }
    ],
    "police_office": [
      {
        "police_office_lat": 37.64351954,
        "police_office_lon": 127.0346164,
        "police_office_type": "경찰소",
        "police_office_name": "신창파출소",
        "distance": 330.7781139172161,
        "walking_time": "약 5분"
      },
      {
        "police_office_lat": 37.64433521,
        "police_office_lon": 127.0265847,
        "police_office_type": "경찰소",
        "police_office_name": "수유3파출소",
        "distance": 480.7001996097466,
        "walking_time": "약 8분"
      },
      {
        "police_office_lat": 37.6359778,
        "police_office_lon": 127.0325802,
        "police_office_type": "경찰소",
        "police_office_name": "번동파출소",
        "distance": 694.5880586710967,
        "walking_time": "약 11분"
      },
      {
        "police_office_lat": 37.64751276,
        "police_office_lon": 127.0255828,
        "police_office_type": "경찰소",
        "police_office_name": "숭미파출소",
        "distance": 780.5366582099749,
        "walking_time": "약 12분"
      },
      {
        "police_office_lat": 37.65759555,
        "police_office_lon": 127.0380024,
        "police_office_type": "경찰소",
        "police_office_name": "쌍문파출소",
        "distance": 1817.402127494685,
        "walking_time": "약 28분"
      },
      {
        "police_office_lat": 37.65850997,
        "police_office_lon": 127.0271851,
        "police_office_type": "경찰소",
        "police_office_name": "신방학파출소",
        "distance": 1855.751626661064,
        "walking_time": "약 28분"
      }
    ],
    "post_office": [
      {
        "post_office_lat": 37.64122994,
        "post_office_lon": 127.0286569,
        "post_office_type": "우체국",
        "post_office_name": "서울수유3동우체국",
        "distance": 252.8032730674404,
        "walking_time": "약 4분"
      },
      {
        "post_office_lat": 37.64492915,
        "post_office_lon": 127.0316588,
        "post_office_type": "우체국",
        "post_office_name": "서울쌍문한양우편취급국",
        "distance": 311.8529858161816,
        "walking_time": "약 5분"
      },
      {
        "post_office_lat": 37.63895292,
        "post_office_lon": 127.0377962,
        "post_office_type": "우체국",
        "post_office_name": "서울창2동우편취급국",
        "distance": 673.778338712221,
        "walking_time": "약 11분"
      },
      {
        "post_office_lat": 37.6479235,
        "post_office_lon": 127.0272422,
        "post_office_type": "우체국",
        "post_office_name": "서울도봉우체국",
        "distance": 735.160042214558,
        "walking_time": "약 11분"
      },
      {
        "post_office_lat": 37.63560227,
        "post_office_lon": 127.0200628,
        "post_office_type": "우체국",
        "post_office_name": "서울인수동우편취급국",
        "distance": 1226.9570004369525,
        "walking_time": "약 19분"
      },
      {
        "post_office_lat": 37.63180799,
        "post_office_lon": 127.037878,
        "post_office_type": "우체국",
        "post_office_name": "서울번2동우체국",
        "distance": 1287.098171718792,
        "walking_time": "약 20분"
      },
      {
        "post_office_lat": 37.65183368,
        "post_office_lon": 127.0427337,
        "post_office_type": "우체국",
        "post_office_name": "서울창5동우체국",
        "distance": 1475.5771156223868,
        "walking_time": "약 23분"
      },
      {
        "post_office_lat": 37.65634292,
        "post_office_lon": 127.0377161,
        "post_office_type": "우체국",
        "post_office_name": "서울쌍문2동우체국",
        "distance": 1677.6303968968632,
        "walking_time": "약 26분"
      }
    ],
    "public_health_center": [
      {
        "public_health_center_lat": 37.64141508,
        "public_health_center_lon": 127.035653,
        "public_health_center_type": "보건소",
        "public_health_center_name": "창동 보건지소",
        "distance": 392.6963376326963,
        "walking_time": "약 6분"
      },
      {
        "public_health_center_lat": 37.6318813,
        "public_health_center_lon": 127.0390622,
        "public_health_center_type": "보건소",
        "public_health_center_name": "강북구보건소",
        "distance": 1330.3561290449786,
        "walking_time": "약 20분"
      },
      {
        "public_health_center_lat": 37.65793243,
        "public_health_center_lon": 127.0388203,
        "public_health_center_type": "보건소",
        "public_health_center_name": "도봉구 보건소",
        "distance": 1877.0781579348595,
        "walking_time": "약 29분"
      }
    ],
    "school": [
      {
        "school_lat": 37.6373144075316,
        "school_lon": 127.032917771185,
        "school_type": "초등학교",
        "school_name": "서울수송초등학교",
        "distance": 555.4394218603294,
        "walking_time": "약 9분"
      },
      {
        "school_lat": 37.6449158953693,
        "school_lon": 127.025373389048,
        "school_type": "중학교",
        "school_name": "강북중학교",
        "distance": 605.3671556326007,
        "walking_time": "약 10분"
      },
      {
        "school_lat": 37.6367599332935,
        "school_lon": 127.03358552315,
        "school_type": "중학교",
        "school_name": "수송중학교",
        "distance": 631.5158141165645,
        "walking_time": "약 10분"
      },
      {
        "school_lat": 37.6495947287047,
        "school_lon": 127.03324806776,
        "school_type": "중학교",
        "school_name": "신도봉중학교",
        "distance": 846.7012354856569,
        "walking_time": "약 13분"
      },
      {
        "school_lat": 37.6432370796248,
        "school_lon": 127.041604074164,
        "school_type": "초등학교",
        "school_name": "서울창림초등학교",
        "distance": 916.4651059490452,
        "walking_time": "약 14분"
      },
      {
        "school_lat": 37.6483638272869,
        "school_lon": 127.024291051625,
        "school_type": "초등학교",
        "school_name": "서울쌍문초등학교",
        "distance": 926.5296406866656,
        "walking_time": "약 14분"
      },
      {
        "school_lat": 37.6491157717023,
        "school_lon": 127.038832940575,
        "school_type": "중학교",
        "school_name": "창북중학교",
        "distance": 1021.24767762122,
        "walking_time": "약 16분"
      },
      {
        "school_lat": 37.6510234416817,
        "school_lon": 127.027944278021,
        "school_type": "초등학교",
        "school_name": "서울숭미초등학교",
        "distance": 1030.7295100507818,
        "walking_time": "약 16분"
      },
      {
        "school_lat": 37.6365395299158,
        "school_lon": 127.042084340998,
        "school_type": "초등학교",
        "school_name": "서울신창초등학교",
        "distance": 1136.4527739162277,
        "walking_time": "약 17분"
      },
      {
        "school_lat": 37.6324556910711,
        "school_lon": 127.036206363566,
        "school_type": "중학교",
        "school_name": "번동중학교",
        "distance": 1160.6716747538694,
        "walking_time": "약 18분"
      }
    ],
    "subway": [
      {
        "subway_lat": 37.6377452337445,
        "subway_lon": 127.025356901379,
        "subway_type": "지하철",
        "subway_name": "4호선-수유(강북구청)역",
        "distance": 715.2198064585665,
        "walking_time": "약 11분"
      },
      {
        "subway_lat": 37.6488498649136,
        "subway_lon": 127.034880717215,
        "subway_type": "지하철",
        "subway_name": "4호선-쌍문역",
        "distance": 810.3873931058803,
        "walking_time": "약 13분"
      },
      {
        "subway_lat": 37.6532084846758,
        "subway_lon": 127.04768378525,
        "subway_type": "지하철",
        "subway_name": "4호선-창동역",
        "distance": 1896.97574759396,
        "walking_time": "약 29분"
      }
    ],
    "supermarket": [
      {
        "supermarket_lat": 37.64333589,
        "supermarket_lon": 127.0350214,
        "supermarket_type": "마트",
        "supermarket_name": "(주)에브리데이리테일 창동점",
        "distance": 354.596306048623,
        "walking_time": "약 6분"
      },
      {
        "supermarket_lat": 37.64333589,
        "supermarket_lon": 127.0350214,
        "supermarket_type": "마트",
        "supermarket_name": "(주)이마트에브리데이 창동점",
        "distance": 354.596306048623,
        "walking_time": "약 6분"
      },
      {
        "supermarket_lat": 37.64333589,
        "supermarket_lon": 127.0350214,
        "supermarket_type": "마트",
        "supermarket_name": "(주)에브리데이리테일 창동점",
        "distance": 354.596306048623,
        "walking_time": "약 6분"
      },
      {
        "supermarket_lat": 37.64260638,
        "supermarket_lon": 127.0373306,
        "supermarket_type": "마트",
        "supermarket_name": "대우상가",
        "distance": 534.562628334705,
        "walking_time": "약 8분"
      },
      {
        "supermarket_lat": 37.64003977,
        "supermarket_lon": 127.0372354,
        "supermarket_type": "마트",
        "supermarket_name": "삼익쇼핑",
        "distance": 573.3818750021968,
        "walking_time": "약 9분"
      },
      {
        "supermarket_lat": 37.63623599,
        "supermarket_lon": 127.0303422,
        "supermarket_type": "마트",
        "supermarket_name": "북부시장",
        "distance": 661.7570994481163,
        "walking_time": "약 10분"
      },
      {
        "supermarket_lat": 37.63623599,
        "supermarket_lon": 127.0303422,
        "supermarket_type": "마트",
        "supermarket_name": "강북 북부시장",
        "distance": 661.7570994481163,
        "walking_time": "약 10분"
      },
      {
        "supermarket_lat": 37.64641958,
        "supermarket_lon": 127.0371393,
        "supermarket_type": "마트",
        "supermarket_name": "롯데프레쉬 창동점",
        "distance": 701.3307641531436,
        "walking_time": "약 11분"
      },
      {
        "supermarket_lat": 37.64033675,
        "supermarket_lon": 127.0211763,
        "supermarket_type": "마트",
        "supermarket_name": "수유중앙시장",
        "distance": 912.6319787125328,
        "walking_time": "약 14분"
      },
      {
        "supermarket_lat": 37.64602667,
        "supermarket_lon": 127.0200192,
        "supermarket_type": "마트",
        "supermarket_name": "우이시장",
        "distance": 1082.216575425939,
        "walking_time": "약 17분"
      }
    ],
    "theater": [
      {
        "theater_lat": 37.6424075100379,
        "theater_lon": 127.029806166339,
        "theater_type": "영화관",
        "theater_name": "CGV 수유",
        "distance": 133.8210639725349,
        "walking_time": "약 2분"
      },
      {
        "theater_lat": 37.6356640949861,
        "theater_lon": 127.02383520999,
        "theater_type": "영화관",
        "theater_name": "(주)써니트 롯데시네마 수유",
        "distance": 974.255191674249,
        "walking_time": "약 15분"
      },
      {
        "theater_lat": 37.6546022496976,
        "theater_lon": 127.038732219793,
        "theater_type": "영화관",
        "theater_name": "메가박스 창동",
        "distance": 1532.9121911151128,
        "walking_time": "약 23분"
      }
    ]
  }
}