{
  "클러스터_위도": 37.59370899999998,
  "클러스터_경도": 127.058023,
  "클러스터_level": 3.0,
  "facilities": {
    "bus": [
      {
        "bus_lat": 37.59386782,
        "bus_lon": 127.0577431,
        "bus_type": "버스정류장",
        "bus_name": "동안교회",
        "distance": 30.33203804191507,
        "walking_time": "약 1분"
      },
      {
        "bus_lat": 37.59334729,
        "bus_lon": 127.0583347,
        "bus_type": "버스정류장",
        "bus_name": "경희중고",
        "distance": 48.70189737505227,
        "walking_time": "약 1분"
      },
      {
        "bus_lat": 37.59292281,
        "bus_lon": 127.0577445,
        "bus_type": "버스정류장",
        "bus_name": "경희중고",
        "distance": 90.79874749893898,
        "walking_time": "약 2분"
      },
      {
        "bus_lat": 37.59286031,
        "bus_lon": 127.0573015,
        "bus_type": "버스정류장",
        "bus_name": "동안교회",
        "distance": 113.78357595925104,
        "walking_time": "약 2분"
      },
      {
        "bus_lat": 37.59435924,
        "bus_lon": 127.0564273,
        "bus_type": "버스정류장",
        "bus_name": "경희중고",
        "distance": 158.09295228805598,
        "walking_time": "약 3분"
      },
      {
        "bus_lat": 37.59465124,
        "bus_lon": 127.0563426,
        "bus_type": "버스정류장",
        "bus_name": "경희중고",
        "distance": 181.37465056304129,
        "walking_time": "약 3분"
      },
      {
        "bus_lat": 37.59561508,
        "bus_lon": 127.0570001,
        "bus_type": "버스정류장",
        "bus_name": "경희맨션",
        "distance": 230.3114293628608,
        "walking_time": "약 4분"
      },
      {
        "bus_lat": 37.59565568,
        "bus_lon": 127.0569107,
        "bus_type": "버스정류장",
        "bus_name": "딩동슈퍼",
        "distance": 237.61135274078228,
        "walking_time": "약 4분"
      },
      {
        "bus_lat": 37.59548126,
        "bus_lon": 127.0597678,
        "bus_type": "버스정류장",
        "bus_name": "외대앞",
        "distance": 249.9333708141453,
        "walking_time": "약 4분"
      },
      {
        "bus_lat": 37.59562821,
        "bus_lon": 127.0596059,
        "bus_type": "버스정류장",
        "bus_name": "외대앞",
        "distance": 254.93477174058293,
        "walking_time": "약 4분"
      }
    ],
    "community_center": [
      {
        "community_center_lat": 37.59080616,
        "community_center_lon": 127.0553779,
        "community_center_type": "주민센터",
        "community_center_name": "회기동 자치회관",
        "distance": 398.12273428808976,
        "walking_time": "약 6분"
      },
      {
        "community_center_lat": 37.5978135,
        "community_center_lon": 127.065483,
        "community_center_type": "주민센터",
        "community_center_name": "휘경1동 자치회관",
        "distance": 800.176208737615,
        "walking_time": "약 12분"
      },
      {
        "community_center_lat": 37.5978135,
        "community_center_lon": 127.065483,
        "community_center_type": "주민센터",
        "community_center_name": "이문1동 자치회관",
        "distance": 800.176208737615,
        "walking_time": "약 12분"
      },
      {
        "community_center_lat": 37.59013384,
        "community_center_lon": 127.0685918,
        "community_center_type": "주민센터",
        "community_center_name": "휘경2동 자치회관",
        "distance": 1012.5050511505752,
        "walking_time": "약 16분"
      },
      {
        "community_center_lat": 37.60339461,
        "community_center_lon": 127.0651361,
        "community_center_type": "주민센터",
        "community_center_name": "이문2동 자치회관",
        "distance": 1246.0415579857288,
        "walking_time": "약 19분"
      },
      {
        "community_center_lat": 37.58627625,
        "community_center_lon": 127.0472854,
        "community_center_type": "주민센터",
        "community_center_name": "청량리동 자치회관",
        "distance": 1256.2527616934974,
        "walking_time": "약 19분"
      },
      {
        "community_center_lat": 37.60577914,
        "community_center_lon": 127.0478706,
        "community_center_type": "주민센터",
        "community_center_name": "월곡2동 자치회관",
        "distance": 1612.8588977026016,
        "walking_time": "약 25분"
      }
    ],
    "convenience_store": [
      {
        "convenience_store_lat": 37.59490582,
        "convenience_store_lon": 127.0580862,
        "convenience_store_type": "편의점",
        "convenience_store_name": "CU 외대얄개점",
        "distance": 133.19675279359186,
        "walking_time": "약 2분"
      },
      {
        "convenience_store_lat": 37.59237579,
        "convenience_store_lon": 127.0577983,
        "convenience_store_type": "편의점",
        "convenience_store_name": "세븐일레븐 이문경희점",
        "distance": 149.5622861016849,
        "walking_time": "약 3분"
      },
      {
        "convenience_store_lat": 37.59167639,
        "convenience_store_lon": 127.0567973,
        "convenience_store_type": "편의점",
        "convenience_store_name": "GS25 회기자인M점",
        "distance": 250.490905609064,
        "walking_time": "약 4분"
      },
      {
        "convenience_store_lat": 37.59465182,
        "convenience_store_lon": 127.0607873,
        "convenience_store_type": "편의점",
        "convenience_store_name": "CU 외대이문점",
        "distance": 265.1553241927612,
        "walking_time": "약 4분"
      },
      {
        "convenience_store_lat": 37.59120235,
        "convenience_store_lon": 127.0570279,
        "convenience_store_type": "편의점",
        "convenience_store_name": "세븐일레븐 휘경본점",
        "distance": 292.1911245830797,
        "walking_time": "약 5분"
      },
      {
        "convenience_store_lat": 37.590577,
        "convenience_store_lon": 127.0579105,
        "convenience_store_type": "편의점",
        "convenience_store_name": "CU 회기중앙점",
        "distance": 348.4035397636409,
        "walking_time": "약 6분"
      },
      {
        "convenience_store_lat": 37.59679267,
        "convenience_store_lon": 127.0566134,
        "convenience_store_type": "편의점",
        "convenience_store_name": "세븐일레븐 외대미니점",
        "distance": 364.6862669360187,
        "walking_time": "약 6분"
      },
      {
        "convenience_store_lat": 37.59594226,
        "convenience_store_lon": 127.0610583,
        "convenience_store_type": "편의점",
        "convenience_store_name": "GS25 외대2점",
        "distance": 364.9412486002656,
        "walking_time": "약 6분"
      },
      {
        "convenience_store_lat": 37.59232415,
        "convenience_store_lon": 127.0542267,
        "convenience_store_type": "편의점",
        "convenience_store_name": "GS25 경희외대점",
        "distance": 368.2245332718614,
        "walking_time": "약 6분"
      },
      {
        "convenience_store_lat": 37.59249251,
        "convenience_store_lon": 127.0535112,
        "convenience_store_type": "편의점",
        "convenience_store_name": "CU 경희대점",
        "distance": 419.9041633133346,
        "walking_time": "약 7분"
      }
    ],
    "daycare": [
      {
        "daycare_lat": 37.59341711,
        "daycare_lon": 127.0570133,
        "daycare_type": "어린이집",
        "daycare_name": "샛별어린이집",
        "distance": 94.69671427657924,
        "walking_time": "약 2분"
      },
      {
        "daycare_lat": 37.59351274,
        "daycare_lon": 127.0603039,
        "daycare_type": "어린이집",
        "daycare_name": "사랑샘어린이집",
        "distance": 202.14277864359053,
        "walking_time": "약 4분"
      },
      {
        "daycare_lat": 37.59550116,
        "daycare_lon": 127.0584738,
        "daycare_type": "어린이집",
        "daycare_name": "리틀짐랜드어린이집",
        "distance": 203.1985658127222,
        "walking_time": "약 4분"
      },
      {
        "daycare_lat": 37.59535226,
        "daycare_lon": 127.0592367,
        "daycare_type": "어린이집",
        "daycare_name": "짐랜드어린이집",
        "distance": 211.712268953211,
        "walking_time": "약 4분"
      },
      {
        "daycare_lat": 37.59423642,
        "daycare_lon": 127.0606628,
        "daycare_type": "어린이집",
        "daycare_name": "솜송이어린이집",
        "distance": 239.8615324454687,
        "walking_time": "약 4분"
      },
      {
        "daycare_lat": 37.591486613604616,
        "daycare_lon": 127.05777793521736,
        "daycare_type": "어린이집",
        "daycare_name": "휘경스마일어린이집",
        "distance": 248.0596024427951,
        "walking_time": "약 4분"
      },
      {
        "daycare_lat": 37.59522345,
        "daycare_lon": 127.0605983,
        "daycare_type": "어린이집",
        "daycare_name": "누리어린이집",
        "distance": 282.560792659147,
        "walking_time": "약 5분"
      },
      {
        "daycare_lat": 37.59098739,
        "daycare_lon": 127.0555946,
        "daycare_type": "어린이집",
        "daycare_name": "참연세어린이집",
        "distance": 370.6259457998993,
        "walking_time": "약 6분"
      },
      {
        "daycare_lat": 37.5913124,
        "daycare_lon": 127.0613223,
        "daycare_type": "어린이집",
        "daycare_name": "휘경어린이집",
        "distance": 394.35919231281264,
        "walking_time": "약 6분"
      },
      {
        "daycare_lat": 37.59621368,
        "daycare_lon": 127.0548411,
        "daycare_type": "어린이집",
        "daycare_name": "경희대학교직장어린이집",
        "distance": 395.1670454723502,
        "walking_time": "약 6분"
      }
    ],
    "education": [
      {
        "education_lat": 37.59583018210771,
        "education_lon": 127.05421667214812,
        "education_type": "박물관/기념관",
        "education_name": "경희대학교한의학역사박물관",
        "distance": 409.99461808344734,
        "walking_time": "약 7분"
      },
      {
        "education_lat": 37.59782541765426,
        "education_lon": 127.0552089479752,
        "education_type": "박물관/기념관",
        "education_name": "경희대학교 자연사박물관",
        "distance": 520.5576871448451,
        "walking_time": "약 8분"
      },
      {
        "education_lat": 37.59713729362956,
        "education_lon": 127.05272856110398,
        "education_type": "박물관/기념관",
        "education_name": "경희대학교 중앙박물관",
        "distance": 602.4170697936981,
        "walking_time": "약 9분"
      },
      {
        "education_lat": 37.59889444,
        "education_lon": 127.0538436,
        "education_type": "도서관",
        "education_name": "이문어린이도서관",
        "distance": 684.1385206517098,
        "walking_time": "약 11분"
      },
      {
        "education_lat": 37.58996951,
        "education_lon": 127.0472897,
        "education_type": "도서관",
        "education_name": "동대문구정보화도서관",
        "distance": 1033.070081026737,
        "walking_time": "약 16분"
      },
      {
        "education_lat": 37.58257758,
        "education_lon": 127.0599881,
        "education_type": "도서관",
        "education_name": "서울휴먼라이브러리",
        "distance": 1249.8097539560194,
        "walking_time": "약 19분"
      },
      {
        "education_lat": 37.58257758,
        "education_lon": 127.0599881,
        "education_type": "박물관/기념관",
        "education_name": "서울시립대학교 박물관",
        "distance": 1249.8097539560194,
        "walking_time": "약 19분"
      },
      {
        "education_lat": 37.58717428,
        "education_lon": 127.069939,
        "education_type": "도서관",
        "education_name": "휘경행복도서관",
        "distance": 1276.8378404931773,
        "walking_time": "약 20분"
      },
      {
        "education_lat": 37.59070597134996,
        "education_lon": 127.04281951646152,
        "education_type": "박물관/기념관",
        "education_name": "김희수아트센터",
        "distance": 1380.5384197910666,
        "walking_time": "약 21분"
      },
      {
        "education_lat": 37.59099289,
        "education_lon": 127.0427032,
        "education_type": "박물관/기념관",
        "education_name": "세종대왕기념관",
        "distance": 1383.1672951065989,
        "walking_time": "약 21분"
      }
    ],
    "electric_gas_station": [
      {
        "electric_gas_station_lat": 37.59849172,
        "electric_gas_station_lon": 127.0618858,
        "electric_gas_station_type": "전기차 충전소",
        "electric_gas_station_name": "이마트 이문점",
        "distance": 631.3853755707582,
        "walking_time": "약 10분"
      },
      {
        "electric_gas_station_lat": 37.5841974,
        "electric_gas_station_lon": 127.051145,
        "electric_gas_station_type": "전기차 충전소",
        "electric_gas_station_name": "청량리롯데백화점",
        "distance": 1218.9670770979285,
        "walking_time": "약 19분"
      },
      {
        "electric_gas_station_lat": 37.60182774,
        "electric_gas_station_lon": 127.0404635,
        "electric_gas_station_type": "전기차 충전소",
        "electric_gas_station_name": "홈플러스 월곡점",
        "distance": 1791.1536664693922,
        "walking_time": "약 27분"
      },
      {
        "electric_gas_station_lat": 37.60939144,
        "electric_gas_station_lon": 127.0532211,
        "electric_gas_station_type": "전기차 충전소",
        "electric_gas_station_name": "성북벤처빌딩 공영주차장",
        "distance": 1794.386085063039,
        "walking_time": "약 27분"
      }
    ],
    "fitness": [
      {
        "fitness_lat": 37.59383905,
        "fitness_lon": 127.0582469,
        "fitness_type": "운동시설",
        "fitness_name": "헬스파크",
        "distance": 24.45954185686105,
        "walking_time": "약 1분"
      },
      {
        "fitness_lat": 37.59262596,
        "fitness_lon": 127.057882,
        "fitness_type": "운동시설",
        "fitness_name": "동네 운동장",
        "distance": 121.06761923427408,
        "walking_time": "약 2분"
      },
      {
        "fitness_lat": 37.59130852,
        "fitness_lon": 127.0556492,
        "fitness_type": "운동시설",
        "fitness_name": "메이크픽스짐",
        "distance": 339.1023927577832,
        "walking_time": "약 6분"
      },
      {
        "fitness_lat": 37.59080113,
        "fitness_lon": 127.0561174,
        "fitness_type": "운동시설",
        "fitness_name": "스포벡휘트니스",
        "distance": 364.3333581583774,
        "walking_time": "약 6분"
      },
      {
        "fitness_lat": 37.5917007,
        "fitness_lon": 127.0547328,
        "fitness_type": "운동시설",
        "fitness_name": "GYM TIME",
        "distance": 365.9303698596392,
        "walking_time": "약 6분"
      },
      {
        "fitness_lat": 37.59021215,
        "fitness_lon": 127.0576234,
        "fitness_type": "운동시설",
        "fitness_name": "라온 퍼스널트레이닝",
        "distance": 390.4227341268008,
        "walking_time": "약 6분"
      },
      {
        "fitness_lat": 37.59637723,
        "fitness_lon": 127.0609451,
        "fitness_type": "운동시설",
        "fitness_name": "팻다운핏",
        "distance": 392.8201074893973,
        "walking_time": "약 6분"
      },
      {
        "fitness_lat": 37.590396,
        "fitness_lon": 127.0598779,
        "fitness_type": "운동시설",
        "fitness_name": "크로스핏 리스펙",
        "distance": 403.0138533438278,
        "walking_time": "약 7분"
      },
      {
        "fitness_lat": 37.59601668,
        "fitness_lon": 127.0617436,
        "fitness_type": "운동시설",
        "fitness_name": "짐구공 외대점",
        "distance": 416.292029079336,
        "walking_time": "약 7분"
      },
      {
        "fitness_lat": 37.59590016,
        "fitness_lon": 127.0619628,
        "fitness_type": "운동시설",
        "fitness_name": "TRUST GYM",
        "distance": 424.0898193332839,
        "walking_time": "약 7분"
      }
    ],
    "gas_station": [
      {
        "gas_station_lat": 37.58842532,
        "gas_station_lon": 127.0573955,
        "gas_station_type": "주유소",
        "gas_station_name": "한영주유소",
        "distance": 590.1141418918224,
        "walking_time": "약 9분"
      },
      {
        "gas_station_lat": 37.59018314,
        "gas_station_lon": 127.0632353,
        "gas_station_type": "주유소",
        "gas_station_name": "㈜안국에너지 삼원주유소",
        "distance": 603.8345329456399,
        "walking_time": "약 10분"
      },
      {
        "gas_station_lat": 37.59122764,
        "gas_station_lon": 127.0670365,
        "gas_station_type": "주유소",
        "gas_station_name": "㈜파랑에너지",
        "distance": 840.7224540330762,
        "walking_time": "약 13분"
      },
      {
        "gas_station_lat": 37.59754374,
        "gas_station_lon": 127.0680386,
        "gas_station_type": "주유소",
        "gas_station_name": "동서울고속주유소",
        "distance": 980.036304672282,
        "walking_time": "약 15분"
      },
      {
        "gas_station_lat": 37.58646996,
        "gas_station_lon": 127.0516032,
        "gas_station_type": "주유소",
        "gas_station_name": "대성산업㈜청량리주유소",
        "distance": 983.8172285881886,
        "walking_time": "약 15분"
      },
      {
        "gas_station_lat": 37.60364823,
        "gas_station_lon": 127.0618006,
        "gas_station_type": "주유소",
        "gas_station_name": "㈜경동주유소",
        "distance": 1154.2139487068969,
        "walking_time": "약 18분"
      },
      {
        "gas_station_lat": 37.5843891,
        "gas_station_lon": 127.0676839,
        "gas_station_type": "주유소",
        "gas_station_name": "열린주유소",
        "distance": 1341.1096243533332,
        "walking_time": "약 21분"
      },
      {
        "gas_station_lat": 37.58800922,
        "gas_station_lon": 127.042553,
        "gas_station_type": "주유소",
        "gas_station_name": "㈜홍릉주유소",
        "distance": 1503.1958793259232,
        "walking_time": "약 23분"
      },
      {
        "gas_station_lat": 37.60690716,
        "gas_station_lon": 127.0500906,
        "gas_station_type": "주유소",
        "gas_station_name": "㈜신용구도일주유소 화랑로",
        "distance": 1625.4602302110006,
        "walking_time": "약 25분"
      },
      {
        "gas_station_lat": 37.60346378,
        "gas_station_lon": 127.043444,
        "gas_station_type": "주유소",
        "gas_station_name": "장위주유소",
        "distance": 1681.146559539212,
        "walking_time": "약 26분"
      }
    ],
    "hospital": [
      {
        "hospital_lat": 37.59341013,
        "hospital_lon": 127.0579755,
        "hospital_type": "병원",
        "hospital_name": "부치과의원",
        "distance": 33.49530477159768,
        "walking_time": "약 1분"
      },
      {
        "hospital_lat": 37.59371321,
        "hospital_lon": 127.0585675,
        "hospital_type": "병원",
        "hospital_name": "보람산부인과의원",
        "distance": 47.976020052209904,
        "walking_time": "약 1분"
      },
      {
        "hospital_lat": 37.5939028,
        "hospital_lon": 127.0588866,
        "hospital_type": "병원",
        "hospital_name": "심온치과의원",
        "distance": 79.0810333966516,
        "walking_time": "약 2분"
      },
      {
        "hospital_lat": 37.59296999,
        "hospital_lon": 127.0574352,
        "hospital_type": "병원",
        "hospital_name": "경희자연한약국",
        "distance": 97.13234319082648,
        "walking_time": "약 2분"
      },
      {
        "hospital_lat": 37.59473864,
        "hospital_lon": 127.0588947,
        "hospital_type": "병원",
        "hospital_name": "경희장수한의원",
        "distance": 137.86443040699655,
        "walking_time": "약 3분"
      },
      {
        "hospital_lat": 37.59467108,
        "hospital_lon": 127.0594083,
        "hospital_type": "병원",
        "hospital_name": "동안비전내과의원",
        "distance": 162.2997079982841,
        "walking_time": "약 3분"
      },
      {
        "hospital_lat": 37.59467108,
        "hospital_lon": 127.0594083,
        "hospital_type": "병원",
        "hospital_name": "서울베스트정형외과의원",
        "distance": 162.2997079982841,
        "walking_time": "약 3분"
      },
      {
        "hospital_lat": 37.59532172,
        "hospital_lon": 127.0597043,
        "hospital_type": "병원",
        "hospital_name": "아라현치과의원",
        "distance": 232.59563851969315,
        "walking_time": "약 4분"
      },
      {
        "hospital_lat": 37.59552679,
        "hospital_lon": 127.0598725,
        "hospital_type": "병원",
        "hospital_name": "서울현정신건강의학과의원",
        "distance": 259.63221419917465,
        "walking_time": "약 4분"
      },
      {
        "hospital_lat": 37.59605576,
        "hospital_lon": 127.0607499,
        "hospital_type": "병원",
        "hospital_name": "서울아트피부과의원",
        "distance": 354.704176262096,
        "walking_time": "약 6분"
      }
    ],
    "music_room": [
      {
        "music_room_lat": 37.59538187,
        "music_room_lon": 127.0592314,
        "music_room_type": "노래방",
        "music_room_name": "고래고래코인노래연습장",
        "distance": 214.3279994842006,
        "walking_time": "약 4분"
      },
      {
        "music_room_lat": 37.5956973,
        "music_room_lon": 127.0599621,
        "music_room_type": "노래방",
        "music_room_name": "리코스타코인노래연습장(외대2호점)",
        "distance": 279.40652831171144,
        "walking_time": "약 5분"
      },
      {
        "music_room_lat": 37.59618322,
        "music_room_lon": 127.060295,
        "music_room_type": "노래방",
        "music_room_name": "외대락코인노래연습장",
        "distance": 340.2364938624636,
        "walking_time": "약 6분"
      },
      {
        "music_room_lat": 37.59623476,
        "music_room_lon": 127.0611603,
        "music_room_type": "노래방",
        "music_room_name": "뉴쟁반",
        "distance": 394.0563090688201,
        "walking_time": "약 6분"
      },
      {
        "music_room_lat": 37.59018511,
        "music_room_lon": 127.0574416,
        "music_room_type": "노래방",
        "music_room_name": "소리골",
        "distance": 395.17296030040114,
        "walking_time": "약 6분"
      },
      {
        "music_room_lat": 37.590396,
        "music_room_lon": 127.0598779,
        "music_room_type": "노래방",
        "music_room_name": "친구",
        "distance": 403.0138533438278,
        "walking_time": "약 7분"
      },
      {
        "music_room_lat": 37.58984719,
        "music_room_lon": 127.0573558,
        "music_room_type": "노래방",
        "music_room_name": "더(the)코인 노래연습장",
        "distance": 433.4188357704129,
        "walking_time": "약 7분"
      },
      {
        "music_room_lat": 37.58983024,
        "music_room_lon": 127.0571965,
        "music_room_type": "노래방",
        "music_room_name": "한우리",
        "distance": 437.4029209304915,
        "walking_time": "약 7분"
      },
      {
        "music_room_lat": 37.58976564,
        "music_room_lon": 127.0568193,
        "music_room_type": "노래방",
        "music_room_name": "락소",
        "distance": 451.1252835021968,
        "walking_time": "약 7분"
      },
      {
        "music_room_lat": 37.59555123,
        "music_room_lon": 127.0626107,
        "music_room_type": "노래방",
        "music_room_name": "노래야노래야코인노래연습장",
        "distance": 453.1434937870077,
        "walking_time": "약 7분"
      }
    ],
    "park": [
      {
        "park_lat": 37.6020055,
        "park_lon": 127.0511145,
        "park_type": "공원",
        "park_name": "청량공원",
        "distance": 1105.2194061009957,
        "walking_time": "약 17분"
      },
      {
        "park_lat": 37.5812324,
        "park_lon": 127.0641623,
        "park_type": "공원",
        "park_name": "배봉산근린공원",
        "distance": 1489.0699704386454,
        "walking_time": "약 23분"
      }
    ],
    "park_station": [
      {
        "park_station_lat": 37.59207318,
        "park_station_lon": 127.0554804,
        "park_station_type": "주차장",
        "park_station_name": "회기동 공영주차장",
        "distance": 288.5673244929612,
        "walking_time": "약 5분"
      },
      {
        "park_station_lat": 37.5900855,
        "park_station_lon": 127.0566249,
        "park_station_type": "주차장",
        "park_station_name": "회기역주변 공영주차장",
        "distance": 421.3248861223616,
        "walking_time": "약 7분"
      },
      {
        "park_station_lat": 37.59503649,
        "park_station_lon": 127.062614,
        "park_station_type": "주차장",
        "park_station_name": "외대역주차빌딩 공영",
        "distance": 430.5832052572606,
        "walking_time": "약 7분"
      },
      {
        "park_station_lat": 37.58804584,
        "park_station_lon": 127.0580993,
        "park_station_type": "주차장",
        "park_station_name": "휘경마을 공영주차장",
        "distance": 629.7505453062397,
        "walking_time": "약 10분"
      },
      {
        "park_station_lat": 37.59548055,
        "park_station_lon": 127.0651718,
        "park_station_type": "주차장",
        "park_station_name": "이경시장 공영주차장",
        "distance": 659.9308131099708,
        "walking_time": "약 10분"
      },
      {
        "park_station_lat": 37.58690804,
        "park_station_lon": 127.0620476,
        "park_station_type": "주차장",
        "park_station_name": "배봉공영주차장",
        "distance": 835.244800751797,
        "walking_time": "약 13분"
      },
      {
        "park_station_lat": 37.58985933,
        "park_station_lon": 127.0693296,
        "park_station_type": "주차장",
        "park_station_name": "휘경유수지",
        "distance": 1084.2803928975886,
        "walking_time": "약 17분"
      },
      {
        "park_station_lat": 37.58909598,
        "park_station_lon": 127.0690624,
        "park_station_type": "주차장",
        "park_station_name": "견인보관소",
        "distance": 1099.6339801984043,
        "walking_time": "약 17분"
      },
      {
        "park_station_lat": 37.58918427,
        "park_station_lon": 127.0696973,
        "park_station_type": "주차장",
        "park_station_name": "휘경유수지 공영주차장",
        "distance": 1145.0634724646263,
        "walking_time": "약 18분"
      },
      {
        "park_station_lat": 37.58405028,
        "park_station_lon": 127.0489954,
        "park_station_type": "주차장",
        "park_station_name": "청량리동 노외주차장",
        "distance": 1336.4873804895567,
        "walking_time": "약 20분"
      }
    ],
    "pc_room": [
      {
        "pc_room_lat": 37.5950014960546,
        "pc_room_lon": 127.059005156761,
        "pc_room_type": "PC방",
        "pc_room_name": "제너스PC 외대점",
        "distance": 167.7591872260985,
        "walking_time": "약 3분"
      },
      {
        "pc_room_lat": 37.5953818714405,
        "pc_room_lon": 127.05923135853,
        "pc_room_type": "PC방",
        "pc_room_name": "1% PC아레나",
        "distance": 214.32632356361336,
        "walking_time": "약 4분"
      },
      {
        "pc_room_lat": 37.5961287575383,
        "pc_room_lon": 127.061416705231,
        "pc_room_type": "PC방",
        "pc_room_name": "아이센스리그PC 외대점",
        "distance": 402.2405741041839,
        "walking_time": "약 7분"
      },
      {
        "pc_room_lat": 37.5967350539561,
        "pc_room_lon": 127.060682416152,
        "pc_room_type": "PC방",
        "pc_room_name": "VRIZ PC CAFE",
        "distance": 410.0234963996212,
        "walking_time": "약 7분"
      },
      {
        "pc_room_lat": 37.5957907777139,
        "pc_room_lon": 127.062480944175,
        "pc_room_type": "PC방",
        "pc_room_name": "해리PC방",
        "distance": 455.90547660900944,
        "walking_time": "약 7분"
      },
      {
        "pc_room_lat": 37.589460624459,
        "pc_room_lon": 127.055945297168,
        "pc_room_type": "PC방",
        "pc_room_name": "제노PC방",
        "distance": 506.6279621335837,
        "walking_time": "약 8분"
      },
      {
        "pc_room_lat": 37.5895567328256,
        "pc_room_lon": 127.055622225035,
        "pc_room_type": "PC방",
        "pc_room_name": "레드포스PC 아레나(회기점)",
        "distance": 507.8596915545737,
        "walking_time": "약 8분"
      },
      {
        "pc_room_lat": 37.5983004756761,
        "pc_room_lon": 127.056800748936,
        "pc_room_type": "PC방",
        "pc_room_name": "3POP PC방",
        "distance": 521.7815663635228,
        "walking_time": "약 8분"
      },
      {
        "pc_room_lat": 37.5895017444406,
        "pc_room_lon": 127.060969116205,
        "pc_room_type": "PC방",
        "pc_room_name": "GGX PC방",
        "distance": 535.0153193275909,
        "walking_time": "약 8분"
      },
      {
        "pc_room_lat": 37.5895997469635,
        "pc_room_lon": 127.061365936668,
        "pc_room_type": "PC방",
        "pc_room_name": "3POP",
        "distance": 543.6337928825277,
        "walking_time": "약 9분"
      }
    ],
    "police_office": [
      {
        "police_office_lat": 37.59108473,
        "police_office_lon": 127.0518493,
        "police_office_type": "경찰소",
        "police_office_name": "회기파출소",
        "distance": 617.2777965688559,
        "walking_time": "약 10분"
      },
      {
        "police_office_lat": 37.58637309,
        "police_office_lon": 127.0542292,
        "police_office_type": "경찰소",
        "police_office_name": "전농2파출소",
        "distance": 881.5503931534063,
        "walking_time": "약 14분"
      },
      {
        "police_office_lat": 37.59648386,
        "police_office_lon": 127.0681153,
        "police_office_type": "경찰소",
        "police_office_name": "이문지구대",
        "distance": 941.1892747418098,
        "walking_time": "약 15분"
      },
      {
        "police_office_lat": 37.58467452,
        "police_office_lon": 127.0680238,
        "police_office_type": "경찰소",
        "police_office_name": "휘경파출소",
        "distance": 1336.2947193247544,
        "walking_time": "약 20분"
      },
      {
        "police_office_lat": 37.58410673,
        "police_office_lon": 127.0452724,
        "police_office_type": "경찰소",
        "police_office_name": "청량리파출소",
        "distance": 1549.914574421001,
        "walking_time": "약 24분"
      },
      {
        "police_office_lat": 37.58556267,
        "police_office_lon": 127.0420264,
        "police_office_type": "경찰소",
        "police_office_name": "제기파출소",
        "distance": 1675.4541064214775,
        "walking_time": "약 26분"
      },
      {
        "police_office_lat": 37.60895875,
        "police_office_lon": 127.0552686,
        "police_office_type": "경찰소",
        "police_office_name": "석관파출소",
        "distance": 1712.9688039555156,
        "walking_time": "약 26분"
      }
    ],
    "post_office": [
      {
        "post_office_lat": 37.59394914,
        "post_office_lon": 127.054891,
        "post_office_type": "우체국",
        "post_office_name": "경희대학교우편취급국",
        "distance": 277.23659376548625,
        "walking_time": "약 5분"
      },
      {
        "post_office_lat": 37.59032721,
        "post_office_lon": 127.0581584,
        "post_office_type": "우체국",
        "post_office_name": "서울휘경동우체국",
        "distance": 376.2270807076077,
        "walking_time": "약 6분"
      },
      {
        "post_office_lat": 37.59829668,
        "post_office_lon": 127.0579424,
        "post_office_type": "우체국",
        "post_office_name": "한국외국어대학교우편취급국",
        "distance": 510.17616366322943,
        "walking_time": "약 8분"
      },
      {
        "post_office_lat": 37.59853967,
        "post_office_lon": 127.0611615,
        "post_office_type": "우체국",
        "post_office_name": "서울이문동우체국",
        "distance": 604.1395615200342,
        "walking_time": "약 10분"
      },
      {
        "post_office_lat": 37.58257758,
        "post_office_lon": 127.0599881,
        "post_office_type": "우체국",
        "post_office_name": "서울시립대학교우편취급국",
        "distance": 1249.8097539560194,
        "walking_time": "약 19분"
      },
      {
        "post_office_lat": 37.60876795,
        "post_office_lon": 127.0524242,
        "post_office_type": "우체국",
        "post_office_name": "서울석관동우체국",
        "distance": 1745.6125784587382,
        "walking_time": "약 27분"
      },
      {
        "post_office_lat": 37.58129117,
        "post_office_lon": 127.0451456,
        "post_office_type": "우체국",
        "post_office_name": "서울청량리우체국",
        "distance": 1787.2008398895516,
        "walking_time": "약 27분"
      },
      {
        "post_office_lat": 37.6061912,
        "post_office_lon": 127.0405704,
        "post_office_type": "우체국",
        "post_office_name": "서울월곡1동우편취급국",
        "distance": 2071.3490514924,
        "walking_time": "약 31분"
      }
    ],
    "school": [
      {
        "school_lat": 37.5923093987643,
        "school_lon": 127.055908478798,
        "school_type": "초등학교",
        "school_name": "서울청량초등학교",
        "distance": 242.75371695369904,
        "walking_time": "약 4분"
      },
      {
        "school_lat": 37.5939491407769,
        "school_lon": 127.054890960564,
        "school_type": "고등학교",
        "school_name": "경희고등학교",
        "distance": 277.24006047507675,
        "walking_time": "약 5분"
      },
      {
        "school_lat": 37.5939491407769,
        "school_lon": 127.054890960564,
        "school_type": "고등학교",
        "school_name": "경희여자고등학교",
        "distance": 277.24006047507675,
        "walking_time": "약 5분"
      },
      {
        "school_lat": 37.5939491407769,
        "school_lon": 127.054890960564,
        "school_type": "중학교",
        "school_name": "경희중학교",
        "distance": 277.24006047507675,
        "walking_time": "약 5분"
      },
      {
        "school_lat": 37.5939491407769,
        "school_lon": 127.054890960564,
        "school_type": "중학교",
        "school_name": "경희여자중학교",
        "distance": 277.24006047507675,
        "walking_time": "약 5분"
      },
      {
        "school_lat": 37.5939491407769,
        "school_lon": 127.054890960564,
        "school_type": "초등학교",
        "school_name": "경희초등학교",
        "distance": 277.24006047507675,
        "walking_time": "약 5분"
      },
      {
        "school_lat": 37.5888860047887,
        "school_lon": 127.051310950177,
        "school_type": "고등학교",
        "school_name": "청량고등학교",
        "distance": 798.3441568982535,
        "walking_time": "약 12분"
      },
      {
        "school_lat": 37.5870929876308,
        "school_lon": 127.061746113577,
        "school_type": "중학교",
        "school_name": "휘경중학교",
        "distance": 805.4926437376,
        "walking_time": "약 13분"
      },
      {
        "school_lat": 37.5882192071931,
        "school_lon": 127.050622549806,
        "school_type": "중학교",
        "school_name": "청량중학교",
        "distance": 893.1968247549655,
        "walking_time": "약 14분"
      },
      {
        "school_lat": 37.5856754144498,
        "school_lon": 127.057916891964,
        "school_type": "초등학교",
        "school_name": "서울휘경초등학교",
        "distance": 893.3428795534973,
        "walking_time": "약 14분"
      }
    ],
    "self_laundromat": [
      {
        "self_laundromat_lat": 37.60719853,
        "self_laundromat_lon": 127.051166,
        "self_laundromat_type": "셀프 빨래방",
        "self_laundromat_name": "워시테리아 석관점",
        "distance": 1617.041933232082,
        "walking_time": "약 25분"
      },
      {
        "self_laundromat_lat": 37.60719853,
        "self_laundromat_lon": 127.051166,
        "self_laundromat_type": "셀프 빨래방",
        "self_laundromat_name": "워시테리아 석관점",
        "distance": 1617.041933232082,
        "walking_time": "약 25분"
      },
      {
        "self_laundromat_lat": 37.60922779,
        "self_laundromat_lon": 127.0563821,
        "self_laundromat_type": "셀프 빨래방",
        "self_laundromat_name": "런드리데이",
        "distance": 1731.655101932934,
        "walking_time": "약 26분"
      },
      {
        "self_laundromat_lat": 37.60922779,
        "self_laundromat_lon": 127.0563821,
        "self_laundromat_type": "셀프 빨래방",
        "self_laundromat_name": "빨래하는날",
        "distance": 1731.655101932934,
        "walking_time": "약 26분"
      },
      {
        "self_laundromat_lat": 37.60922779,
        "self_laundromat_lon": 127.0563821,
        "self_laundromat_type": "셀프 빨래방",
        "self_laundromat_name": "런드리데이",
        "distance": 1731.655101932934,
        "walking_time": "약 26분"
      },
      {
        "self_laundromat_lat": 37.60922779,
        "self_laundromat_lon": 127.0563821,
        "self_laundromat_type": "셀프 빨래방",
        "self_laundromat_name": "빨래하는날",
        "distance": 1731.655101932934,
        "walking_time": "약 26분"
      },
      {
        "self_laundromat_lat": 37.60577676,
        "self_laundromat_lon": 127.0445272,
        "self_laundromat_type": "셀프 빨래방",
        "self_laundromat_name": "화이트365 동덕여대점",
        "distance": 1792.8365379205547,
        "walking_time": "약 27분"
      },
      {
        "self_laundromat_lat": 37.60577676,
        "self_laundromat_lon": 127.0445272,
        "self_laundromat_type": "셀프 빨래방",
        "self_laundromat_name": "화이트365 동덕여대점",
        "distance": 1792.8365379205547,
        "walking_time": "약 27분"
      },
      {
        "self_laundromat_lat": 37.60551285,
        "self_laundromat_lon": 127.0438348,
        "self_laundromat_type": "셀프 빨래방",
        "self_laundromat_name": "크린업24 동덕여대점",
        "distance": 1812.497637187848,
        "walking_time": "약 28분"
      },
      {
        "self_laundromat_lat": 37.60551285,
        "self_laundromat_lon": 127.0438348,
        "self_laundromat_type": "셀프 빨래방",
        "self_laundromat_name": "크린업24 동덕여대점",
        "distance": 1812.497637187848,
        "walking_time": "약 28분"
      }
    ],
    "subway": [
      {
        "subway_lat": 37.6062641394281,
        "subway_lon": 127.048326622029,
        "subway_type": "지하철",
        "subway_name": "6호선-상월곡(한국과학기술연구원)역",
        "distance": 1636.6816424496758,
        "walking_time": "약 25분"
      },
      {
        "subway_lat": 37.6014210523409,
        "subway_lon": 127.041184766468,
        "subway_type": "지하철",
        "subway_name": "6호선-월곡(동덕여대)역",
        "distance": 1713.4962298285495,
        "walking_time": "약 26분"
      },
      {
        "subway_lat": 37.5808935779959,
        "subway_lon": 127.045572642704,
        "subway_type": "지하철",
        "subway_name": "1호선-청량리(서울시립대입구)역",
        "distance": 1798.3779800886657,
        "walking_time": "약 27분"
      }
    ],
    "supermarket": [
      {
        "supermarket_lat": 37.59467108,
        "supermarket_lon": 127.0594083,
        "supermarket_type": "마트",
        "supermarket_name": "롯데쇼핑(주) 롯데마켓 999 이문점",
        "distance": 162.2997079982841,
        "walking_time": "약 3분"
      },
      {
        "supermarket_lat": 37.59080113,
        "supermarket_lon": 127.0561174,
        "supermarket_type": "마트",
        "supermarket_name": "베라체캠퍼스 에비뉴",
        "distance": 364.3333581583774,
        "walking_time": "약 6분"
      },
      {
        "supermarket_lat": 37.59336179,
        "supermarket_lon": 127.052916,
        "supermarket_type": "마트",
        "supermarket_name": "홈플러스 익스프레스 서울회기점",
        "distance": 451.6118949411927,
        "walking_time": "약 7분"
      },
      {
        "supermarket_lat": 37.59849172,
        "supermarket_lon": 127.0618858,
        "supermarket_type": "마트",
        "supermarket_name": "이문제일시장",
        "distance": 631.3853755707582,
        "walking_time": "약 10분"
      },
      {
        "supermarket_lat": 37.59849172,
        "supermarket_lon": 127.0618858,
        "supermarket_type": "마트",
        "supermarket_name": "이문동웰츠타워",
        "distance": 631.3853755707582,
        "walking_time": "약 10분"
      },
      {
        "supermarket_lat": 37.59849172,
        "supermarket_lon": 127.0618858,
        "supermarket_type": "마트",
        "supermarket_name": "이마트에브리데이 이문점",
        "distance": 631.3853755707582,
        "walking_time": "약 10분"
      },
      {
        "supermarket_lat": 37.59982336,
        "supermarket_lon": 127.0612412,
        "supermarket_type": "마트",
        "supermarket_name": "GS THE FRESH 이문라그란데점",
        "distance": 736.6373997699548,
        "walking_time": "약 11분"
      },
      {
        "supermarket_lat": 37.59459717,
        "supermarket_lon": 127.0665577,
        "supermarket_type": "마트",
        "supermarket_name": "이경시장",
        "distance": 758.4118420612758,
        "walking_time": "약 12분"
      },
      {
        "supermarket_lat": 37.5841974,
        "supermarket_lon": 127.051145,
        "supermarket_type": "마트",
        "supermarket_name": "롯데쇼핑(주)롯데마트 청량리점",
        "distance": 1218.9670770979285,
        "walking_time": "약 19분"
      },
      {
        "supermarket_lat": 37.5841974,
        "supermarket_lon": 127.051145,
        "supermarket_type": "마트",
        "supermarket_name": "롯데백화점 청량리역사점",
        "distance": 1218.9670770979285,
        "walking_time": "약 19분"
      }
    ],
    "tax_office": [
      {
        "tax_office_lat": 37.58324212,
        "tax_office_lon": 127.0478161,
        "tax_office_type": "세무서",
        "tax_office_name": "동대문세무서",
        "distance": 1470.8550820024095,
        "walking_time": "약 22분"
      }
    ],
    "theater": [
      {
        "theater_lat": 37.584197400389,
        "theater_lon": 127.05114503929,
        "theater_type": "영화관",
        "theater_name": "롯데시네마청량리",
        "distance": 1218.965318418997,
        "walking_time": "약 19분"
      }
    ],
    "university": [
      {
        "university_lat": 37.5939491407769,
        "university_lon": 127.054890960564,
        "university_type": "대학교",
        "university_name": "경희대학교",
        "distance": 277.24006047507675,
        "walking_time": "약 5분"
      },
      {
        "university_lat": 37.5982966771548,
        "university_lon": 127.057942413722,
        "university_type": "대학교",
        "university_name": "한국외국어대학교",
        "distance": 510.17583049642747,
        "walking_time": "약 8분"
      },
      {
        "university_lat": 37.5982966771548,
        "university_lon": 127.057942413722,
        "university_type": "대학교",
        "university_name": "사이버한국외국어대학교",
        "distance": 510.17583049642747,
        "walking_time": "약 8분"
      },
      {
        "university_lat": 37.5901076994928,
        "university_lon": 127.068614843098,
        "university_type": "전문대학교(3년제)",
        "university_name": "삼육보건대학교",
        "distance": 1015.515434656129,
        "walking_time": "약 16분"
      },
      {
        "university_lat": 37.5825775765293,
        "university_lon": 127.059988126984,
        "university_type": "대학교",
        "university_name": "서울시립대학교",
        "distance": 1249.8104655606364,
        "walking_time": "약 19분"
      },
      {
        "university_lat": 37.6068148327539,
        "university_lon": 127.041176301847,
        "university_type": "대학교",
        "university_name": "동덕여자대학교",
        "distance": 2080.0181440840047,
        "walking_time": "약 32분"
      }
    ]
  }
}