{
  "클러스터_위도": 37.549959,
  "클러스터_경도": 127.072895,
  "클러스터_level": 3.0,
  "facilities": {
    "bus": [
      {
        "bus_lat": 37.55135665,
        "bus_lon": 127.0710878,
        "bus_type": "버스정류장",
        "bus_name": "군자새마을금고앞",
        "distance": 222.5640674294292,
        "walking_time": "약 4분"
      },
      {
        "bus_lat": 37.549752,
        "bus_lon": 127.07544,
        "bus_type": "버스정류장",
        "bus_name": "어린이대공원앞.세종대학교",
        "distance": 225.5395248191189,
        "walking_time": "약 4분"
      },
      {
        "bus_lat": 37.54869231,
        "bus_lon": 127.0707548,
        "bus_type": "버스정류장",
        "bus_name": "장안초등학교",
        "distance": 235.4518477922944,
        "walking_time": "약 4분"
      },
      {
        "bus_lat": 37.54986166,
        "bus_lon": 127.0755659,
        "bus_type": "버스정류장",
        "bus_name": "세종대학교",
        "distance": 235.7094897513257,
        "walking_time": "약 4분"
      },
      {
        "bus_lat": 37.54800515,
        "bus_lon": 127.0715411,
        "bus_type": "버스정류장",
        "bus_name": "광진광장",
        "distance": 247.8861872164552,
        "walking_time": "약 4분"
      },
      {
        "bus_lat": 37.55185121,
        "bus_lon": 127.0713225,
        "bus_type": "버스정류장",
        "bus_name": "군자새마을금고.성동광진위센터",
        "distance": 251.96663452636324,
        "walking_time": "약 4분"
      },
      {
        "bus_lat": 37.54858017,
        "bus_lon": 127.0704836,
        "bus_type": "버스정류장",
        "bus_name": "장안초등학교",
        "distance": 262.1056443431838,
        "walking_time": "약 4분"
      },
      {
        "bus_lat": 37.54985505,
        "bus_lon": 127.076031,
        "bus_type": "버스정류장",
        "bus_name": "세종대학교",
        "distance": 276.7046089711394,
        "walking_time": "약 5분"
      },
      {
        "bus_lat": 37.54771517,
        "bus_lon": 127.0715209,
        "bus_type": "버스정류장",
        "bus_name": "광진광장",
        "distance": 277.3558629738326,
        "walking_time": "약 5분"
      },
      {
        "bus_lat": 37.55170446,
        "bus_lon": 127.0695975,
        "bus_type": "버스정류장",
        "bus_name": "송정동서울숲아이파크",
        "distance": 349.53429155999544,
        "walking_time": "약 6분"
      }
    ],
    "community_center": [
      {
        "community_center_lat": 37.54652678,
        "community_center_lon": 127.0712676,
        "community_center_type": "주민센터",
        "community_center_name": "화양동 자치회관",
        "distance": 407.7220508869394,
        "walking_time": "약 7분"
      },
      {
        "community_center_lat": 37.55453307,
        "community_center_lon": 127.0695685,
        "community_center_type": "주민센터",
        "community_center_name": "송정동 자치회관",
        "distance": 587.096185966241,
        "walking_time": "약 9분"
      },
      {
        "community_center_lat": 37.55516384,
        "community_center_lon": 127.0758916,
        "community_center_type": "주민센터",
        "community_center_name": "군자동 자치회관",
        "distance": 636.1890556846279,
        "walking_time": "약 10분"
      },
      {
        "community_center_lat": 37.5537606,
        "community_center_lon": 127.0805521,
        "community_center_type": "주민센터",
        "community_center_name": "능동 자치회관",
        "distance": 796.4531209909587,
        "walking_time": "약 12분"
      },
      {
        "community_center_lat": 37.54241324,
        "community_center_lon": 127.0856773,
        "community_center_type": "주민센터",
        "community_center_name": "구의1동 자치회관",
        "distance": 1404.9720013138217,
        "walking_time": "약 21분"
      },
      {
        "community_center_lat": 37.5471696,
        "community_center_lon": 127.089934,
        "community_center_type": "주민센터",
        "community_center_name": "구의2동 자치회관",
        "distance": 1533.8368030520933,
        "walking_time": "약 23분"
      },
      {
        "community_center_lat": 37.55909865,
        "community_center_lon": 127.0894329,
        "community_center_type": "주민센터",
        "community_center_name": "중곡4동 자치회관",
        "distance": 1777.1250997998295,
        "walking_time": "약 27분"
      },
      {
        "community_center_lat": 37.53383394,
        "community_center_lon": 127.0729024,
        "community_center_type": "주민센터",
        "community_center_name": "자양3동 자치회관",
        "distance": 1793.0249825424637,
        "walking_time": "약 27분"
      },
      {
        "community_center_lat": 37.53409779,
        "community_center_lon": 127.0662584,
        "community_center_type": "주민센터",
        "community_center_name": "자양4동 자치회관",
        "distance": 1858.2158477463493,
        "walking_time": "약 28분"
      },
      {
        "community_center_lat": 37.53449795,
        "community_center_lon": 127.0823949,
        "community_center_type": "주민센터",
        "community_center_name": "자양1동 자치회관",
        "distance": 1912.3678944037608,
        "walking_time": "약 29분"
      }
    ],
    "convenience_store": [
      {
        "convenience_store_lat": 37.54987645,
        "convenience_store_lon": 127.0724025,
        "convenience_store_type": "편의점",
        "convenience_store_name": "CU 편의점",
        "distance": 44.37744067944489,
        "walking_time": "약 1분"
      },
      {
        "convenience_store_lat": 37.54895192,
        "convenience_store_lon": 127.0721301,
        "convenience_store_type": "편의점",
        "convenience_store_name": "GS25 군자원룸점",
        "distance": 130.71776422007954,
        "walking_time": "약 2분"
      },
      {
        "convenience_store_lat": 37.55160931,
        "convenience_store_lon": 127.0731836,
        "convenience_store_type": "편의점",
        "convenience_store_name": "CU 세종대학생회관점",
        "distance": 185.2614019243161,
        "walking_time": "약 3분"
      },
      {
        "convenience_store_lat": 37.55230885,
        "convenience_store_lon": 127.0712611,
        "convenience_store_type": "편의점",
        "convenience_store_name": "CU 광진군자로점",
        "distance": 298.36280507764235,
        "walking_time": "약 5분"
      },
      {
        "convenience_store_lat": 37.54740134,
        "convenience_store_lon": 127.0716282,
        "convenience_store_type": "편의점",
        "convenience_store_name": "GS25 화양중앙점",
        "distance": 305.54076687632954,
        "walking_time": "약 5분"
      },
      {
        "convenience_store_lat": 37.54706801,
        "convenience_store_lon": 127.0718499,
        "convenience_store_type": "편의점",
        "convenience_store_name": "CU 광진능동로점",
        "distance": 334.40646510589005,
        "walking_time": "약 5분"
      },
      {
        "convenience_store_lat": 37.54692736,
        "convenience_store_lon": 127.073188,
        "convenience_store_type": "편의점",
        "convenience_store_name": "세븐일레븐 화양점",
        "distance": 338.0911895740092,
        "walking_time": "약 6분"
      },
      {
        "convenience_store_lat": 37.5530111,
        "convenience_store_lon": 127.0728646,
        "convenience_store_type": "편의점",
        "convenience_store_name": "CU 세종대학생회관점",
        "distance": 339.3886167031463,
        "walking_time": "약 6분"
      },
      {
        "convenience_store_lat": 37.5530111,
        "convenience_store_lon": 127.0728646,
        "convenience_store_type": "편의점",
        "convenience_store_name": "GS25 세종대우정당점",
        "distance": 339.3886167031463,
        "walking_time": "약 6분"
      },
      {
        "convenience_store_lat": 37.54920438,
        "convenience_store_lon": 127.0691269,
        "convenience_store_type": "편의점",
        "convenience_store_name": "CU 군자동일로점",
        "distance": 342.6229534001732,
        "walking_time": "약 6분"
      }
    ],
    "daycare": [
      {
        "daycare_lat": 37.55109942925299,
        "daycare_lon": 127.07260780377062,
        "daycare_type": "어린이집",
        "daycare_name": "해솔어린이집",
        "distance": 129.3127368412234,
        "walking_time": "약 2분"
      },
      {
        "daycare_lat": 37.55085684,
        "daycare_lon": 127.07149005029927,
        "daycare_type": "어린이집",
        "daycare_name": "구립 군자동 꿈모음어린이집",
        "distance": 159.08337691196857,
        "walking_time": "약 3분"
      },
      {
        "daycare_lat": 37.55147384377544,
        "daycare_lon": 127.07051239100798,
        "daycare_type": "어린이집",
        "daycare_name": "호동어린이집",
        "distance": 269.24204369757524,
        "walking_time": "약 5분"
      },
      {
        "daycare_lat": 37.552309523968844,
        "daycare_lon": 127.0712600679983,
        "daycare_type": "어린이집",
        "daycare_name": "천사어린이집",
        "distance": 298.4723590422234,
        "walking_time": "약 5분"
      },
      {
        "daycare_lat": 37.551369684362776,
        "daycare_lon": 127.06996119719744,
        "daycare_type": "어린이집",
        "daycare_name": "군자티움아이어린이집",
        "distance": 302.48555824488307,
        "walking_time": "약 5분"
      },
      {
        "daycare_lat": 37.551369684362776,
        "daycare_lon": 127.06990119719744,
        "daycare_type": "어린이집",
        "daycare_name": "서린어린이집",
        "distance": 307.020439605664,
        "walking_time": "약 5분"
      },
      {
        "daycare_lat": 37.54909584552267,
        "daycare_lon": 127.0694464686963,
        "daycare_type": "어린이집",
        "daycare_name": "예지어린이집",
        "distance": 318.8071880185608,
        "walking_time": "약 5분"
      },
      {
        "daycare_lat": 37.5516508,
        "daycare_lon": 127.0690008,
        "daycare_type": "어린이집",
        "daycare_name": "성진어린이집",
        "distance": 391.4639629049698,
        "walking_time": "약 6분"
      },
      {
        "daycare_lat": 37.55230286556407,
        "daycare_lon": 127.07625301932508,
        "daycare_type": "어린이집",
        "daycare_name": "서울교통공사대공원어린이집",
        "distance": 394.4112424693068,
        "walking_time": "약 6분"
      },
      {
        "daycare_lat": 37.546637020472886,
        "daycare_lon": 127.07102846509714,
        "daycare_type": "어린이집",
        "daycare_name": "화양어린이집",
        "distance": 404.38192614632896,
        "walking_time": "약 7분"
      }
    ],
    "education": [
      {
        "education_lat": 37.55079808,
        "education_lon": 127.0745756,
        "education_type": "미술관/갤러리",
        "education_name": "세종뮤지엄갤러리",
        "distance": 175.08771747408224,
        "walking_time": "약 3분"
      },
      {
        "education_lat": 37.55160931,
        "education_lon": 127.0731836,
        "education_type": "공연장",
        "education_name": "세종대학교 대양홀",
        "distance": 185.2614019243161,
        "walking_time": "약 3분"
      },
      {
        "education_lat": 37.55160931,
        "education_lon": 127.0731836,
        "education_type": "박물관/기념관",
        "education_name": "세종대학교 박물관",
        "distance": 185.2614019243161,
        "walking_time": "약 3분"
      },
      {
        "education_lat": 37.55055,
        "education_lon": 127.077569,
        "education_type": "박물관/기념관",
        "education_name": "서울상상나라",
        "distance": 417.2554945854217,
        "walking_time": "약 7분"
      },
      {
        "education_lat": 37.55127807,
        "education_lon": 127.0670116,
        "education_type": "공연장",
        "education_name": "더라이트스튜디오",
        "distance": 539.0033473832214,
        "walking_time": "약 9분"
      },
      {
        "education_lat": 37.55548521,
        "education_lon": 127.0753494,
        "education_type": "도서관",
        "education_name": "군자동도서관",
        "distance": 651.4661486731217,
        "walking_time": "약 10분"
      },
      {
        "education_lat": 37.54240517067264,
        "education_lon": 127.07559228463867,
        "education_type": "박물관/기념관",
        "education_name": "건국대학교 박물관",
        "distance": 872.9605070297482,
        "walking_time": "약 14분"
      },
      {
        "education_lat": 37.5576985,
        "education_lon": 127.0792261,
        "education_type": "미술관/갤러리",
        "education_name": "삼원갤러리",
        "distance": 1025.7211547816553,
        "walking_time": "약 16분"
      },
      {
        "education_lat": 37.53918267,
        "education_lon": 127.0747119,
        "education_type": "공연장",
        "education_name": "건국대학교 새천년관대공연장",
        "distance": 1208.9326342220015,
        "walking_time": "약 19분"
      },
      {
        "education_lat": 37.55096285632077,
        "education_lon": 127.08795305531277,
        "education_type": "공연장",
        "education_name": "유니버설아트센터",
        "distance": 1332.1610291661602,
        "walking_time": "약 20분"
      }
    ],
    "electric_gas_station": [
      {
        "electric_gas_station_lat": 37.54494633,
        "electric_gas_station_lon": 127.0642049,
        "electric_gas_station_type": "전기차 충전소",
        "electric_gas_station_name": "기아차 성동서비스센터",
        "distance": 947.4308914910632,
        "walking_time": "약 15분"
      }
    ],
    "fitness": [
      {
        "fitness_lat": 37.54829593,
        "fitness_lon": 127.0720868,
        "fitness_type": "운동시설",
        "fitness_name": "동부육체미",
        "distance": 198.1761574174343,
        "walking_time": "약 3분"
      },
      {
        "fitness_lat": 37.54991924,
        "fitness_lon": 127.0706372,
        "fitness_type": "운동시설",
        "fitness_name": "시티짐 군자",
        "distance": 199.09185028813164,
        "walking_time": "약 3분"
      },
      {
        "fitness_lat": 37.54811679,
        "fitness_lon": 127.0728613,
        "fitness_type": "운동시설",
        "fitness_name": "원모어 퍼스널트레이닝 스튜디오",
        "distance": 204.865949260486,
        "walking_time": "약 4분"
      },
      {
        "fitness_lat": 37.54906045,
        "fitness_lon": 127.0708616,
        "fitness_type": "운동시설",
        "fitness_name": "시티짐 군자 필라테스&헬스",
        "distance": 205.22527856695825,
        "walking_time": "약 4분"
      },
      {
        "fitness_lat": 37.54846108,
        "fitness_lon": 127.0710495,
        "fitness_type": "운동시설",
        "fitness_name": "에이블짐 어린이대공원역점",
        "distance": 232.83658193881533,
        "walking_time": "약 4분"
      },
      {
        "fitness_lat": 37.55262235,
        "fitness_lon": 127.0720773,
        "fitness_type": "운동시설",
        "fitness_name": "머슬 H 휘트니스",
        "distance": 304.7978306776677,
        "walking_time": "약 5분"
      },
      {
        "fitness_lat": 37.54752048,
        "fitness_lon": 127.0712861,
        "fitness_type": "운동시설",
        "fitness_name": "짐박스피트니스 어린이대공원점",
        "distance": 306.00868352649803,
        "walking_time": "약 5분"
      },
      {
        "fitness_lat": 37.54706801,
        "fitness_lon": 127.0718499,
        "fitness_type": "운동시설",
        "fitness_name": "휘트니스베이 24시 건대점",
        "distance": 334.40646510589005,
        "walking_time": "약 5분"
      },
      {
        "fitness_lat": 37.55144771,
        "fitness_lon": 127.0695364,
        "fitness_type": "운동시설",
        "fitness_name": "역사헬스",
        "distance": 339.2169686573554,
        "walking_time": "약 6분"
      },
      {
        "fitness_lat": 37.5473821,
        "fitness_lon": 127.0705027,
        "fitness_type": "운동시설",
        "fitness_name": "휘트니스 에이치투(폐업)",
        "distance": 355.78710092711486,
        "walking_time": "약 6분"
      }
    ],
    "gas_station": [
      {
        "gas_station_lat": 37.55401241,
        "gas_station_lon": 127.0704331,
        "gas_station_type": "주유소",
        "gas_station_name": "KLP제2주유소",
        "distance": 500.2491575742582,
        "walking_time": "약 8분"
      },
      {
        "gas_station_lat": 37.55498384,
        "gas_station_lon": 127.0715296,
        "gas_station_type": "주유소",
        "gas_station_name": "㈜장수주유소",
        "distance": 571.5547559755271,
        "walking_time": "약 9분"
      },
      {
        "gas_station_lat": 37.54511911,
        "gas_station_lon": 127.0804396,
        "gas_station_type": "주유소",
        "gas_station_name": "㈜창원씨더블유",
        "distance": 855.590725415185,
        "walking_time": "약 13분"
      },
      {
        "gas_station_lat": 37.54411438,
        "gas_station_lon": 127.0646451,
        "gas_station_type": "주유소",
        "gas_station_name": "현대오일뱅크㈜ 직영 효진주유소",
        "distance": 975.375046369445,
        "walking_time": "약 15분"
      },
      {
        "gas_station_lat": 37.55563801,
        "gas_station_lon": 127.0825017,
        "gas_station_type": "주유소",
        "gas_station_name": "능동주유소(현대오일뱅크㈜직영주유소)",
        "distance": 1056.3890489327273,
        "walking_time": "약 16분"
      },
      {
        "gas_station_lat": 37.54202743,
        "gas_station_lon": 127.0634234,
        "gas_station_type": "주유소",
        "gas_station_name": "지에스칼텍스㈜ 도루코주유소",
        "distance": 1214.5485173490365,
        "walking_time": "약 19분"
      },
      {
        "gas_station_lat": 37.53815181,
        "gas_station_lon": 127.075893,
        "gas_station_type": "주유소",
        "gas_station_name": "자양주유소",
        "distance": 1339.2421201918064,
        "walking_time": "약 20분"
      },
      {
        "gas_station_lat": 37.55973412,
        "gas_station_lon": 127.0878838,
        "gas_station_type": "주유소",
        "gas_station_name": "용마주유소",
        "distance": 1710.9243770073829,
        "walking_time": "약 26분"
      },
      {
        "gas_station_lat": 37.53132018,
        "gas_station_lon": 127.0858548,
        "gas_station_type": "주유소",
        "gas_station_name": "현대오일뱅크㈜직영 장호셀프주유소",
        "distance": 2366.66035007092,
        "walking_time": "약 36분"
      }
    ],
    "hospital": [
      {
        "hospital_lat": 37.54995393,
        "hospital_lon": 127.0710854,
        "hospital_type": "병원",
        "hospital_name": "세종치과의원",
        "distance": 159.5313739514147,
        "walking_time": "약 3분"
      },
      {
        "hospital_lat": 37.550747,
        "hospital_lon": 127.071216,
        "hospital_type": "병원",
        "hospital_name": "김소아과의원",
        "distance": 172.00678683929155,
        "walking_time": "약 3분"
      },
      {
        "hospital_lat": 37.550747,
        "hospital_lon": 127.071216,
        "hospital_type": "병원",
        "hospital_name": "모웅남치과의원",
        "distance": 172.00678683929155,
        "walking_time": "약 3분"
      },
      {
        "hospital_lat": 37.55160931,
        "hospital_lon": 127.0731836,
        "hospital_type": "병원",
        "hospital_name": "세종스포츠정형외과의원",
        "distance": 185.2614019243161,
        "walking_time": "약 3분"
      },
      {
        "hospital_lat": 37.55078152,
        "hospital_lon": 127.070895,
        "hospital_type": "병원",
        "hospital_name": "군자강한의원",
        "distance": 198.6247605751957,
        "walking_time": "약 3분"
      },
      {
        "hospital_lat": 37.55078152,
        "hospital_lon": 127.070895,
        "hospital_type": "병원",
        "hospital_name": "한성욱내과의원",
        "distance": 198.6247605751957,
        "walking_time": "약 3분"
      },
      {
        "hospital_lat": 37.54991924,
        "hospital_lon": 127.0706372,
        "hospital_type": "병원",
        "hospital_name": "정치과의원",
        "distance": 199.09185028813164,
        "walking_time": "약 3분"
      },
      {
        "hospital_lat": 37.54991924,
        "hospital_lon": 127.0706372,
        "hospital_type": "병원",
        "hospital_name": "채종호한의원",
        "distance": 199.09185028813164,
        "walking_time": "약 3분"
      },
      {
        "hospital_lat": 37.55018034,
        "hospital_lon": 127.0706527,
        "hospital_type": "병원",
        "hospital_name": "서울제일연합의원-삼대부부한의원",
        "distance": 199.20223716492828,
        "walking_time": "약 3분"
      },
      {
        "hospital_lat": 37.55091898,
        "hospital_lon": 127.0709504,
        "hospital_type": "병원",
        "hospital_name": "광진베스트치과의원",
        "distance": 201.9478055092344,
        "walking_time": "약 4분"
      }
    ],
    "music_room": [
      {
        "music_room_lat": 37.55042907,
        "music_room_lon": 127.0708483,
        "music_room_type": "노래방",
        "music_room_name": "순자",
        "distance": 187.85048301997307,
        "walking_time": "약 3분"
      },
      {
        "music_room_lat": 37.5480982,
        "music_room_lon": 127.0723244,
        "music_room_type": "노래방",
        "music_room_name": "영해노래방",
        "distance": 212.9385273030614,
        "walking_time": "약 4분"
      },
      {
        "music_room_lat": 37.54744208,
        "music_room_lon": 127.0727757,
        "music_room_type": "노래방",
        "music_room_name": "락휴 코인 노래연습장 세종대점",
        "distance": 280.06628589402965,
        "walking_time": "약 5분"
      },
      {
        "music_room_lat": 37.54722932,
        "music_room_lon": 127.0734228,
        "music_room_type": "노래방",
        "music_room_name": "크레이지 더 코인",
        "distance": 307.0724159157074,
        "walking_time": "약 5분"
      },
      {
        "music_room_lat": 37.54718113,
        "music_room_lon": 127.0732564,
        "music_room_type": "노래방",
        "music_room_name": "골든벨",
        "distance": 310.5238910239627,
        "walking_time": "약 5분"
      },
      {
        "music_room_lat": 37.54701095,
        "music_room_lon": 127.0727843,
        "music_room_type": "노래방",
        "music_room_name": "리코스타 코인노래연습장",
        "distance": 327.95344407929616,
        "walking_time": "약 5분"
      },
      {
        "music_room_lat": 37.54757548,
        "music_room_lon": 127.0706146,
        "music_room_type": "노래방",
        "music_room_name": "스피드",
        "distance": 332.6561564465115,
        "walking_time": "약 5분"
      },
      {
        "music_room_lat": 37.54697614,
        "music_room_lon": 127.0725478,
        "music_room_type": "노래방",
        "music_room_name": "CNN노래연습장",
        "distance": 333.0882812323597,
        "walking_time": "약 5분"
      },
      {
        "music_room_lat": 37.54695987,
        "music_room_lon": 127.0730706,
        "music_room_type": "노래방",
        "music_room_name": "레드노래연습장",
        "distance": 333.84716402904786,
        "walking_time": "약 5분"
      },
      {
        "music_room_lat": 37.54778052,
        "music_room_lon": 127.0702042,
        "music_room_type": "노래방",
        "music_room_name": "짱 노래연습장",
        "distance": 339.0440383220749,
        "walking_time": "약 6분"
      }
    ],
    "park": [
      {
        "park_lat": 37.5498987,
        "park_lon": 127.0809212,
        "park_type": "공원",
        "park_name": "어린이대공원",
        "distance": 707.6042664105062,
        "walking_time": "약 11분"
      }
    ],
    "park_station": [
      {
        "park_station_lat": 37.54763365,
        "park_station_lon": 127.0737742,
        "park_station_type": "주차장",
        "park_station_name": "광진광장 공영주차장",
        "distance": 269.93459965621213,
        "walking_time": "약 5분"
      },
      {
        "park_station_lat": 37.54996219,
        "park_station_lon": 127.0680662,
        "park_station_type": "주차장",
        "park_station_name": "송정동 공영주차장",
        "distance": 425.69657004272347,
        "walking_time": "약 7분"
      },
      {
        "park_station_lat": 37.55186785,
        "park_station_lon": 127.0773538,
        "park_station_type": "주차장",
        "park_station_name": "공유) 능동 IoT 공유주차장",
        "distance": 446.719526464949,
        "walking_time": "약 7분"
      },
      {
        "park_station_lat": 37.55055253,
        "park_station_lon": 127.0671152,
        "park_station_type": "주차장",
        "park_station_name": "공유) 19-21",
        "distance": 513.7888876172836,
        "walking_time": "약 8분"
      },
      {
        "park_station_lat": 37.55325305,
        "park_station_lon": 127.0684374,
        "park_station_type": "주차장",
        "park_station_name": "거주자노외주차장",
        "distance": 537.1988569055414,
        "walking_time": "약 9분"
      },
      {
        "park_station_lat": 37.54530344,
        "park_station_lon": 127.0711952,
        "park_station_type": "주차장",
        "park_station_name": "화양동 공영",
        "distance": 538.928255296804,
        "walking_time": "약 9분"
      },
      {
        "park_station_lat": 37.55279649,
        "park_station_lon": 127.0675427,
        "park_station_type": "주차장",
        "park_station_name": "공유) 19-04",
        "distance": 567.6095071388271,
        "walking_time": "약 9분"
      },
      {
        "park_station_lat": 37.55090623,
        "park_station_lon": 127.0660445,
        "park_station_type": "주차장",
        "park_station_name": "공유) 19-03",
        "distance": 613.0372533619193,
        "walking_time": "약 10분"
      },
      {
        "park_station_lat": 37.55214065,
        "park_station_lon": 127.0798196,
        "park_station_type": "주차장",
        "park_station_name": "공유) 능동로24길 IoT 공유주차장",
        "distance": 656.8840634647256,
        "walking_time": "약 10분"
      },
      {
        "park_station_lat": 37.54909886,
        "park_station_lon": 127.0640249,
        "park_station_type": "주차장",
        "park_station_name": "공유) 19-02",
        "distance": 787.8004510508325,
        "walking_time": "약 12분"
      }
    ],
    "pc_room": [
      {
        "pc_room_lat": 37.5481605406369,
        "pc_room_lon": 127.071743335135,
        "pc_room_type": "PC방",
        "pc_room_name": "앤유PC 세종대점",
        "distance": 224.27674393829892,
        "walking_time": "약 4분"
      },
      {
        "pc_room_lat": 37.5474599984908,
        "pc_room_lon": 127.072065060154,
        "pc_room_type": "PC방",
        "pc_room_name": "G PRO PC&CAFE",
        "distance": 287.34757407824964,
        "walking_time": "약 5분"
      },
      {
        "pc_room_lat": 37.547301943571,
        "pc_room_lon": 127.073123076689,
        "pc_room_type": "PC방",
        "pc_room_name": "넥스트PC카페",
        "distance": 296.1346043893104,
        "walking_time": "약 5분"
      },
      {
        "pc_room_lat": 37.5516234795333,
        "pc_room_lon": 127.069717899651,
        "pc_room_type": "PC방",
        "pc_room_name": "클릭넷(군자)",
        "distance": 335.7108280787214,
        "walking_time": "약 6분"
      },
      {
        "pc_room_lat": 37.5471665537169,
        "pc_room_lon": 127.070101890144,
        "pc_room_type": "PC방",
        "pc_room_name": "비원 PC방",
        "distance": 396.2922700579503,
        "walking_time": "약 6분"
      },
      {
        "pc_room_lat": 37.5471665537169,
        "pc_room_lon": 127.070101890144,
        "pc_room_type": "PC방",
        "pc_room_name": "앤탑PC방",
        "distance": 396.2922700579503,
        "walking_time": "약 6분"
      },
      {
        "pc_room_lat": 37.548931360746,
        "pc_room_lon": 127.067435713733,
        "pc_room_type": "PC방",
        "pc_room_name": "맞짱PC",
        "distance": 494.6611339369993,
        "walking_time": "약 8분"
      },
      {
        "pc_room_lat": 37.5543077590397,
        "pc_room_lon": 127.074826250644,
        "pc_room_type": "PC방",
        "pc_room_name": "엔탑 PC방",
        "distance": 512.6550815452352,
        "walking_time": "약 8분"
      },
      {
        "pc_room_lat": 37.5485118802394,
        "pc_room_lon": 127.067234924413,
        "pc_room_type": "PC방",
        "pc_room_name": "행운 PC",
        "distance": 524.2885976752929,
        "walking_time": "약 8분"
      },
      {
        "pc_room_lat": 37.5543089012887,
        "pc_room_lon": 127.075438283864,
        "pc_room_type": "PC방",
        "pc_room_name": "옥스피시방 세종대점",
        "distance": 533.1232601395183,
        "walking_time": "약 8분"
      }
    ],
    "police_office": [
      {
        "police_office_lat": 37.54652678,
        "police_office_lon": 127.0712676,
        "police_office_type": "경찰소",
        "police_office_name": "화양지구대",
        "distance": 407.7220508869394,
        "walking_time": "약 7분"
      },
      {
        "police_office_lat": 37.53662079,
        "police_office_lon": 127.0769223,
        "police_office_type": "경찰소",
        "police_office_name": "자양1파출소",
        "distance": 1525.0516590548475,
        "walking_time": "약 23분"
      },
      {
        "police_office_lat": 37.53385103,
        "police_office_lon": 127.0716125,
        "police_office_type": "경찰소",
        "police_office_name": "자양파출소",
        "distance": 1794.6902221300247,
        "walking_time": "약 27분"
      },
      {
        "police_office_lat": 37.53518701,
        "police_office_lon": 127.063636,
        "police_office_type": "경찰소",
        "police_office_name": "자양4파출소",
        "distance": 1834.2406030233656,
        "walking_time": "약 28분"
      }
    ],
    "post_office": [
      {
        "post_office_lat": 37.55160931,
        "post_office_lon": 127.0731836,
        "post_office_type": "우체국",
        "post_office_name": "세종대학교우편취급국",
        "distance": 185.2614019243161,
        "walking_time": "약 3분"
      },
      {
        "post_office_lat": 37.5479075,
        "post_office_lon": 127.0693931,
        "post_office_type": "우체국",
        "post_office_name": "서울화양동우체국",
        "distance": 383.8588897836224,
        "walking_time": "약 6분"
      },
      {
        "post_office_lat": 37.55594856,
        "post_office_lon": 127.0755462,
        "post_office_type": "우체국",
        "post_office_name": "서울능동우편취급국",
        "distance": 705.8258138302484,
        "walking_time": "약 11분"
      },
      {
        "post_office_lat": 37.53918267,
        "post_office_lon": 127.0747119,
        "post_office_type": "우체국",
        "post_office_name": "건국대학교우편취급국",
        "distance": 1208.9326342220015,
        "walking_time": "약 19분"
      },
      {
        "post_office_lat": 37.53955017,
        "post_office_lon": 127.0674106,
        "post_office_type": "우체국",
        "post_office_name": "서울성수노룬산우편취급국",
        "distance": 1254.3498807157291,
        "walking_time": "약 19분"
      },
      {
        "post_office_lat": 37.54793719,
        "post_office_lon": 127.0889468,
        "post_office_type": "우체국",
        "post_office_name": "서울경안우편취급국",
        "distance": 1432.85733449106,
        "walking_time": "약 22분"
      },
      {
        "post_office_lat": 37.53775396,
        "post_office_lon": 127.0899611,
        "post_office_type": "우체국",
        "post_office_name": "서울광진우체국",
        "distance": 2026.264031707509,
        "walking_time": "약 31분"
      },
      {
        "post_office_lat": 37.53775396,
        "post_office_lon": 127.0899611,
        "post_office_type": "우체국",
        "post_office_name": "동서울물류센터",
        "distance": 2026.264031707509,
        "walking_time": "약 31분"
      },
      {
        "post_office_lat": 37.53560103,
        "post_office_lon": 127.0873067,
        "post_office_type": "우체국",
        "post_office_name": "동서울우편집중국",
        "distance": 2040.4435913012508,
        "walking_time": "약 31분"
      },
      {
        "post_office_lat": 37.53150528,
        "post_office_lon": 127.0805542,
        "post_office_type": "우체국",
        "post_office_name": "서울자양동우체국",
        "distance": 2160.2251325335737,
        "walking_time": "약 33분"
      }
    ],
    "public_health_center": [
      {
        "public_health_center_lat": 37.54026343,
        "public_health_center_lon": 127.0651093,
        "public_health_center_type": "보건소",
        "public_health_center_name": "자양보건지소",
        "distance": 1278.0692967468449,
        "walking_time": "약 20분"
      },
      {
        "public_health_center_lat": 37.53853161,
        "public_health_center_lon": 127.0819098,
        "public_health_center_type": "보건소",
        "public_health_center_name": "광진구청",
        "distance": 1498.7599292100529,
        "walking_time": "약 23분"
      },
      {
        "public_health_center_lat": 37.55933773,
        "public_health_center_lon": 127.0870912,
        "public_health_center_type": "보건소",
        "public_health_center_name": "중곡보건지소",
        "distance": 1629.0002751591808,
        "walking_time": "약 25분"
      }
    ],
    "school": [
      {
        "school_lat": 37.549876450253,
        "school_lon": 127.072402467919,
        "school_type": "초등학교",
        "school_name": "서울장안초등학교",
        "distance": 44.38020189583146,
        "walking_time": "약 1분"
      },
      {
        "school_lat": 37.5530110986438,
        "school_lon": 127.072864629554,
        "school_type": "초등학교",
        "school_name": "세종초등학교",
        "distance": 339.3884453421868,
        "walking_time": "약 6분"
      },
      {
        "school_lat": 37.5541592708709,
        "school_lon": 127.069526172922,
        "school_type": "초등학교",
        "school_name": "서울송원초등학교",
        "distance": 553.472439284262,
        "walking_time": "약 9분"
      },
      {
        "school_lat": 37.5428503028479,
        "school_lon": 127.078840375276,
        "school_type": "중학교",
        "school_name": "구의중학교",
        "distance": 948.447497082765,
        "walking_time": "약 15분"
      },
      {
        "school_lat": 37.5430074366803,
        "school_lon": 127.08031177586,
        "school_type": "초등학교",
        "school_name": "서울구의초등학교",
        "distance": 1012.448157566182,
        "walking_time": "약 16분"
      },
      {
        "school_lat": 37.5443378762673,
        "school_lon": 127.062886077541,
        "school_type": "초등학교",
        "school_name": "서울성수초등학교",
        "distance": 1081.3425439070388,
        "walking_time": "약 17분"
      },
      {
        "school_lat": 37.5417240729902,
        "school_lon": 127.081597057268,
        "school_type": "중학교",
        "school_name": "건국대학교사범대학부속중학교",
        "distance": 1194.598036418142,
        "walking_time": "약 18분"
      },
      {
        "school_lat": 37.539182674872,
        "school_lon": 127.074711902268,
        "school_type": "고등학교",
        "school_name": "건국대학교사범대학부속고등학교",
        "distance": 1208.93212375112,
        "walking_time": "약 19분"
      },
      {
        "school_lat": 37.5498138606171,
        "school_lon": 127.086793350213,
        "school_type": "초등학교",
        "school_name": "경복초등학교",
        "distance": 1225.355588704605,
        "walking_time": "약 19분"
      },
      {
        "school_lat": 37.5509798002896,
        "school_lon": 127.087095159462,
        "school_type": "고등학교",
        "school_name": "선화예술고등학교",
        "distance": 1256.981856210256,
        "walking_time": "약 19분"
      }
    ],
    "self_laundromat": [
      {
        "self_laundromat_lat": 37.55063449,
        "self_laundromat_lon": 127.0671769,
        "self_laundromat_type": "셀프 빨래방",
        "self_laundromat_name": "더화이트 송정점",
        "distance": 509.65803284158255,
        "walking_time": "약 8분"
      },
      {
        "self_laundromat_lat": 37.55063449,
        "self_laundromat_lon": 127.0671769,
        "self_laundromat_type": "셀프 빨래방",
        "self_laundromat_name": "더화이트 송정점",
        "distance": 509.65803284158255,
        "walking_time": "약 8분"
      }
    ],
    "subway": [
      {
        "subway_lat": 37.547871203305,
        "subway_lon": 127.074549925093,
        "subway_type": "지하철",
        "subway_name": "7호선-어린이대공원(세종대)역",
        "distance": 274.19073500471745,
        "walking_time": "약 5분"
      },
      {
        "subway_lat": 37.5573631939521,
        "subway_lon": 127.079017279019,
        "subway_type": "지하철",
        "subway_name": "5호선-군자(능동)역",
        "distance": 984.4355570778424,
        "walking_time": "약 15분"
      },
      {
        "subway_lat": 37.5573631939521,
        "subway_lon": 127.079017279019,
        "subway_type": "지하철",
        "subway_name": "7호선-군자(능동)역",
        "distance": 984.4355570778424,
        "walking_time": "약 15분"
      },
      {
        "subway_lat": 37.540657941434,
        "subway_lon": 127.07141185507,
        "subway_type": "지하철",
        "subway_name": "7호선-건대입구역",
        "distance": 1042.4637575894328,
        "walking_time": "약 16분"
      },
      {
        "subway_lat": 37.5404188872176,
        "subway_lon": 127.069173281554,
        "subway_type": "지하철",
        "subway_name": "2호선-건대입구역",
        "distance": 1110.398501568802,
        "walking_time": "약 17분"
      },
      {
        "subway_lat": 37.5524011361136,
        "subway_lon": 127.08937059931,
        "subway_type": "지하철",
        "subway_name": "5호선-아차산(어린이대공원후문)역",
        "distance": 1477.5963484759598,
        "walking_time": "약 23분"
      },
      {
        "subway_lat": 37.5371535596228,
        "subway_lon": 127.086179228767,
        "subway_type": "지하철",
        "subway_name": "2호선-구의(광진구청)역",
        "distance": 1843.6979064347472,
        "walking_time": "약 28분"
      },
      {
        "subway_lat": 37.5317034538759,
        "subway_lon": 127.066765925738,
        "subway_type": "지하철",
        "subway_name": "7호선-자양(뚝섬유원지)역",
        "distance": 2100.6226046964284,
        "walking_time": "약 32분"
      }
    ],
    "supermarket": [
      {
        "supermarket_lat": 37.54846108,
        "supermarket_lon": 127.0710495,
        "supermarket_type": "마트",
        "supermarket_name": "파크에비뉴",
        "distance": 232.83658193881533,
        "walking_time": "약 4분"
      },
      {
        "supermarket_lat": 37.54395902,
        "supermarket_lon": 127.0697577,
        "supermarket_type": "마트",
        "supermarket_name": "한아름시장",
        "distance": 722.2281655888231,
        "walking_time": "약 11분"
      },
      {
        "supermarket_lat": 37.54395902,
        "supermarket_lon": 127.0697577,
        "supermarket_type": "마트",
        "supermarket_name": "(주)지에스리테일GS수퍼 광진화양점",
        "distance": 722.2281655888231,
        "walking_time": "약 11분"
      },
      {
        "supermarket_lat": 37.55495119,
        "supermarket_lon": 127.0811921,
        "supermarket_type": "마트",
        "supermarket_name": "GS THE FRESH 광진능동점",
        "distance": 918.2223313307971,
        "walking_time": "약 14분"
      },
      {
        "supermarket_lat": 37.55761884,
        "supermarket_lon": 127.0800399,
        "supermarket_type": "마트",
        "supermarket_name": "홈플러스(주)익스프레스 중곡점",
        "distance": 1059.3203224072877,
        "walking_time": "약 16분"
      },
      {
        "supermarket_lat": 37.54105663,
        "supermarket_lon": 127.0656692,
        "supermarket_type": "마트",
        "supermarket_name": "커먼그라운드",
        "distance": 1177.1702924415245,
        "walking_time": "약 18분"
      },
      {
        "supermarket_lat": 37.53903739,
        "supermarket_lon": 127.0714321,
        "supermarket_type": "마트",
        "supermarket_name": "롯데백화점 건대스타시티점",
        "distance": 1221.2571934311325,
        "walking_time": "약 19분"
      },
      {
        "supermarket_lat": 37.53855827,
        "supermarket_lon": 127.0729962,
        "supermarket_type": "마트",
        "supermarket_name": "(주)이마트 자양점",
        "distance": 1267.7347336133043,
        "walking_time": "약 19분"
      },
      {
        "supermarket_lat": 37.53899664,
        "supermarket_lon": 127.0674893,
        "supermarket_type": "마트",
        "supermarket_name": "조양시장",
        "distance": 1308.8156285523205,
        "walking_time": "약 20분"
      },
      {
        "supermarket_lat": 37.54263602,
        "supermarket_lon": 127.0846048,
        "supermarket_type": "마트",
        "supermarket_name": "GS THE FRESH 광진구의점",
        "distance": 1314.8453582542468,
        "walking_time": "약 20분"
      }
    ],
    "tax_office": [
      {
        "tax_office_lat": 37.54850152,
        "tax_office_lon": 127.0628187,
        "tax_office_type": "세무서",
        "tax_office_name": "성동세무서",
        "distance": 902.9757719655876,
        "walking_time": "약 14분"
      }
    ],
    "theater": [
      {
        "theater_lat": 37.5557904109818,
        "theater_lon": 127.078344497368,
        "theater_type": "영화관",
        "theater_name": "메가박스 군자",
        "distance": 806.9907272009484,
        "walking_time": "약 13분"
      },
      {
        "theater_lat": 37.5397607621364,
        "theater_lon": 127.066887730045,
        "theater_type": "영화관",
        "theater_name": "CGV 건대입구",
        "distance": 1251.5750597727224,
        "walking_time": "약 19분"
      },
      {
        "theater_lat": 37.5385582736952,
        "theater_lon": 127.072996184863,
        "theater_type": "영화관",
        "theater_name": "롯데시네마 건대입구관",
        "distance": 1267.7343133441725,
        "walking_time": "약 19분"
      }
    ],
    "university": [
      {
        "university_lat": 37.5516093089619,
        "university_lon": 127.07318364213,
        "university_type": "대학교",
        "university_name": "세종대학교",
        "distance": 185.2617976750957,
        "walking_time": "약 3분"
      },
      {
        "university_lat": 37.5464762611364,
        "university_lon": 127.071367614735,
        "university_type": "대학교",
        "university_name": "건국대학교",
        "distance": 410.00520796284457,
        "walking_time": "약 7분"
      }
    ]
  }
}