{
  "클러스터_위도": 37.577593,
  "클러스터_경도": 126.893539,
  "클러스터_level": 3.0,
  "facilities": {
    "bus": [
      {
        "bus_lat": 37.5784614,
        "bus_lon": 126.8939275,
        "bus_type": "버스정류장",
        "bus_name": "상암동주민센터앞",
        "distance": 102.45139595676427,
        "walking_time": "약 2분"
      },
      {
        "bus_lat": 37.57654958,
        "bus_lon": 126.8937201,
        "bus_type": "버스정류장",
        "bus_name": "상암초등학교",
        "distance": 117.11552762065024,
        "walking_time": "약 2분"
      },
      {
        "bus_lat": 37.57639171,
        "bus_lon": 126.8934222,
        "bus_type": "버스정류장",
        "bus_name": "상암초등학교",
        "distance": 133.97334504556233,
        "walking_time": "약 2분"
      },
      {
        "bus_lat": 37.57746059,
        "bus_lon": 126.8912876,
        "bus_type": "버스정류장",
        "bus_name": "상암DMC홍보관.YTN",
        "distance": 198.95060633245524,
        "walking_time": "약 3분"
      },
      {
        "bus_lat": 37.577985,
        "bus_lon": 126.891323,
        "bus_type": "버스정류장",
        "bus_name": "상암DMC홍보관.YTN",
        "distance": 200.09017775453503,
        "walking_time": "약 3분"
      },
      {
        "bus_lat": 37.57900735,
        "bus_lon": 126.8915797,
        "bus_type": "버스정류장",
        "bus_name": "YTN뉴스퀘어.CJE&M",
        "distance": 233.54983584152365,
        "walking_time": "약 4분"
      },
      {
        "bus_lat": 37.5762495,
        "bus_lon": 126.8912678,
        "bus_type": "버스정류장",
        "bus_name": "KBS미디어센터",
        "distance": 249.75615338814765,
        "walking_time": "약 4분"
      },
      {
        "bus_lat": 37.57983167,
        "bus_lon": 126.8939588,
        "bus_type": "버스정류장",
        "bus_name": "SBS.YTN",
        "distance": 251.66267897089728,
        "walking_time": "약 4분"
      },
      {
        "bus_lat": 37.57982979,
        "bus_lon": 126.8943777,
        "bus_type": "버스정류장",
        "bus_name": "SBS.YTN",
        "distance": 259.46886523731354,
        "walking_time": "약 4분"
      },
      {
        "bus_lat": 37.57962812,
        "bus_lon": 126.8917373,
        "bus_type": "버스정류장",
        "bus_name": "MBC",
        "distance": 276.4385163069871,
        "walking_time": "약 5분"
      }
    ],
    "community_center": [
      {
        "community_center_lat": 37.57833432,
        "community_center_lon": 126.894673,
        "community_center_type": "주민센터",
        "community_center_name": "상암동 자치회관",
        "distance": 129.543639332262,
        "walking_time": "약 2분"
      },
      {
        "community_center_lat": 37.58507458,
        "community_center_lon": 126.8970531,
        "community_center_type": "주민센터",
        "community_center_name": "수색동 자치회관",
        "distance": 887.6783334115751,
        "walking_time": "약 14분"
      },
      {
        "community_center_lat": 37.58435477,
        "community_center_lon": 126.9070273,
        "community_center_type": "주민센터",
        "community_center_name": "증산동 자치회관",
        "distance": 1406.4475738600947,
        "walking_time": "약 21분"
      },
      {
        "community_center_lat": 37.56861384,
        "community_center_lon": 126.9089695,
        "community_center_type": "주민센터",
        "community_center_name": "성산2동 자치회관",
        "distance": 1687.0670333921585,
        "walking_time": "약 26분"
      },
      {
        "community_center_lat": 37.56336849,
        "community_center_lon": 126.9078957,
        "community_center_type": "주민센터",
        "community_center_name": "성산1동 자치회관",
        "distance": 2025.525804522904,
        "walking_time": "약 31분"
      },
      {
        "community_center_lat": 37.56031134,
        "community_center_lon": 126.9023171,
        "community_center_type": "주민센터",
        "community_center_name": "망원2동 자치회관",
        "distance": 2071.5270044305444,
        "walking_time": "약 31분"
      }
    ],
    "convenience_store": [
      {
        "convenience_store_lat": 37.57634541,
        "convenience_store_lon": 126.8932162,
        "convenience_store_type": "편의점",
        "convenience_store_name": "CU 마포상암점",
        "distance": 141.6123127869503,
        "walking_time": "약 3분"
      },
      {
        "convenience_store_lat": 37.57830887,
        "convenience_store_lon": 126.895134,
        "convenience_store_type": "편의점",
        "convenience_store_name": "GS25 상암대성점",
        "distance": 161.53370048254135,
        "walking_time": "약 3분"
      },
      {
        "convenience_store_lat": 37.57905559,
        "convenience_store_lon": 126.8946015,
        "convenience_store_type": "편의점",
        "convenience_store_name": "CU 상암대로점",
        "distance": 187.6600990353172,
        "walking_time": "약 3분"
      },
      {
        "convenience_store_lat": 37.5771097,
        "convenience_store_lon": 126.8914039,
        "convenience_store_type": "편의점",
        "convenience_store_name": "CU 상암KGIT점",
        "distance": 195.68067560966867,
        "walking_time": "약 3분"
      },
      {
        "convenience_store_lat": 37.57919435,
        "convenience_store_lon": 126.8923145,
        "convenience_store_type": "편의점",
        "convenience_store_name": "CU 상암YTN사옥점",
        "distance": 208.20715638133493,
        "walking_time": "약 4분"
      },
      {
        "convenience_store_lat": 37.57884515,
        "convenience_store_lon": 126.8953462,
        "convenience_store_type": "편의점",
        "convenience_store_name": "세븐일레븐 상암중앙점",
        "distance": 211.53954750385205,
        "walking_time": "약 4분"
      },
      {
        "convenience_store_lat": 37.57757398,
        "convenience_store_lon": 126.8907233,
        "convenience_store_type": "편의점",
        "convenience_store_name": "미니스톱 상암센트럴점",
        "distance": 248.1429298136709,
        "walking_time": "약 4분"
      },
      {
        "convenience_store_lat": 37.57597663,
        "convenience_store_lon": 126.8962382,
        "convenience_store_type": "편의점",
        "convenience_store_name": "GS25 조약돌점",
        "distance": 298.1370968401398,
        "walking_time": "약 5분"
      },
      {
        "convenience_store_lat": 37.575886,
        "convenience_store_lon": 126.8962553,
        "convenience_store_type": "편의점",
        "convenience_store_name": "GS25 상암조약돌점",
        "distance": 305.4980881802286,
        "walking_time": "약 5분"
      },
      {
        "convenience_store_lat": 37.57701082,
        "convenience_store_lon": 126.8900996,
        "convenience_store_type": "편의점",
        "convenience_store_name": "CU 상암DMCC점",
        "distance": 309.93467776923524,
        "walking_time": "약 5분"
      }
    ],
    "daycare": [
      {
        "daycare_lat": 37.57845264,
        "daycare_lon": 126.8929006,
        "daycare_type": "어린이집",
        "daycare_name": "SKY어린이집",
        "distance": 110.91454969625296,
        "walking_time": "약 2분"
      },
      {
        "daycare_lat": 37.57830289,
        "daycare_lon": 126.8946698,
        "daycare_type": "어린이집",
        "daycare_name": "월드빅스맘 어린이집",
        "distance": 127.12718359296298,
        "walking_time": "약 2분"
      },
      {
        "daycare_lat": 37.57830289,
        "daycare_lon": 126.8946698,
        "daycare_type": "어린이집",
        "daycare_name": "다해어린이집",
        "distance": 127.12718359296298,
        "walking_time": "약 2분"
      },
      {
        "daycare_lat": 37.57830289,
        "daycare_lon": 126.8946698,
        "daycare_type": "어린이집",
        "daycare_name": "파스텔어린이집",
        "distance": 127.12718359296298,
        "walking_time": "약 2분"
      },
      {
        "daycare_lat": 37.57830289,
        "daycare_lon": 126.8946698,
        "daycare_type": "어린이집",
        "daycare_name": "삼성어린이집",
        "distance": 127.12718359296298,
        "walking_time": "약 2분"
      },
      {
        "daycare_lat": 37.57830289,
        "daycare_lon": 126.8946698,
        "daycare_type": "어린이집",
        "daycare_name": "도담어린이집",
        "distance": 127.12718359296298,
        "walking_time": "약 2분"
      },
      {
        "daycare_lat": 37.57830289,
        "daycare_lon": 126.8946698,
        "daycare_type": "어린이집",
        "daycare_name": "엘프어린이집",
        "distance": 127.12718359296298,
        "walking_time": "약 2분"
      },
      {
        "daycare_lat": 37.57667952,
        "daycare_lon": 126.8953741,
        "daycare_type": "어린이집",
        "daycare_name": "서울시립마포주민편익시설 부설 어린이집",
        "distance": 190.97253179065527,
        "walking_time": "약 3분"
      },
      {
        "daycare_lat": 37.57668171,
        "daycare_lon": 126.8953846,
        "daycare_type": "어린이집",
        "daycare_name": "상암나래어린이집",
        "distance": 191.6278598540536,
        "walking_time": "약 3분"
      },
      {
        "daycare_lat": 37.57795568,
        "daycare_lon": 126.8913702,
        "daycare_type": "어린이집",
        "daycare_name": "좋은나무어린이집",
        "distance": 195.33365201529176,
        "walking_time": "약 3분"
      }
    ],
    "education": [
      {
        "education_lat": 37.57942834,
        "education_lon": 126.889783,
        "education_type": "미술관/갤러리",
        "education_name": "디지털 파빌리온",
        "distance": 388.85187222862254,
        "walking_time": "약 6분"
      },
      {
        "education_lat": 37.58065618,
        "education_lon": 126.8898393,
        "education_type": "박물관/기념관",
        "education_name": "한국영화박물관",
        "distance": 471.49829359504633,
        "walking_time": "약 8분"
      },
      {
        "education_lat": 37.58146011,
        "education_lon": 126.8971043,
        "education_type": "공연장",
        "education_name": "래빗아트홀",
        "distance": 532.5545726415567,
        "walking_time": "약 8분"
      },
      {
        "education_lat": 37.58032229,
        "education_lon": 126.8838463,
        "education_type": "문화원",
        "education_name": "구립마포청소년문화의집",
        "distance": 906.4668816646464,
        "walking_time": "약 14분"
      },
      {
        "education_lat": 37.58280944,
        "education_lon": 126.9076713,
        "education_type": "도서관",
        "education_name": "구립증산정보도서관",
        "distance": 1373.8220839163132,
        "walking_time": "약 21분"
      },
      {
        "education_lat": 37.56379544,
        "education_lon": 126.9082019,
        "education_type": "도서관",
        "education_name": "마포중앙도서관",
        "distance": 2005.950881717128,
        "walking_time": "약 30분"
      }
    ],
    "electric_gas_station": [
      {
        "electric_gas_station_lat": 37.567919,
        "electric_gas_station_lon": 126.8986845,
        "electric_gas_station_type": "전기차 충전소",
        "electric_gas_station_name": "홈플러스 월드컵점",
        "distance": 1167.3780393743418,
        "walking_time": "약 18분"
      }
    ],
    "fitness": [
      {
        "fitness_lat": 37.57852975,
        "fitness_lon": 126.8942848,
        "fitness_type": "운동시설",
        "fitness_name": "짐박스피트니스상암DMC점",
        "distance": 123.16347776981812,
        "walking_time": "약 2분"
      },
      {
        "fitness_lat": 37.5785265,
        "fitness_lon": 126.8949776,
        "fitness_type": "운동시설",
        "fitness_name": "CUBA FIT(쿠바핏)",
        "distance": 163.84959347352614,
        "walking_time": "약 3분"
      },
      {
        "fitness_lat": 37.5771097,
        "fitness_lon": 126.8914039,
        "fitness_type": "운동시설",
        "fitness_name": "이안피티",
        "distance": 195.68067560966867,
        "walking_time": "약 3분"
      },
      {
        "fitness_lat": 37.57899338,
        "fitness_lon": 126.8949677,
        "fitness_type": "운동시설",
        "fitness_name": "서울리프팅클럽",
        "distance": 200.24688735431772,
        "walking_time": "약 3분"
      },
      {
        "fitness_lat": 37.57762688,
        "fitness_lon": 126.896025,
        "fitness_type": "운동시설",
        "fitness_name": "해봄PT",
        "distance": 219.1113737818848,
        "walking_time": "약 4분"
      },
      {
        "fitness_lat": 37.57698179,
        "fitness_lon": 126.8969674,
        "fitness_type": "운동시설",
        "fitness_name": "크로스핏헬퍼2호점 DMC상암점",
        "distance": 309.67918026880176,
        "walking_time": "약 5분"
      },
      {
        "fitness_lat": 37.58027851,
        "fitness_lon": 126.8918186,
        "fitness_type": "운동시설",
        "fitness_name": "헬스보이짐 상암MBC점",
        "distance": 334.8968036784034,
        "walking_time": "약 5분"
      },
      {
        "fitness_lat": 37.57572697,
        "fitness_lon": 126.8899726,
        "fitness_type": "운동시설",
        "fitness_name": "온더피트니스",
        "distance": 376.6081272309885,
        "walking_time": "약 6분"
      },
      {
        "fitness_lat": 37.57942834,
        "fitness_lon": 126.889783,
        "fitness_type": "운동시설",
        "fitness_name": "에프45(F45)상암",
        "distance": 388.85187222862254,
        "walking_time": "약 6분"
      },
      {
        "fitness_lat": 37.57942834,
        "fitness_lon": 126.889783,
        "fitness_type": "운동시설",
        "fitness_name": "퍼스트클래스짐",
        "distance": 388.85187222862254,
        "walking_time": "약 6분"
      }
    ],
    "gas_station": [
      {
        "gas_station_lat": 37.58116929,
        "gas_station_lon": 126.8978454,
        "gas_station_type": "주유소",
        "gas_station_name": "(주)명연에너지 수색훼미리주유소",
        "distance": 549.6840362902983,
        "walking_time": "약 9분"
      },
      {
        "gas_station_lat": 37.58399155,
        "gas_station_lon": 126.8910889,
        "gas_station_type": "주유소",
        "gas_station_name": "삼융주유소",
        "distance": 743.5241631740067,
        "walking_time": "약 12분"
      },
      {
        "gas_station_lat": 37.57855212,
        "gas_station_lon": 126.9020341,
        "gas_station_type": "주유소",
        "gas_station_name": "타이거주유소",
        "distance": 756.1853032625966,
        "walking_time": "약 12분"
      },
      {
        "gas_station_lat": 37.58722687,
        "gas_station_lon": 126.8875641,
        "gas_station_type": "주유소",
        "gas_station_name": "지에스칼텍스(주) 수색뉴타운 주유소",
        "distance": 1193.6318075266404,
        "walking_time": "약 18분"
      },
      {
        "gas_station_lat": 37.56746574,
        "gas_station_lon": 126.9098446,
        "gas_station_type": "주유소",
        "gas_station_name": "성산주유소",
        "distance": 1825.6938211999109,
        "walking_time": "약 28분"
      },
      {
        "gas_station_lat": 37.56433512,
        "gas_station_lon": 126.909458,
        "gas_station_type": "주유소",
        "gas_station_name": "(주)블루원에너지 직영 성산대교주유소",
        "distance": 2035.109110162046,
        "walking_time": "약 31분"
      }
    ],
    "hospital": [
      {
        "hospital_lat": 37.57845183,
        "hospital_lon": 126.8928994,
        "hospital_type": "병원",
        "hospital_name": "같은생각치과의원",
        "distance": 110.89065148996949,
        "walking_time": "약 2분"
      },
      {
        "hospital_lat": 37.57845183,
        "hospital_lon": 126.8928994,
        "hospital_type": "병원",
        "hospital_name": "경희하온재한의원",
        "distance": 110.89065148996949,
        "walking_time": "약 2분"
      },
      {
        "hospital_lat": 37.57634541,
        "hospital_lon": 126.8932162,
        "hospital_type": "병원",
        "hospital_name": "경희디엠씨한의원",
        "distance": 141.6123127869503,
        "walking_time": "약 3분"
      },
      {
        "hospital_lat": 37.57634541,
        "hospital_lon": 126.8932162,
        "hospital_type": "병원",
        "hospital_name": "별소아청소년과의원",
        "distance": 141.6123127869503,
        "walking_time": "약 3분"
      },
      {
        "hospital_lat": 37.57634541,
        "hospital_lon": 126.8932162,
        "hospital_type": "병원",
        "hospital_name": "상암우리내과의원",
        "distance": 141.6123127869503,
        "walking_time": "약 3분"
      },
      {
        "hospital_lat": 37.57634541,
        "hospital_lon": 126.8932162,
        "hospital_type": "병원",
        "hospital_name": "상암정형외과의원",
        "distance": 141.6123127869503,
        "walking_time": "약 3분"
      },
      {
        "hospital_lat": 37.57634541,
        "hospital_lon": 126.8932162,
        "hospital_type": "병원",
        "hospital_name": "서울앤플란트치과의원",
        "distance": 141.6123127869503,
        "walking_time": "약 3분"
      },
      {
        "hospital_lat": 37.57634541,
        "hospital_lon": 126.8932162,
        "hospital_type": "병원",
        "hospital_name": "클린앤미피부과의원",
        "distance": 141.6123127869503,
        "walking_time": "약 3분"
      },
      {
        "hospital_lat": 37.57662937,
        "hospital_lon": 126.8948787,
        "hospital_type": "병원",
        "hospital_name": "오르다한의원",
        "distance": 159.43625063879148,
        "walking_time": "약 3분"
      },
      {
        "hospital_lat": 37.5771097,
        "hospital_lon": 126.8914039,
        "hospital_type": "병원",
        "hospital_name": "디엠씨서울치과의원",
        "distance": 195.68067560966867,
        "walking_time": "약 3분"
      }
    ],
    "music_room": [
      {
        "music_room_lat": 37.57680619,
        "music_room_lon": 126.8947333,
        "music_room_type": "노래방",
        "music_room_name": "럭키코인 노래연습장",
        "distance": 136.86342001856312,
        "walking_time": "약 3분"
      },
      {
        "music_room_lat": 37.57690418,
        "music_room_lon": 126.8948933,
        "music_room_type": "노래방",
        "music_room_name": "슈퍼스타 노래연습장",
        "distance": 141.811745994677,
        "walking_time": "약 3분"
      },
      {
        "music_room_lat": 37.57737372,
        "music_room_lon": 126.8952336,
        "music_room_type": "노래방",
        "music_room_name": "스페셜 노래연습장",
        "distance": 151.31448485685152,
        "walking_time": "약 3분"
      },
      {
        "music_room_lat": 37.57678235,
        "music_room_lon": 126.8950745,
        "music_room_type": "노래방",
        "music_room_name": "케이팝 노래연습장",
        "distance": 162.59120415061076,
        "walking_time": "약 3분"
      },
      {
        "music_room_lat": 37.57538192,
        "music_room_lon": 126.8957742,
        "music_room_type": "노래방",
        "music_room_name": "DMC 노래연습장",
        "distance": 315.0377169636104,
        "walking_time": "약 5분"
      },
      {
        "music_room_lat": 37.58266871,
        "music_room_lon": 126.8950565,
        "music_room_type": "노래방",
        "music_room_name": "앵콜노래연습장",
        "distance": 580.0190877751278,
        "walking_time": "약 9분"
      },
      {
        "music_room_lat": 37.58258591,
        "music_room_lon": 126.8956755,
        "music_room_type": "노래방",
        "music_room_name": "킹노래연습장",
        "distance": 586.2409957288473,
        "walking_time": "약 9분"
      },
      {
        "music_room_lat": 37.58648615,
        "music_room_lon": 126.8883126,
        "music_room_type": "노래방",
        "music_room_name": "열린노래연습장",
        "distance": 1090.860237047929,
        "walking_time": "약 17분"
      },
      {
        "music_room_lat": 37.58114102,
        "music_room_lon": 126.9063471,
        "music_room_type": "노래방",
        "music_room_name": "짱노래연습장",
        "distance": 1195.6525180715528,
        "walking_time": "약 18분"
      },
      {
        "music_room_lat": 37.5692779,
        "music_room_lon": 126.9043255,
        "music_room_type": "노래방",
        "music_room_name": "모두랑 노래연습장",
        "distance": 1326.1024261251457,
        "walking_time": "약 20분"
      }
    ],
    "park": [
      {
        "park_lat": 37.57171848,
        "park_lon": 126.8932455,
        "park_type": "공원",
        "park_name": "문화비축기지",
        "distance": 653.7287290028049,
        "walking_time": "약 10분"
      },
      {
        "park_lat": 37.5760106,
        "park_lon": 126.8859012,
        "park_type": "공원",
        "park_name": "상암근린공원",
        "distance": 695.7076372174141,
        "walking_time": "약 11분"
      }
    ],
    "park_station": [
      {
        "park_station_lat": 37.57727794,
        "park_station_lon": 126.8971746,
        "park_station_type": "주차장",
        "park_station_name": "상암1 공영주차장",
        "distance": 322.2980103864847,
        "walking_time": "약 5분"
      },
      {
        "park_station_lat": 37.58146051,
        "park_station_lon": 126.8917098,
        "park_station_type": "주차장",
        "park_station_name": "성암로 관광버스 주차허용 구간",
        "distance": 459.2651064157549,
        "walking_time": "약 7분"
      },
      {
        "park_station_lat": 37.58048953,
        "park_station_lon": 126.8989394,
        "park_station_type": "주차장",
        "park_station_name": "수색동공영주차장",
        "distance": 574.6455520835209,
        "walking_time": "약 9분"
      },
      {
        "park_station_lat": 37.56478028,
        "park_station_lon": 126.9066605,
        "park_station_type": "주차장",
        "park_station_name": "성산2-1 공영주차장",
        "distance": 1834.9753976667405,
        "walking_time": "약 28분"
      },
      {
        "park_station_lat": 37.56137008,
        "park_station_lon": 126.8872291,
        "park_station_type": "주차장",
        "park_station_name": "난지1,2,3주차장",
        "distance": 1887.683531414096,
        "walking_time": "약 29분"
      },
      {
        "park_station_lat": 37.56378915,
        "park_station_lon": 126.908449,
        "park_station_type": "주차장",
        "park_station_name": "마포중앙도서관 공영주차장",
        "distance": 2020.580666003216,
        "walking_time": "약 31분"
      }
    ],
    "pc_room": [
      {
        "pc_room_lat": 37.5785264982816,
        "pc_room_lon": 126.894977598231,
        "pc_room_type": "PC방",
        "pc_room_name": "긱스타 PC카페",
        "distance": 163.84935180404472,
        "walking_time": "약 3분"
      },
      {
        "pc_room_lat": 37.5757572395919,
        "pc_room_lon": 126.895729992644,
        "pc_room_type": "PC방",
        "pc_room_name": "OX PC방",
        "distance": 280.97919478193893,
        "walking_time": "약 5분"
      },
      {
        "pc_room_lat": 37.581384890718,
        "pc_room_lon": 126.887439627184,
        "pc_room_type": "PC방",
        "pc_room_name": "텐PC CAFE",
        "distance": 683.1394546788259,
        "walking_time": "약 11분"
      },
      {
        "pc_room_lat": 37.568594632553,
        "pc_room_lon": 126.908363510664,
        "pc_room_type": "PC방",
        "pc_room_name": "3POP 빈티지 PC CAFE",
        "distance": 1645.6195527162083,
        "walking_time": "약 25분"
      },
      {
        "pc_room_lat": 37.564631511842,
        "pc_room_lon": 126.905391881238,
        "pc_room_type": "PC방",
        "pc_room_name": "라이또PC 마포성산점",
        "distance": 1780.0148802023623,
        "walking_time": "약 27분"
      },
      {
        "pc_room_lat": 37.561381158832,
        "pc_room_lon": 126.904931604469,
        "pc_room_type": "PC방",
        "pc_room_name": "3POP PC방(마포구청역점)",
        "distance": 2063.4484950358906,
        "walking_time": "약 31분"
      }
    ],
    "police_office": [
      {
        "police_office_lat": 37.57828068,
        "police_office_lon": 126.8938446,
        "police_office_type": "경찰소",
        "police_office_name": "상암파출소",
        "distance": 81.07036279693634,
        "walking_time": "약 2분"
      },
      {
        "police_office_lat": 37.56873169,
        "police_office_lon": 126.9090823,
        "police_office_type": "경찰소",
        "police_office_name": "월드컵지구대",
        "distance": 1687.4041728277757,
        "walking_time": "약 26분"
      }
    ],
    "post_office": [
      {
        "post_office_lat": 37.57672492,
        "post_office_lon": 126.8935216,
        "post_office_type": "우체국",
        "post_office_name": "서울상암동우편취급국",
        "distance": 96.53827061942876,
        "walking_time": "약 2분"
      },
      {
        "post_office_lat": 37.581752,
        "post_office_lon": 126.8965454,
        "post_office_type": "우체국",
        "post_office_name": "서울수색우체국",
        "distance": 532.9708336848188,
        "walking_time": "약 8분"
      },
      {
        "post_office_lat": 37.58057138,
        "post_office_lon": 126.8832644,
        "post_office_type": "우체국",
        "post_office_name": "서울상암디지털우체국",
        "distance": 964.0996534168642,
        "walking_time": "약 15분"
      },
      {
        "post_office_lat": 37.56956791,
        "post_office_lon": 126.9035265,
        "post_office_type": "우체국",
        "post_office_name": "서울성산2동우체국",
        "distance": 1253.4089651803354,
        "walking_time": "약 19분"
      }
    ],
    "public_health_center": [
      {
        "public_health_center_lat": 37.56631284,
        "public_health_center_lon": 126.9016157,
        "public_health_center_type": "보건소",
        "public_health_center_name": "마포구보건소",
        "distance": 1442.1993856259364,
        "walking_time": "약 22분"
      }
    ],
    "school": [
      {
        "school_lat": 37.5763095825917,
        "school_lon": 126.891959952963,
        "school_type": "초등학교",
        "school_name": "서울상암초등학교",
        "distance": 199.32408027626792,
        "walking_time": "약 3분"
      },
      {
        "school_lat": 37.5790569198061,
        "school_lon": 126.887550793573,
        "school_type": "중학교",
        "school_name": "상암중학교",
        "distance": 552.2420661177896,
        "walking_time": "약 9분"
      },
      {
        "school_lat": 37.5851721490482,
        "school_lon": 126.896012135221,
        "school_type": "초등학교",
        "school_name": "서울수색초등학교",
        "distance": 870.4853087899227,
        "walking_time": "약 13분"
      },
      {
        "school_lat": 37.5813414106022,
        "school_lon": 126.883394497343,
        "school_type": "고등학교",
        "school_name": "상암고등학교",
        "distance": 986.3546737354588,
        "walking_time": "약 15분"
      },
      {
        "school_lat": 37.5797510164641,
        "school_lon": 126.882073551893,
        "school_type": "초등학교",
        "school_name": "서울상지초등학교",
        "distance": 1038.48318916088,
        "walking_time": "약 16분"
      },
      {
        "school_lat": 37.5724113191677,
        "school_lon": 126.903368570397,
        "school_type": "중학교",
        "school_name": "중암중학교",
        "distance": 1040.3795560076717,
        "walking_time": "약 16분"
      },
      {
        "school_lat": 37.5825652695002,
        "school_lon": 126.904276446505,
        "school_type": "초등학교",
        "school_name": "서울증산초등학교",
        "distance": 1095.899861391,
        "walking_time": "약 17분"
      },
      {
        "school_lat": 37.5715459609872,
        "school_lon": 126.904868991641,
        "school_type": "초등학교",
        "school_name": "서울신북초등학교",
        "distance": 1203.7935043726611,
        "walking_time": "약 18분"
      },
      {
        "school_lat": 37.5838153929282,
        "school_lon": 126.904939878075,
        "school_type": "중학교",
        "school_name": "증산중학교",
        "distance": 1219.864216992239,
        "walking_time": "약 19분"
      },
      {
        "school_lat": 37.5772202096676,
        "school_lon": 126.907778193085,
        "school_type": "초등학교",
        "school_name": "서울북가좌초등학교",
        "distance": 1255.518148530688,
        "walking_time": "약 19분"
      }
    ],
    "self_laundromat": [
      {
        "self_laundromat_lat": 37.57485828,
        "self_laundromat_lon": 126.8953856,
        "self_laundromat_type": "셀프 빨래방",
        "self_laundromat_name": "이지워시셀프빨래방 상암점",
        "distance": 344.89349165924625,
        "walking_time": "약 6분"
      },
      {
        "self_laundromat_lat": 37.57485828,
        "self_laundromat_lon": 126.8953856,
        "self_laundromat_type": "셀프 빨래방",
        "self_laundromat_name": "이지워시셀프빨래방 상암점",
        "distance": 344.89349165924625,
        "walking_time": "약 6분"
      }
    ],
    "subway": [
      {
        "subway_lat": 37.5771614352661,
        "subway_lon": 126.901928562926,
        "subway_type": "지하철",
        "subway_name": "6호선-디지털미디어시티역",
        "distance": 740.8890688957372,
        "walking_time": "약 12분"
      },
      {
        "subway_lat": 37.5682884450841,
        "subway_lon": 126.897273034482,
        "subway_type": "지하철",
        "subway_name": "6호선-월드컵경기장(성산)역",
        "distance": 1085.6945109272478,
        "walking_time": "약 17분"
      },
      {
        "subway_lat": 37.5641776888752,
        "subway_lon": 126.903289789101,
        "subway_type": "지하철",
        "subway_name": "6호선-마포구청역",
        "distance": 1721.5468511234164,
        "walking_time": "약 26분"
      }
    ],
    "supermarket": [
      {
        "supermarket_lat": 37.57969328,
        "supermarket_lon": 126.8986784,
        "supermarket_type": "마트",
        "supermarket_name": "(주)이마트 수색점",
        "distance": 509.571419780326,
        "walking_time": "약 8분"
      },
      {
        "supermarket_lat": 37.56828845,
        "supermarket_lon": 126.897273,
        "supermarket_type": "마트",
        "supermarket_name": "홈플러스(주)월드컵점",
        "distance": 1085.693068898683,
        "walking_time": "약 17분"
      },
      {
        "supermarket_lat": 37.56519935,
        "supermarket_lon": 126.8984828,
        "supermarket_type": "마트",
        "supermarket_name": "마포농수산물시장",
        "distance": 1445.3485523782456,
        "walking_time": "약 22분"
      }
    ],
    "theater": [
      {
        "theater_lat": 37.5682884450841,
        "theater_lon": 126.897273034482,
        "theater_type": "영화관",
        "theater_name": "메가박스중앙(주) 상암월드컵경기장지점",
        "distance": 1085.6945109272478,
        "walking_time": "약 17분"
      }
    ]
  }
}