{
  "클러스터_위도": 37.48518025010175,
  "클러스터_경도": 126.9256153331396,
  "클러스터_level": 3.0,
  "facilities": {
    "bus": [
      {
        "bus_lat": 37.48497178,
        "bus_lon": 126.9246318,
        "bus_type": "버스정류장",
        "bus_name": "봉림교",
        "distance": 89.82420464974227,
        "walking_time": "약 2분"
      },
      {
        "bus_lat": 37.48477707,
        "bus_lon": 126.9245167,
        "bus_type": "버스정류장",
        "bus_name": "봉림교",
        "distance": 106.80235576717482,
        "walking_time": "약 2분"
      },
      {
        "bus_lat": 37.48368797,
        "bus_lon": 126.9269361,
        "bus_type": "버스정류장",
        "bus_name": "봉림교",
        "distance": 202.7689232595266,
        "walking_time": "약 4분"
      },
      {
        "bus_lat": 37.48370921,
        "bus_lon": 126.9273006,
        "bus_type": "버스정류장",
        "bus_name": "신림사거리.신원시장",
        "distance": 221.06001832841625,
        "walking_time": "약 4분"
      },
      {
        "bus_lat": 37.48414928,
        "bus_lon": 126.9278542,
        "bus_type": "버스정류장",
        "bus_name": "신림사거리.신림역",
        "distance": 228.4000635189917,
        "walking_time": "약 4분"
      },
      {
        "bus_lat": 37.4841991,
        "bus_lon": 126.928276,
        "bus_type": "버스정류장",
        "bus_name": "신림사거리.신림역",
        "distance": 258.8756845136432,
        "walking_time": "약 4분"
      },
      {
        "bus_lat": 37.4838178,
        "bus_lon": 126.9280626,
        "bus_type": "버스정류장",
        "bus_name": "신림사거리.신림역",
        "distance": 263.7791477797018,
        "walking_time": "약 4분"
      },
      {
        "bus_lat": 37.48671975,
        "bus_lon": 126.9226406,
        "bus_type": "버스정류장",
        "bus_name": "남부초교후문",
        "distance": 313.3611159300723,
        "walking_time": "약 5분"
      },
      {
        "bus_lat": 37.48644918,
        "bus_lon": 126.9222367,
        "bus_type": "버스정류장",
        "bus_name": "남부초교후문",
        "distance": 329.814806235583,
        "walking_time": "약 5분"
      },
      {
        "bus_lat": 37.48641518,
        "bus_lon": 126.9290604,
        "bus_type": "버스정류장",
        "bus_name": "신림동별빛거리입구",
        "distance": 333.5482919272357,
        "walking_time": "약 5분"
      }
    ],
    "community_center": [
      {
        "community_center_lat": 37.487396,
        "community_center_lon": 126.9271139,
        "community_center_type": "주민센터",
        "community_center_name": "신림동 자치회관",
        "distance": 279.6178412351486,
        "walking_time": "약 5분"
      },
      {
        "community_center_lat": 37.48161061,
        "community_center_lon": 126.9273799,
        "community_center_type": "주민센터",
        "community_center_name": "신원동 자치회관",
        "distance": 426.3711724793257,
        "walking_time": "약 7분"
      },
      {
        "community_center_lat": 37.48595224,
        "community_center_lon": 126.9191029,
        "community_center_type": "주민센터",
        "community_center_name": "신사동 자치회관",
        "distance": 580.9939648659239,
        "walking_time": "약 9분"
      },
      {
        "community_center_lat": 37.48817585,
        "community_center_lon": 126.932778,
        "community_center_type": "주민센터",
        "community_center_name": "보라매동 자치회관",
        "distance": 714.3894438540788,
        "walking_time": "약 11분"
      },
      {
        "community_center_lat": 37.47976918,
        "community_center_lon": 126.9313747,
        "community_center_type": "주민센터",
        "community_center_name": "서원동 자치회관",
        "distance": 787.5802967307249,
        "walking_time": "약 12분"
      },
      {
        "community_center_lat": 37.47617498,
        "community_center_lon": 126.9155517,
        "community_center_type": "주민센터",
        "community_center_name": "미성동 자치회관",
        "distance": 1338.3749695854997,
        "walking_time": "약 20분"
      },
      {
        "community_center_lat": 37.47499588,
        "community_center_lon": 126.9349996,
        "community_center_type": "주민센터",
        "community_center_name": "서림동 자치회관",
        "distance": 1402.906187159234,
        "walking_time": "약 21분"
      },
      {
        "community_center_lat": 37.48894469,
        "community_center_lon": 126.9100394,
        "community_center_type": "주민센터",
        "community_center_name": "신대방1동 자치회관",
        "distance": 1436.631439782852,
        "walking_time": "약 22분"
      },
      {
        "community_center_lat": 37.49841253,
        "community_center_lon": 126.924544,
        "community_center_type": "주민센터",
        "community_center_name": "신대방2동 자치회관",
        "distance": 1474.3952412204085,
        "walking_time": "약 23분"
      },
      {
        "community_center_lat": 37.47102189,
        "community_center_lon": 126.9216418,
        "community_center_type": "주민센터",
        "community_center_name": "난곡동 자치회관",
        "distance": 1612.9118840274928,
        "walking_time": "약 25분"
      }
    ],
    "convenience_store": [
      {
        "convenience_store_lat": 37.48520213,
        "convenience_store_lon": 126.9239545,
        "convenience_store_type": "편의점",
        "convenience_store_name": "CU 관악승리점",
        "distance": 146.56274242170866,
        "walking_time": "약 3분"
      },
      {
        "convenience_store_lat": 37.48422882,
        "convenience_store_lon": 126.9271836,
        "convenience_store_type": "편의점",
        "convenience_store_name": "GS25 신림본점",
        "distance": 174.1846974871895,
        "walking_time": "약 3분"
      },
      {
        "convenience_store_lat": 37.48671946,
        "convenience_store_lon": 126.9262776,
        "convenience_store_type": "편의점",
        "convenience_store_name": "GS25 신림누리점",
        "distance": 180.85260445045463,
        "walking_time": "약 3분"
      },
      {
        "convenience_store_lat": 37.48351418,
        "convenience_store_lon": 126.925934,
        "convenience_store_type": "편의점",
        "convenience_store_name": "GS25 신림성화점",
        "distance": 187.3801798647424,
        "walking_time": "약 3분"
      },
      {
        "convenience_store_lat": 37.48503772,
        "convenience_store_lon": 126.9278703,
        "convenience_store_type": "편의점",
        "convenience_store_name": "세븐일레븐 소리나점",
        "distance": 199.5959879938929,
        "walking_time": "약 3분"
      },
      {
        "convenience_store_lat": 37.48689022,
        "convenience_store_lon": 126.9244584,
        "convenience_store_type": "편의점",
        "convenience_store_name": "CU 관악리베로점",
        "distance": 215.8090776515486,
        "walking_time": "약 4분"
      },
      {
        "convenience_store_lat": 37.48481872,
        "convenience_store_lon": 126.9280816,
        "convenience_store_type": "편의점",
        "convenience_store_name": "GS25 신림트라움점",
        "distance": 221.2920970523975,
        "walking_time": "약 4분"
      },
      {
        "convenience_store_lat": 37.48711647,
        "convenience_store_lon": 126.9270517,
        "convenience_store_type": "편의점",
        "convenience_store_name": "세븐일레븐 신림문화점",
        "distance": 249.8299182333845,
        "walking_time": "약 4분"
      },
      {
        "convenience_store_lat": 37.4833434,
        "convenience_store_lon": 126.9274775,
        "convenience_store_type": "편의점",
        "convenience_store_name": "미니스톱 신림푸리마점",
        "distance": 262.13528676141567,
        "walking_time": "약 4분"
      },
      {
        "convenience_store_lat": 37.48615303,
        "convenience_store_lon": 126.9285367,
        "convenience_store_type": "편의점",
        "convenience_store_name": "GS25 신림사랑점",
        "distance": 279.53939273686643,
        "walking_time": "약 5분"
      }
    ],
    "daycare": [
      {
        "daycare_lat": 37.48604152,
        "daycare_lon": 126.9262357,
        "daycare_type": "어린이집",
        "daycare_name": "통통어린이집",
        "distance": 110.30797991325156,
        "walking_time": "약 2분"
      },
      {
        "daycare_lat": 37.4859753,
        "daycare_lon": 126.9265838,
        "daycare_type": "어린이집",
        "daycare_name": "햇살어린이집",
        "distance": 122.95329544246876,
        "walking_time": "약 2분"
      },
      {
        "daycare_lat": 37.48733611674542,
        "daycare_lon": 126.9255724608312,
        "daycare_type": "어린이집",
        "daycare_name": "샛별어린이집",
        "distance": 239.7512770148492,
        "walking_time": "약 4분"
      },
      {
        "daycare_lat": 37.48280138676038,
        "daycare_lon": 126.92422471773445,
        "daycare_type": "어린이집",
        "daycare_name": "파란꿈어린이집",
        "distance": 291.5910054808304,
        "walking_time": "약 5분"
      },
      {
        "daycare_lat": 37.48775113,
        "daycare_lon": 126.926454,
        "daycare_type": "어린이집",
        "daycare_name": "구립새들어린이집",
        "distance": 295.29082517169286,
        "walking_time": "약 5분"
      },
      {
        "daycare_lat": 37.482413303298586,
        "daycare_lon": 126.92604316405205,
        "daycare_type": "어린이집",
        "daycare_name": "한결어린이집",
        "distance": 309.97769791469113,
        "walking_time": "약 5분"
      },
      {
        "daycare_lat": 37.48612652,
        "daycare_lon": 126.9220821,
        "daycare_type": "어린이집",
        "daycare_name": "아이세상어린이집",
        "distance": 329.0285585422427,
        "walking_time": "약 5분"
      },
      {
        "daycare_lat": 37.48291900897029,
        "daycare_lon": 126.92220753995076,
        "daycare_type": "어린이집",
        "daycare_name": "신원어린이집",
        "distance": 391.963315321072,
        "walking_time": "약 6분"
      },
      {
        "daycare_lat": 37.48454735,
        "daycare_lon": 126.9211837,
        "daycare_type": "어린이집",
        "daycare_name": "새동원어린이집",
        "distance": 397.30651532539895,
        "walking_time": "약 6분"
      },
      {
        "daycare_lat": 37.4860032,
        "daycare_lon": 126.9209108,
        "daycare_type": "어린이집",
        "daycare_name": "알토랑밤토랑어린이집",
        "distance": 425.0659564246944,
        "walking_time": "약 7분"
      }
    ],
    "education": [
      {
        "education_lat": 37.4808823,
        "education_lon": 126.9182364,
        "education_type": "박물관/기념관",
        "education_name": "호림박물관(신림본관)",
        "distance": 807.664495708496,
        "walking_time": "약 13분"
      },
      {
        "education_lat": 37.49379251,
        "education_lon": 126.9231084,
        "education_type": "미술관/갤러리",
        "education_name": "동작아트갤러리",
        "distance": 982.8511521370468,
        "walking_time": "약 15분"
      }
    ],
    "fitness": [
      {
        "fitness_lat": 37.48443794,
        "fitness_lon": 126.9288037,
        "fitness_type": "운동시설",
        "fitness_name": "러너스하이 피트니스 신림",
        "distance": 293.18383481719184,
        "walking_time": "약 5분"
      },
      {
        "fitness_lat": 37.48603769,
        "fitness_lon": 126.928812,
        "fitness_type": "운동시설",
        "fitness_name": "폴인핏 신림점",
        "distance": 297.7329257643256,
        "walking_time": "약 5분"
      },
      {
        "fitness_lat": 37.48750717,
        "fitness_lon": 126.9275272,
        "fitness_type": "운동시설",
        "fitness_name": "레코브",
        "distance": 308.874555107781,
        "walking_time": "약 5분"
      },
      {
        "fitness_lat": 37.48589681,
        "fitness_lon": 126.9290241,
        "fitness_type": "운동시설",
        "fitness_name": "R.F Shop(알에프샵)",
        "distance": 311.1438956491283,
        "walking_time": "약 5분"
      },
      {
        "fitness_lat": 37.48576689,
        "fitness_lon": 126.9291905,
        "fitness_type": "운동시설",
        "fitness_name": "휘트니스피플 신림점",
        "distance": 322.1252805138137,
        "walking_time": "약 5분"
      },
      {
        "fitness_lat": 37.48709958,
        "fitness_lon": 126.9287444,
        "fitness_type": "운동시설",
        "fitness_name": "유얼스짐PT 신림역점",
        "distance": 348.95903526977884,
        "walking_time": "약 6분"
      },
      {
        "fitness_lat": 37.48328986,
        "fitness_lon": 126.9287761,
        "fitness_type": "운동시설",
        "fitness_name": "짐박스피트니스 신림역점",
        "distance": 349.2354968758667,
        "walking_time": "약 6분"
      },
      {
        "fitness_lat": 37.48550722,
        "fitness_lon": 126.9299488,
        "fitness_type": "운동시설",
        "fitness_name": "파운드짐 헬스&PT 신림역점",
        "distance": 384.0845558476152,
        "walking_time": "약 6분"
      },
      {
        "fitness_lat": 37.4871134,
        "fitness_lon": 126.9292532,
        "fitness_type": "운동시설",
        "fitness_name": "바디가드 짐",
        "distance": 386.309356563956,
        "walking_time": "약 6분"
      },
      {
        "fitness_lat": 37.48476254,
        "fitness_lon": 126.9300965,
        "fitness_type": "운동시설",
        "fitness_name": "자마이카 짐",
        "distance": 398.1127991048828,
        "walking_time": "약 6분"
      }
    ],
    "gas_station": [
      {
        "gas_station_lat": 37.4824162,
        "gas_station_lon": 126.9194521,
        "gas_station_type": "주유소",
        "gas_station_name": "현대오일뱅크㈜직영관악셀프주유소",
        "distance": 624.6616549192182,
        "walking_time": "약 10분"
      },
      {
        "gas_station_lat": 37.48302235,
        "gas_station_lon": 126.9188525,
        "gas_station_type": "주유소",
        "gas_station_name": "씨제이대한통운(주)",
        "distance": 643.1586944486701,
        "walking_time": "약 10분"
      },
      {
        "gas_station_lat": 37.48041974,
        "gas_station_lon": 126.9306687,
        "gas_station_type": "주유소",
        "gas_station_name": "신관주유소",
        "distance": 692.118413882679,
        "walking_time": "약 11분"
      },
      {
        "gas_station_lat": 37.49159774,
        "gas_station_lon": 126.927219,
        "gas_station_type": "주유소",
        "gas_station_name": "대양석유㈜보라매주유소",
        "distance": 727.4847857016905,
        "walking_time": "약 11분"
      },
      {
        "gas_station_lat": 37.49322282,
        "gas_station_lon": 126.9266746,
        "gas_station_type": "주유소",
        "gas_station_name": "㈜엠오티이엔지직영삼화주유소",
        "distance": 899.1631928552999,
        "walking_time": "약 14분"
      },
      {
        "gas_station_lat": 37.47786965,
        "gas_station_lon": 126.9143629,
        "gas_station_type": "주유소",
        "gas_station_name": "문성골주유소",
        "distance": 1283.2222647750048,
        "walking_time": "약 20분"
      },
      {
        "gas_station_lat": 37.47341197,
        "gas_station_lon": 126.9188013,
        "gas_station_type": "주유소",
        "gas_station_name": "난곡주유소",
        "distance": 1440.1042266119573,
        "walking_time": "약 22분"
      },
      {
        "gas_station_lat": 37.4737677,
        "gas_station_lon": 126.9348256,
        "gas_station_type": "주유소",
        "gas_station_name": "유림주유소",
        "distance": 1506.9593347158454,
        "walking_time": "약 23분"
      },
      {
        "gas_station_lat": 37.49838192,
        "gas_station_lon": 126.9197833,
        "gas_station_type": "주유소",
        "gas_station_name": "한경석유㈜경덕주유소",
        "distance": 1555.5238738639307,
        "walking_time": "약 24분"
      }
    ],
    "hospital": [
      {
        "hospital_lat": 37.48351418,
        "hospital_lon": 126.925934,
        "hospital_type": "병원",
        "hospital_name": "청양한의원",
        "distance": 187.3801798647424,
        "walking_time": "약 3분"
      },
      {
        "hospital_lat": 37.48422245,
        "hospital_lon": 126.9273759,
        "hospital_type": "병원",
        "hospital_name": "서울김치과의원",
        "distance": 188.34646347140784,
        "walking_time": "약 3분"
      },
      {
        "hospital_lat": 37.48422245,
        "hospital_lon": 126.9273759,
        "hospital_type": "병원",
        "hospital_name": "메디Q의원",
        "distance": 188.34646347140784,
        "walking_time": "약 3분"
      },
      {
        "hospital_lat": 37.48343137,
        "hospital_lon": 126.9256406,
        "hospital_type": "병원",
        "hospital_name": "진승재치과의원",
        "distance": 194.4793736888054,
        "walking_time": "약 3분"
      },
      {
        "hospital_lat": 37.48342884,
        "hospital_lon": 126.9253389,
        "hospital_type": "병원",
        "hospital_name": "이지정형외과의원",
        "distance": 196.26941089066884,
        "walking_time": "약 3분"
      },
      {
        "hospital_lat": 37.48342884,
        "hospital_lon": 126.9253389,
        "hospital_type": "병원",
        "hospital_name": "서승표정형외과의원",
        "distance": 196.26941089066884,
        "walking_time": "약 3분"
      },
      {
        "hospital_lat": 37.48422822,
        "hospital_lon": 126.9275214,
        "hospital_type": "병원",
        "hospital_name": "고려에이스비뇨기과의원",
        "distance": 198.72496746873892,
        "walking_time": "약 3분"
      },
      {
        "hospital_lat": 37.48422822,
        "hospital_lon": 126.9275214,
        "hospital_type": "병원",
        "hospital_name": "선산부인과의원",
        "distance": 198.72496746873892,
        "walking_time": "약 3분"
      },
      {
        "hospital_lat": 37.48422822,
        "hospital_lon": 126.9275214,
        "hospital_type": "병원",
        "hospital_name": "청구경희한의원",
        "distance": 198.72496746873892,
        "walking_time": "약 3분"
      },
      {
        "hospital_lat": 37.48425464,
        "hospital_lon": 126.9277064,
        "hospital_type": "병원",
        "hospital_name": "박찬문내과의원",
        "distance": 211.27070664051536,
        "walking_time": "약 4분"
      }
    ],
    "music_room": [
      {
        "music_room_lat": 37.4850065,
        "music_room_lon": 126.9266284,
        "music_room_type": "노래방",
        "music_room_name": "영",
        "distance": 91.45150995147053,
        "walking_time": "약 2분"
      },
      {
        "music_room_lat": 37.48485532,
        "music_room_lon": 126.926926,
        "music_room_type": "노래방",
        "music_room_name": "미팅",
        "distance": 121.15875349343172,
        "walking_time": "약 2분"
      },
      {
        "music_room_lat": 37.48489081,
        "music_room_lon": 126.9270574,
        "music_room_type": "노래방",
        "music_room_name": "햇살 노래연습장",
        "distance": 131.2473732601952,
        "walking_time": "약 2분"
      },
      {
        "music_room_lat": 37.4849455,
        "music_room_lon": 126.9273508,
        "music_room_type": "노래방",
        "music_room_name": "풀잎",
        "distance": 155.33696684992665,
        "walking_time": "약 3분"
      },
      {
        "music_room_lat": 37.48471369,
        "music_room_lon": 126.9275279,
        "music_room_type": "노래방",
        "music_room_name": "궁",
        "distance": 176.54908372672494,
        "walking_time": "약 3분"
      },
      {
        "music_room_lat": 37.48671946,
        "music_room_lon": 126.9262776,
        "music_room_type": "노래방",
        "music_room_name": "로데오 노래연습장",
        "distance": 180.85260445045463,
        "walking_time": "약 3분"
      },
      {
        "music_room_lat": 37.48459696,
        "music_room_lon": 126.9275942,
        "music_room_type": "노래방",
        "music_room_name": "와드 코인 노래연습장",
        "distance": 186.2619067279984,
        "walking_time": "약 3분"
      },
      {
        "music_room_lat": 37.48691496,
        "music_room_lon": 126.9259569,
        "music_room_type": "노래방",
        "music_room_name": "짠짜라",
        "distance": 195.2311165605714,
        "walking_time": "약 3분"
      },
      {
        "music_room_lat": 37.48503772,
        "music_room_lon": 126.9278703,
        "music_room_type": "노래방",
        "music_room_name": "돌고래 노래연습장",
        "distance": 199.5959879938929,
        "walking_time": "약 3분"
      },
      {
        "music_room_lat": 37.4846776,
        "music_room_lon": 126.9278986,
        "music_room_type": "노래방",
        "music_room_name": "필링",
        "distance": 209.0726927610884,
        "walking_time": "약 4분"
      }
    ],
    "park": [
      {
        "park_lat": 37.492333,
        "park_lon": 126.918289,
        "park_type": "공원",
        "park_name": "보라매근린공원",
        "distance": 1024.8991443580728,
        "walking_time": "약 16분"
      },
      {
        "park_lat": 37.492299,
        "park_lon": 126.9385469,
        "park_type": "공원",
        "park_name": "상도근린공원",
        "distance": 1388.6533156195374,
        "walking_time": "약 21분"
      }
    ],
    "park_station": [
      {
        "park_station_lat": 37.48462415,
        "park_station_lon": 126.9252587,
        "park_station_type": "주차장",
        "park_station_name": "신림동제2공영",
        "distance": 69.38176064920704,
        "walking_time": "약 2분"
      },
      {
        "park_station_lat": 37.48736362,
        "park_station_lon": 126.9234863,
        "park_station_type": "주차장",
        "park_station_name": "신림동공영주차장",
        "distance": 306.96908386523023,
        "walking_time": "약 5분"
      },
      {
        "park_station_lat": 37.4848902,
        "park_station_lon": 126.9221482,
        "park_station_type": "주차장",
        "park_station_name": "남부초등학교",
        "distance": 307.6163206086369,
        "walking_time": "약 5분"
      },
      {
        "park_station_lat": 37.48271916,
        "park_station_lon": 126.9275934,
        "park_station_type": "주차장",
        "park_station_name": "서원동제1공영",
        "distance": 324.5814822844135,
        "walking_time": "약 5분"
      },
      {
        "park_station_lat": 37.490363,
        "park_station_lon": 126.9232398,
        "park_station_type": "주차장",
        "park_station_name": "보라매상업 공영주차장",
        "distance": 613.2268339841015,
        "walking_time": "약 10분"
      },
      {
        "park_station_lat": 37.48685341,
        "park_station_lon": 126.9331906,
        "park_station_type": "주차장",
        "park_station_name": "봉천복개3 공영주차장",
        "distance": 693.8015203219857,
        "walking_time": "약 11분"
      },
      {
        "park_station_lat": 37.48671106,
        "park_station_lon": 126.9172636,
        "park_station_type": "주차장",
        "park_station_name": "관악신사시장 공영주차장",
        "distance": 756.3064090177932,
        "walking_time": "약 12분"
      },
      {
        "park_station_lat": 37.48445914,
        "park_station_lon": 126.9154432,
        "park_station_type": "주차장",
        "park_station_name": "신사동 제1공영주차장",
        "distance": 901.1107094367192,
        "walking_time": "약 14분"
      },
      {
        "park_station_lat": 37.49193146,
        "park_station_lon": 126.9331501,
        "park_station_type": "주차장",
        "park_station_name": "당곡중학교공영 ",
        "distance": 1002.748135684496,
        "walking_time": "약 15분"
      },
      {
        "park_station_lat": 37.48823393,
        "park_station_lon": 126.914468,
        "park_station_type": "주차장",
        "park_station_name": "신대방역 공영주차장",
        "distance": 1040.5204191965404,
        "walking_time": "약 16분"
      }
    ],
    "pc_room": [
      {
        "pc_room_lat": 37.48492343619,
        "pc_room_lon": 126.927225743639,
        "pc_room_type": "PC방",
        "pc_room_name": "당근PC",
        "distance": 144.93487222773064,
        "walking_time": "약 3분"
      },
      {
        "pc_room_lat": 37.4847136870226,
        "pc_room_lon": 126.92752794785,
        "pc_room_type": "PC방",
        "pc_room_name": "꼬마PC",
        "distance": 176.55321664853216,
        "walking_time": "약 3분"
      },
      {
        "pc_room_lat": 37.4858919115747,
        "pc_room_lon": 126.927636033729,
        "pc_room_type": "PC방",
        "pc_room_name": "뉴탑",
        "distance": 195.0665199515086,
        "walking_time": "약 3분"
      },
      {
        "pc_room_lat": 37.4852468185612,
        "pc_room_lon": 126.927830453385,
        "pc_room_type": "PC방",
        "pc_room_name": "황금PC방",
        "distance": 195.5897724326149,
        "walking_time": "약 3분"
      },
      {
        "pc_room_lat": 37.4868916578486,
        "pc_room_lon": 126.92616007342,
        "pc_room_type": "PC방",
        "pc_room_name": "율PC",
        "distance": 196.2758516920373,
        "walking_time": "약 3분"
      },
      {
        "pc_room_lat": 37.4871786916872,
        "pc_room_lon": 126.925828834235,
        "pc_room_type": "PC방",
        "pc_room_name": "대박PC",
        "distance": 223.0136045679519,
        "walking_time": "약 4분"
      },
      {
        "pc_room_lat": 37.4834373351336,
        "pc_room_lon": 126.927261669777,
        "pc_room_type": "PC방",
        "pc_room_name": "제우스PC",
        "distance": 242.20175600474025,
        "walking_time": "약 4분"
      },
      {
        "pc_room_lat": 37.4855837442563,
        "pc_room_lon": 126.928785213534,
        "pc_room_type": "PC방",
        "pc_room_name": "고래PC",
        "distance": 283.2674048494862,
        "walking_time": "약 5분"
      },
      {
        "pc_room_lat": 37.4872013649081,
        "pc_room_lon": 126.927813421746,
        "pc_room_type": "PC방",
        "pc_room_name": "쿡피시방",
        "distance": 296.852569861964,
        "walking_time": "약 5분"
      },
      {
        "pc_room_lat": 37.485766892503,
        "pc_room_lon": 126.929190502039,
        "pc_room_type": "PC방",
        "pc_room_name": "ZERO100 PC",
        "distance": 322.12551305049266,
        "walking_time": "약 5분"
      }
    ],
    "police_office": [
      {
        "police_office_lat": 37.48401647,
        "police_office_lon": 126.9333173,
        "police_office_type": "경찰소",
        "police_office_name": "신림지구대",
        "distance": 691.7945969657845,
        "walking_time": "약 11분"
      },
      {
        "police_office_lat": 37.48600685,
        "police_office_lon": 126.9343644,
        "police_office_type": "경찰소",
        "police_office_name": "당곡지구대",
        "distance": 777.4167348344159,
        "walking_time": "약 12분"
      },
      {
        "police_office_lat": 37.4872985,
        "police_office_lon": 126.9142051,
        "police_office_type": "경찰소",
        "police_office_name": "신사지구대",
        "distance": 1033.9463823595415,
        "walking_time": "약 16분"
      },
      {
        "police_office_lat": 37.47992421,
        "police_office_lon": 126.9156105,
        "police_office_type": "경찰소",
        "police_office_name": "미성파출소",
        "distance": 1058.7322350051838,
        "walking_time": "약 16분"
      },
      {
        "police_office_lat": 37.4738594,
        "police_office_lon": 126.9352631,
        "police_office_type": "경찰소",
        "police_office_name": "관악산지구대",
        "distance": 1519.6683378332132,
        "walking_time": "약 23분"
      },
      {
        "police_office_lat": 37.49856527,
        "police_office_lon": 126.920574,
        "police_office_type": "경찰소",
        "police_office_name": "대방파출소",
        "distance": 1553.384400064141,
        "walking_time": "약 24분"
      },
      {
        "police_office_lat": 37.49909994,
        "police_office_lon": 126.9128049,
        "police_office_type": "경찰소",
        "police_office_name": "신풍지구대",
        "distance": 1916.5249390125523,
        "walking_time": "약 29분"
      }
    ],
    "post_office": [
      {
        "post_office_lat": 37.48066748,
        "post_office_lon": 126.9284834,
        "post_office_type": "우체국",
        "post_office_name": "서울신림동부우편취급국",
        "distance": 562.0005817702198,
        "walking_time": "약 9분"
      },
      {
        "post_office_lat": 37.48501424,
        "post_office_lon": 126.9331367,
        "post_office_type": "우체국",
        "post_office_name": "서울관악우체국",
        "distance": 663.9004980549731,
        "walking_time": "약 10분"
      },
      {
        "post_office_lat": 37.49121134,
        "post_office_lon": 126.9249903,
        "post_office_type": "우체국",
        "post_office_name": "서울보라매우편취급국",
        "distance": 672.8902188001259,
        "walking_time": "약 11분"
      },
      {
        "post_office_lat": 37.48501945,
        "post_office_lon": 126.9155289,
        "post_office_type": "우체국",
        "post_office_name": "서울관악신사동우편취급국",
        "distance": 890.1506463969642,
        "walking_time": "약 14분"
      },
      {
        "post_office_lat": 37.47854878,
        "post_office_lon": 126.9149155,
        "post_office_type": "우체국",
        "post_office_name": "서울난곡우체국",
        "distance": 1197.9685633027746,
        "walking_time": "약 18분"
      },
      {
        "post_office_lat": 37.49791931,
        "post_office_lon": 126.9245212,
        "post_office_type": "우체국",
        "post_office_name": "서울동작우체국",
        "distance": 1419.8042152447988,
        "walking_time": "약 22분"
      }
    ],
    "public_health_center": [
      {
        "public_health_center_lat": 37.48784455,
        "public_health_center_lon": 126.932302,
        "public_health_center_type": "보건소",
        "public_health_center_name": "관악구보건지소",
        "distance": 660.1880965311393,
        "walking_time": "약 10분"
      },
      {
        "public_health_center_lat": 37.49961665,
        "public_health_center_lon": 126.9242845,
        "public_health_center_type": "보건소",
        "public_health_center_name": "동작구보건지소",
        "distance": 1609.542729070828,
        "walking_time": "약 25분"
      }
    ],
    "school": [
      {
        "school_lat": 37.4851194359099,
        "school_lon": 126.922183775699,
        "school_type": "초등학교",
        "school_name": "서울남부초등학교",
        "distance": 302.85694264024085,
        "walking_time": "약 5분"
      },
      {
        "school_lat": 37.4821362472153,
        "school_lon": 126.921037135349,
        "school_type": "중학교",
        "school_name": "남서울중학교",
        "distance": 527.0227224315288,
        "walking_time": "약 8분"
      },
      {
        "school_lat": 37.4807283676946,
        "school_lon": 126.920957326353,
        "school_type": "고등학교",
        "school_name": "성보고등학교",
        "distance": 643.4123858390644,
        "walking_time": "약 10분"
      },
      {
        "school_lat": 37.4807283676946,
        "school_lon": 126.920957326353,
        "school_type": "중학교",
        "school_name": "성보중학교",
        "distance": 643.4123858390644,
        "walking_time": "약 10분"
      },
      {
        "school_lat": 37.4901681154487,
        "school_lon": 126.930369788237,
        "school_type": "초등학교",
        "school_name": "서울당곡초등학교",
        "distance": 695.4013829125291,
        "walking_time": "약 11분"
      },
      {
        "school_lat": 37.4771198534832,
        "school_lon": 126.926876735629,
        "school_type": "초등학교",
        "school_name": "서울신림초등학교",
        "distance": 903.1600465944116,
        "walking_time": "약 14분"
      },
      {
        "school_lat": 37.4802012453571,
        "school_lon": 126.934452241482,
        "school_type": "중학교",
        "school_name": "신관중학교",
        "distance": 956.305207760177,
        "walking_time": "약 15분"
      },
      {
        "school_lat": 37.4792104943499,
        "school_lon": 126.916967177377,
        "school_type": "고등학교",
        "school_name": "신림고등학교",
        "distance": 1011.4115076359828,
        "walking_time": "약 16분"
      },
      {
        "school_lat": 37.4923586311415,
        "school_lon": 126.932678731475,
        "school_type": "중학교",
        "school_name": "당곡중학교",
        "distance": 1012.6729315727052,
        "walking_time": "약 16분"
      },
      {
        "school_lat": 37.4917603442825,
        "school_lon": 126.934246405052,
        "school_type": "고등학교",
        "school_name": "당곡고등학교",
        "distance": 1056.0605148095103,
        "walking_time": "약 16분"
      }
    ],
    "self_laundromat": [
      {
        "self_laundromat_lat": 37.49878935,
        "self_laundromat_lon": 126.917808,
        "self_laundromat_type": "셀프 빨래방",
        "self_laundromat_name": "이지셀프빨래방",
        "distance": 1662.656609029213,
        "walking_time": "약 25분"
      },
      {
        "self_laundromat_lat": 37.49878935,
        "self_laundromat_lon": 126.917808,
        "self_laundromat_type": "셀프 빨래방",
        "self_laundromat_name": "이지셀프빨래방",
        "distance": 1662.656609029213,
        "walking_time": "약 25분"
      }
    ],
    "subway": [
      {
        "subway_lat": 37.4842176141092,
        "subway_lon": 126.92980331103,
        "subway_type": "지하철",
        "subway_name": "2호선-신림역",
        "distance": 384.71686032971127,
        "walking_time": "약 6분"
      },
      {
        "subway_lat": 37.4875759745635,
        "subway_lon": 126.913175585996,
        "subway_type": "지하철",
        "subway_name": "2호선-신대방역",
        "distance": 1129.4605731966356,
        "walking_time": "약 17분"
      },
      {
        "subway_lat": 37.4997218266711,
        "subway_lon": 126.928222967016,
        "subway_type": "지하철",
        "subway_name": "7호선-신대방삼거리역",
        "distance": 1633.2341129658105,
        "walking_time": "약 25분"
      },
      {
        "subway_lat": 37.499910050321,
        "subway_lon": 126.920489390309,
        "subway_type": "지하철",
        "subway_name": "7호선-보라매역",
        "distance": 1699.1670290976697,
        "walking_time": "약 26분"
      }
    ],
    "supermarket": [
      {
        "supermarket_lat": 37.48476254,
        "supermarket_lon": 126.9300965,
        "supermarket_type": "마트",
        "supermarket_name": "르네상스쇼핑몰(주)",
        "distance": 398.1127991048828,
        "walking_time": "약 6분"
      },
      {
        "supermarket_lat": 37.48385134,
        "supermarket_lon": 126.9302345,
        "supermarket_type": "마트",
        "supermarket_name": "타임스트림",
        "distance": 433.5332498562663,
        "walking_time": "약 7분"
      },
      {
        "supermarket_lat": 37.49049549,
        "supermarket_lon": 126.9249817,
        "supermarket_type": "마트",
        "supermarket_name": "롯데쇼핑(주) 관악점",
        "distance": 593.665951186034,
        "walking_time": "약 9분"
      },
      {
        "supermarket_lat": 37.48665276,
        "supermarket_lon": 126.9392236,
        "supermarket_type": "마트",
        "supermarket_name": "GS THE FRESH 관악은천점",
        "distance": 1211.8176295484132,
        "walking_time": "약 19분"
      },
      {
        "supermarket_lat": 37.4755685,
        "supermarket_lon": 126.9328111,
        "supermarket_type": "마트",
        "supermarket_name": "신림현대종합상가",
        "distance": 1243.162779494993,
        "walking_time": "약 19분"
      },
      {
        "supermarket_lat": 37.48314523,
        "supermarket_lon": 126.9114212,
        "supermarket_type": "마트",
        "supermarket_name": "신림중앙시장",
        "distance": 1272.7053871335652,
        "walking_time": "약 19분"
      },
      {
        "supermarket_lat": 37.47428544,
        "supermarket_lon": 126.9180585,
        "supermarket_type": "마트",
        "supermarket_name": "(주)천성세이브마트",
        "distance": 1382.8433061493292,
        "walking_time": "약 21분"
      },
      {
        "supermarket_lat": 37.49995131,
        "supermarket_lon": 126.9295592,
        "supermarket_type": "마트",
        "supermarket_name": "(주)이마트에브리데이 대방동점",
        "distance": 1678.918383314285,
        "walking_time": "약 26분"
      },
      {
        "supermarket_lat": 37.49897519,
        "supermarket_lon": 126.9336619,
        "supermarket_type": "마트",
        "supermarket_name": "홈플러스(주) 익스프레스 상도점",
        "distance": 1690.2416770305938,
        "walking_time": "약 26분"
      },
      {
        "supermarket_lat": 37.47029785,
        "supermarket_lon": 126.9204441,
        "supermarket_type": "마트",
        "supermarket_name": "우림시장",
        "distance": 1716.6109772096702,
        "walking_time": "약 26분"
      }
    ],
    "tax_office": [
      {
        "tax_office_lat": 37.47933644,
        "tax_office_lon": 126.9243295,
        "tax_office_type": "세무서",
        "tax_office_name": "관악세무서",
        "distance": 659.6329711314719,
        "walking_time": "약 10분"
      },
      {
        "tax_office_lat": 37.49908057,
        "tax_office_lon": 126.9198001,
        "tax_office_type": "세무서",
        "tax_office_name": "동작세무서",
        "distance": 1628.5713923382743,
        "walking_time": "약 25분"
      }
    ],
    "theater": [
      {
        "theater_lat": 37.4838513393186,
        "theater_lon": 126.930234545397,
        "theater_type": "영화관",
        "theater_name": "롯데시네마 신림",
        "distance": 433.5370414371979,
        "walking_time": "약 7분"
      }
    ]
  }
}