{
  "클러스터_위도": 37.57621700001378,
  "클러스터_경도": 126.98958800003744,
  "클러스터_level": 3.0,
  "facilities": {
    "bus": [
      {
        "bus_lat": 37.57608925,
        "bus_lon": 126.99062,
        "bus_type": "버스정류장",
        "bus_name": "창덕궁",
        "distance": 92.04955295387693,
        "walking_time": "약 2분"
      },
      {
        "bus_lat": 37.57722809,
        "bus_lon": 126.9890031,
        "bus_type": "버스정류장",
        "bus_name": "창덕궁",
        "distance": 123.68087152911882,
        "walking_time": "약 2분"
      },
      {
        "bus_lat": 37.57727265,
        "bus_lon": 126.9889539,
        "bus_type": "버스정류장",
        "bus_name": "창덕궁.우리소리박물관",
        "distance": 130.0054290161252,
        "walking_time": "약 2분"
      },
      {
        "bus_lat": 37.57753017,
        "bus_lon": 126.9901776,
        "bus_type": "버스정류장",
        "bus_name": "창덕궁",
        "distance": 154.98694864651188,
        "walking_time": "약 3분"
      },
      {
        "bus_lat": 37.57752042,
        "bus_lon": 126.9889001,
        "bus_type": "버스정류장",
        "bus_name": "창덕궁",
        "distance": 157.10119111926457,
        "walking_time": "약 3분"
      },
      {
        "bus_lat": 37.57754057,
        "bus_lon": 126.9885394,
        "bus_type": "버스정류장",
        "bus_name": "창덕궁.서울돈화문국악당",
        "distance": 173.78051391452752,
        "walking_time": "약 3분"
      },
      {
        "bus_lat": 37.57743277,
        "bus_lon": 126.991235,
        "bus_type": "버스정류장",
        "bus_name": "창덕궁.돈화문국악당",
        "distance": 198.3489353941167,
        "walking_time": "약 3분"
      },
      {
        "bus_lat": 37.57438371,
        "bus_lon": 126.9911314,
        "bus_type": "버스정류장",
        "bus_name": "종로1.2.3.4가동주민센터",
        "distance": 245.06396331065088,
        "walking_time": "약 4분"
      },
      {
        "bus_lat": 37.57527161,
        "bus_lon": 126.9869814,
        "bus_type": "버스정류장",
        "bus_name": "운현궁",
        "distance": 252.6235297804137,
        "walking_time": "약 4분"
      },
      {
        "bus_lat": 37.57521894,
        "bus_lon": 126.9866693,
        "bus_type": "버스정류장",
        "bus_name": "수운회관",
        "distance": 280.13764444990085,
        "walking_time": "약 5분"
      }
    ],
    "community_center": [
      {
        "community_center_lat": 37.57449203,
        "community_center_lon": 126.9902334,
        "community_center_type": "주민센터",
        "community_center_name": "종로1.2.3.4가동 자치회관",
        "distance": 200.06334901723585,
        "walking_time": "약 3분"
      },
      {
        "community_center_lat": 37.58005086,
        "community_center_lon": 126.9847891,
        "community_center_type": "주민센터",
        "community_center_name": "가회동 자치회관",
        "distance": 600.4843773638202,
        "walking_time": "약 9분"
      },
      {
        "community_center_lat": 37.56701313,
        "community_center_lon": 126.9913203,
        "community_center_type": "주민센터",
        "community_center_name": "을지로동 자치회관",
        "distance": 1034.7485308174228,
        "walking_time": "약 16분"
      },
      {
        "community_center_lat": 37.58500537,
        "community_center_lon": 126.9818567,
        "community_center_type": "주민센터",
        "community_center_name": "삼청동 자치회관",
        "distance": 1191.2702331015248,
        "walking_time": "약 18분"
      },
      {
        "community_center_lat": 37.5600479,
        "community_center_lon": 126.9858184,
        "community_center_type": "주민센터",
        "community_center_name": "명동 자치회관",
        "distance": 1828.3614612105875,
        "walking_time": "약 28분"
      },
      {
        "community_center_lat": 37.56015769,
        "community_center_lon": 126.9955974,
        "community_center_type": "주민센터",
        "community_center_name": "필동 자치회관",
        "distance": 1862.60532514758,
        "walking_time": "약 28분"
      },
      {
        "community_center_lat": 37.56242289,
        "community_center_lon": 126.9770419,
        "community_center_type": "주민센터",
        "community_center_name": "소공동 자치회관",
        "distance": 1890.854710775382,
        "walking_time": "약 29분"
      }
    ],
    "convenience_store": [
      {
        "convenience_store_lat": 37.57680792,
        "convenience_store_lon": 126.988924,
        "convenience_store_type": "편의점",
        "convenience_store_name": "GS25 종로삼환점",
        "distance": 87.98615663435957,
        "walking_time": "약 2분"
      },
      {
        "convenience_store_lat": 37.57678025,
        "convenience_store_lon": 126.9908854,
        "convenience_store_type": "편의점",
        "convenience_store_name": "CU 종로국악당점",
        "distance": 130.36534350944643,
        "walking_time": "약 2분"
      },
      {
        "convenience_store_lat": 37.5744755,
        "convenience_store_lon": 126.9887758,
        "convenience_store_type": "편의점",
        "convenience_store_name": "GS25 종로익선점",
        "distance": 206.4511606418191,
        "walking_time": "약 4분"
      },
      {
        "convenience_store_lat": 37.57413417,
        "convenience_store_lon": 126.9893499,
        "convenience_store_type": "편의점",
        "convenience_store_name": "GS25 종로이비스점",
        "distance": 232.54874390388025,
        "walking_time": "약 4분"
      },
      {
        "convenience_store_lat": 37.57399395,
        "convenience_store_lon": 126.9882049,
        "convenience_store_type": "편의점",
        "convenience_store_name": "CU 종로크라운호텔점",
        "distance": 275.61019571053487,
        "walking_time": "약 5분"
      },
      {
        "convenience_store_lat": 37.5788886,
        "convenience_store_lon": 126.98908,
        "convenience_store_type": "편의점",
        "convenience_store_name": "CU 창덕궁돌담길점",
        "distance": 300.4226188369013,
        "walking_time": "약 5분"
      },
      {
        "convenience_store_lat": 37.57672037,
        "convenience_store_lon": 126.985823,
        "convenience_store_type": "편의점",
        "convenience_store_name": "미니스톱 M안국역점",
        "distance": 336.48405265279746,
        "walking_time": "약 6분"
      },
      {
        "convenience_store_lat": 37.57559548,
        "convenience_store_lon": 126.985829,
        "convenience_store_type": "편의점",
        "convenience_store_name": "세븐일레븐 종로허브점",
        "distance": 338.4019259558972,
        "walking_time": "약 6분"
      },
      {
        "convenience_store_lat": 37.57840369,
        "convenience_store_lon": 126.9865485,
        "convenience_store_type": "편의점",
        "convenience_store_name": "CU 계동현대점",
        "distance": 361.7580560352261,
        "walking_time": "약 6분"
      },
      {
        "convenience_store_lat": 37.57623477,
        "convenience_store_lon": 126.9853736,
        "convenience_store_type": "편의점",
        "convenience_store_name": "CU 종로운현궁점",
        "distance": 371.40656120700817,
        "walking_time": "약 6분"
      }
    ],
    "daycare": [
      {
        "daycare_lat": 37.57576862,
        "daycare_lon": 126.9887781,
        "daycare_type": "어린이집",
        "daycare_name": "운현어린이집",
        "distance": 87.06340250898833,
        "walking_time": "약 2분"
      },
      {
        "daycare_lat": 37.57823397808198,
        "daycare_lon": 126.98856600832882,
        "daycare_type": "어린이집",
        "daycare_name": "현대다솜어린이집",
        "distance": 241.6856388818101,
        "walking_time": "약 4분"
      },
      {
        "daycare_lat": 37.57174148,
        "daycare_lon": 126.9912585,
        "daycare_type": "어린이집",
        "daycare_name": "초동어린이집",
        "distance": 518.9743627126126,
        "walking_time": "약 8분"
      },
      {
        "daycare_lat": 37.57922996,
        "daycare_lon": 126.9842151,
        "daycare_type": "어린이집",
        "daycare_name": "롯데백화점어린이집",
        "distance": 580.0274923552113,
        "walking_time": "약 9분"
      },
      {
        "daycare_lat": 37.5798836,
        "daycare_lon": 126.9843648,
        "daycare_type": "어린이집",
        "daycare_name": "안동어린이집",
        "distance": 614.8936770345721,
        "walking_time": "약 10분"
      },
      {
        "daycare_lat": 37.58143396437152,
        "daycare_lon": 126.98544084891644,
        "daycare_type": "어린이집",
        "daycare_name": "노틀담방과후교실어린이집",
        "distance": 685.6227343301571,
        "walking_time": "약 11분"
      },
      {
        "daycare_lat": 37.58180502,
        "daycare_lon": 126.9858807,
        "daycare_type": "어린이집",
        "daycare_name": "가회어린이집",
        "distance": 702.0117492313925,
        "walking_time": "약 11분"
      },
      {
        "daycare_lat": 37.570421002869445,
        "daycare_lon": 126.98627649387804,
        "daycare_type": "어린이집",
        "daycare_name": "kids-sure어린이집",
        "distance": 707.4844328977492,
        "walking_time": "약 11분"
      },
      {
        "daycare_lat": 37.57347189187701,
        "daycare_lon": 126.98225014135956,
        "daycare_type": "어린이집",
        "daycare_name": "선재어린이집",
        "distance": 715.0939527083619,
        "walking_time": "약 11분"
      },
      {
        "daycare_lat": 37.57443353268173,
        "daycare_lon": 126.98114619280256,
        "daycare_type": "어린이집",
        "daycare_name": "SK ecoplant 행복날개어린이집",
        "distance": 769.9358359888711,
        "walking_time": "약 12분"
      }
    ],
    "education": [
      {
        "education_lat": 37.57715793,
        "education_lon": 126.989622,
        "education_type": "박물관/기념관",
        "education_name": "서울우리소리박물관",
        "distance": 104.66953568315536,
        "walking_time": "약 2분"
      },
      {
        "education_lat": 37.57594087,
        "education_lon": 126.9907502,
        "education_type": "미술관/갤러리",
        "education_name": "수림큐브",
        "distance": 106.924415006677,
        "walking_time": "약 2분"
      },
      {
        "education_lat": 37.57725028,
        "education_lon": 126.9907307,
        "education_type": "공연장",
        "education_name": "서울돈화문국악당",
        "distance": 152.78027370775894,
        "walking_time": "약 3분"
      },
      {
        "education_lat": 37.57489958,
        "education_lon": 126.9906381,
        "education_type": "박물관/기념관",
        "education_name": "떡박물관",
        "distance": 173.2731846684716,
        "walking_time": "약 3분"
      },
      {
        "education_lat": 37.57448239,
        "education_lon": 126.9902329,
        "education_type": "도서관",
        "education_name": "우리소리도서관",
        "distance": 201.078809476654,
        "walking_time": "약 4분"
      },
      {
        "education_lat": 37.5777622,
        "education_lon": 126.9883576,
        "education_type": "미술관/갤러리",
        "education_name": "아라리오뮤지엄 인 스페이스",
        "distance": 203.17143538228487,
        "walking_time": "약 4분"
      },
      {
        "education_lat": 37.57886973,
        "education_lon": 126.9897103,
        "education_type": "박물관/기념관",
        "education_name": "창덕궁 낙선재",
        "distance": 295.1669500471507,
        "walking_time": "약 5분"
      },
      {
        "education_lat": 37.5789075,
        "education_lon": 126.9888599,
        "education_type": "공연장",
        "education_name": "북촌창우극장",
        "distance": 305.97331176550546,
        "walking_time": "약 5분"
      },
      {
        "education_lat": 37.57596579,
        "education_lon": 126.9858533,
        "education_type": "미술관/갤러리",
        "education_name": "탑골미술관(서울노인복지센터)",
        "distance": 330.31073735141223,
        "walking_time": "약 5분"
      },
      {
        "education_lat": 37.57559548,
        "education_lon": 126.985829,
        "education_type": "미술관/갤러리",
        "education_name": "갤러리미즈",
        "distance": 338.4019259558972,
        "walking_time": "약 6분"
      }
    ],
    "electric_gas_station": [
      {
        "electric_gas_station_lat": 37.5731338,
        "electric_gas_station_lon": 126.9948635,
        "electric_gas_station_type": "전기차 충전소",
        "electric_gas_station_name": "종묘 공영주차장",
        "distance": 577.658516994903,
        "walking_time": "약 9분"
      },
      {
        "electric_gas_station_lat": 37.57343041,
        "electric_gas_station_lon": 126.9759604,
        "electric_gas_station_type": "전기차 충전소",
        "electric_gas_station_name": "세종로 공영주차장",
        "distance": 1240.3060992078763,
        "walking_time": "약 19분"
      }
    ],
    "fitness": [
      {
        "fitness_lat": 37.57823299,
        "fitness_lon": 126.9885657,
        "fitness_type": "운동시설",
        "fitness_name": "(주)타이거알유(계동지점)",
        "distance": 241.59381750301137,
        "walking_time": "약 4분"
      },
      {
        "fitness_lat": 37.57198785,
        "fitness_lon": 126.9897466,
        "fitness_type": "운동시설",
        "fitness_name": "파고다",
        "distance": 470.4676996436802,
        "walking_time": "약 8분"
      },
      {
        "fitness_lat": 37.57006802,
        "fitness_lon": 126.9909179,
        "fitness_type": "운동시설",
        "fitness_name": "원알엠피트니스",
        "distance": 693.7081433584682,
        "walking_time": "약 11분"
      },
      {
        "fitness_lat": 37.57168081,
        "fitness_lon": 126.9835303,
        "fitness_type": "운동시설",
        "fitness_name": "센트로폴리스 피트니스",
        "distance": 734.4582575740787,
        "walking_time": "약 11분"
      },
      {
        "fitness_lat": 37.57231119,
        "fitness_lon": 126.9825684,
        "fitness_type": "운동시설",
        "fitness_name": "(주)케이에스스포짐",
        "distance": 755.8610214654944,
        "walking_time": "약 12분"
      },
      {
        "fitness_lat": 37.56892674,
        "fitness_lon": 126.9871745,
        "fitness_type": "운동시설",
        "fitness_name": "관철동헬스클럽",
        "distance": 838.0812698586569,
        "walking_time": "약 13분"
      },
      {
        "fitness_lat": 37.5699363,
        "fitness_lon": 126.984167,
        "fitness_type": "운동시설",
        "fitness_name": "무브먼트하우스",
        "distance": 846.1604102497419,
        "walking_time": "약 13분"
      },
      {
        "fitness_lat": 37.56883631,
        "fitness_lon": 126.9851085,
        "fitness_type": "운동시설",
        "fitness_name": "주식회사 빌드업피트니스 PT 종각역점",
        "distance": 910.7110481552944,
        "walking_time": "약 14분"
      },
      {
        "fitness_lat": 37.58072067,
        "fitness_lon": 126.9805739,
        "fitness_type": "운동시설",
        "fitness_name": "Wellness K(웰니스 케이)",
        "distance": 939.03806899323,
        "walking_time": "약 15분"
      },
      {
        "fitness_lat": 37.56752138,
        "fitness_lon": 126.9865268,
        "fitness_type": "운동시설",
        "fitness_name": "무와 웰니스 랩",
        "distance": 1003.8421052603964,
        "walking_time": "약 15분"
      }
    ],
    "gas_station": [
      {
        "gas_station_lat": 37.57634691,
        "gas_station_lon": 126.9858111,
        "gas_station_type": "주유소",
        "gas_station_name": "현대오일뱅크㈜직영 재동주유소",
        "distance": 333.158921516456,
        "walking_time": "약 5분"
      },
      {
        "gas_station_lat": 37.57545386,
        "gas_station_lon": 126.9797758,
        "gas_station_type": "주유소",
        "gas_station_name": "주식회사 대양씨앤씨 경복궁주유소",
        "distance": 868.8753158908277,
        "walking_time": "약 13분"
      },
      {
        "gas_station_lat": 37.56087822,
        "gas_station_lon": 126.9936634,
        "gas_station_type": "주유소",
        "gas_station_name": "필동주유소",
        "distance": 1743.005791941116,
        "walking_time": "약 27분"
      },
      {
        "gas_station_lat": 37.5617133,
        "gas_station_lon": 126.9971343,
        "gas_station_type": "주유소",
        "gas_station_name": "SK에너지 직영 퇴계로주유소",
        "distance": 1744.4986530166773,
        "walking_time": "약 27분"
      }
    ],
    "hospital": [
      {
        "hospital_lat": 37.57648529,
        "hospital_lon": 126.9901466,
        "hospital_type": "병원",
        "hospital_name": "선진한의원",
        "distance": 57.561485373334094,
        "walking_time": "약 1분"
      },
      {
        "hospital_lat": 37.57672898,
        "hospital_lon": 126.9898107,
        "hospital_type": "병원",
        "hospital_name": "창덕궁한의원",
        "distance": 60.2174974143874,
        "walking_time": "약 1분"
      },
      {
        "hospital_lat": 37.57698708,
        "hospital_lon": 126.9904329,
        "hospital_type": "병원",
        "hospital_name": "일세정한의원",
        "distance": 113.47379401735508,
        "walking_time": "약 2분"
      },
      {
        "hospital_lat": 37.57450315,
        "hospital_lon": 126.9907488,
        "hospital_type": "병원",
        "hospital_name": "태을한의원",
        "distance": 216.29260757129416,
        "walking_time": "약 4분"
      },
      {
        "hospital_lat": 37.57801702,
        "hospital_lon": 126.9876379,
        "hospital_type": "병원",
        "hospital_name": "유디현대치과의원",
        "distance": 263.80867750959413,
        "walking_time": "약 4분"
      },
      {
        "hospital_lat": 37.5773344,
        "hospital_lon": 126.986647,
        "hospital_type": "병원",
        "hospital_name": "안국수치과의원",
        "distance": 287.4222010577257,
        "walking_time": "약 5분"
      },
      {
        "hospital_lat": 37.57371962,
        "hospital_lon": 126.9884122,
        "hospital_type": "병원",
        "hospital_name": "종로본치과의원",
        "distance": 296.3990677338546,
        "walking_time": "약 5분"
      },
      {
        "hospital_lat": 37.57371962,
        "hospital_lon": 126.9884122,
        "hospital_type": "병원",
        "hospital_name": "종로본치과의원",
        "distance": 296.3990677338546,
        "walking_time": "약 5분"
      },
      {
        "hospital_lat": 37.57378787,
        "hospital_lon": 126.9879079,
        "hospital_type": "병원",
        "hospital_name": "이강한의원",
        "distance": 308.02719182106307,
        "walking_time": "약 5분"
      },
      {
        "hospital_lat": 37.57739906,
        "hospital_lon": 126.9863484,
        "hospital_type": "병원",
        "hospital_name": "안아픈세상삼선당한의원",
        "distance": 314.2969291848905,
        "walking_time": "약 5분"
      }
    ],
    "music_room": [
      {
        "music_room_lat": 37.57725443,
        "music_room_lon": 126.9861789,
        "music_room_type": "노래방",
        "music_room_name": "재동",
        "distance": 321.8165408707638,
        "walking_time": "약 5분"
      },
      {
        "music_room_lat": 37.57725443,
        "music_room_lon": 126.9861789,
        "music_room_type": "노래방",
        "music_room_name": "재동2",
        "distance": 321.8165408707638,
        "walking_time": "약 5분"
      },
      {
        "music_room_lat": 37.57713462,
        "music_room_lon": 126.9855925,
        "music_room_type": "노래방",
        "music_room_name": "소나타",
        "distance": 366.5941721516608,
        "walking_time": "약 6분"
      },
      {
        "music_room_lat": 37.57267374,
        "music_room_lon": 126.9893145,
        "music_room_type": "노래방",
        "music_room_name": "세븐틴코인노래연습장 종로3가점",
        "distance": 394.7291295104971,
        "walking_time": "약 6분"
      },
      {
        "music_room_lat": 37.57241303,
        "music_room_lon": 126.9896937,
        "music_room_type": "노래방",
        "music_room_name": "대빵오락실 노래연습장",
        "distance": 423.08472772126015,
        "walking_time": "약 7분"
      },
      {
        "music_room_lat": 37.57170274,
        "music_room_lon": 126.9892912,
        "music_room_type": "노래방",
        "music_room_name": "송해길 노래연습장",
        "distance": 502.6438526467615,
        "walking_time": "약 8분"
      },
      {
        "music_room_lat": 37.57527922,
        "music_room_lon": 126.9836346,
        "music_room_type": "노래방",
        "music_room_name": "인사동",
        "distance": 534.9192398532314,
        "walking_time": "약 8분"
      },
      {
        "music_room_lat": 37.57122951,
        "music_room_lon": 126.9890519,
        "music_room_type": "노래방",
        "music_room_name": "차노래연습장",
        "distance": 556.592463145793,
        "walking_time": "약 9분"
      },
      {
        "music_room_lat": 37.57144272,
        "music_room_lon": 126.991694,
        "music_room_type": "노래방",
        "music_room_name": "오케이노래연습장",
        "distance": 562.3848394179337,
        "walking_time": "약 9분"
      },
      {
        "music_room_lat": 37.56970502,
        "music_room_lon": 126.9900242,
        "music_room_type": "노래방",
        "music_room_name": "국일관12 노래연습장",
        "distance": 725.1188834240259,
        "walking_time": "약 11분"
      }
    ],
    "outdoor_sports": [
      {
        "outdoor_sports_lat": 37.5677927361547,
        "outdoor_sports_lon": 126.980522593948,
        "outdoor_sports_type": "야외 체육시설",
        "outdoor_sports_name": "다동소공원",
        "distance": 1231.1759239097426,
        "walking_time": "약 19분"
      },
      {
        "outdoor_sports_lat": 37.5637804953142,
        "outdoor_sports_lon": 126.999800113588,
        "outdoor_sports_type": "야외 체육시설",
        "outdoor_sports_name": "신당동 산 49",
        "distance": 1649.9728700071305,
        "walking_time": "약 25분"
      },
      {
        "outdoor_sports_lat": 37.5643280355028,
        "outdoor_sports_lon": 126.972344618613,
        "outdoor_sports_type": "야외 체육시설",
        "outdoor_sports_name": "배제어린이공원",
        "distance": 2014.2557753665128,
        "walking_time": "약 31분"
      },
      {
        "outdoor_sports_lat": 37.5634947172247,
        "outdoor_sports_lon": 126.971268079546,
        "outdoor_sports_type": "야외 체육시설",
        "outdoor_sports_name": "순화어린이공원",
        "distance": 2146.6761587436613,
        "walking_time": "약 33분"
      }
    ],
    "park": [
      {
        "park_lat": 37.5710052,
        "park_lon": 126.9882853,
        "park_type": "공원",
        "park_name": "탑골근린공원",
        "distance": 590.7881561002566,
        "walking_time": "약 9분"
      },
      {
        "park_lat": 37.5750449,
        "park_lon": 126.9780227,
        "park_type": "공원",
        "park_name": "광화문시민열린마당",
        "distance": 1027.5194544065614,
        "walking_time": "약 16분"
      },
      {
        "park_lat": 37.5735,
        "park_lon": 126.9758875,
        "park_type": "공원",
        "park_name": "세종로공원",
        "distance": 1244.6265226701892,
        "walking_time": "약 19분"
      },
      {
        "park_lat": 37.5895821,
        "park_lon": 126.9842875,
        "park_type": "공원",
        "park_name": "삼청근린공원",
        "distance": 1557.801106246074,
        "walking_time": "약 24분"
      }
    ],
    "park_station": [
      {
        "park_station_lat": 37.57763687,
        "park_station_lon": 126.9893291,
        "park_station_type": "주차장",
        "park_station_name": "원서공원 앞",
        "distance": 159.52239236440715,
        "walking_time": "약 3분"
      },
      {
        "park_station_lat": 37.57246123,
        "park_station_lon": 126.9854426,
        "park_station_type": "주차장",
        "park_station_name": "하나로빌딩 옆",
        "distance": 554.8643860230294,
        "walking_time": "약 9분"
      },
      {
        "park_station_lat": 37.57132661,
        "park_station_lon": 126.9878423,
        "park_station_type": "주차장",
        "park_station_name": "탑골공원 관광버스전용 주차장",
        "distance": 565.1309592151721,
        "walking_time": "약 9분"
      },
      {
        "park_station_lat": 37.57357888,
        "park_station_lon": 126.9837874,
        "park_station_type": "주차장",
        "park_station_name": "서인사마당공영",
        "distance": 589.3844554930446,
        "walking_time": "약 9분"
      },
      {
        "park_station_lat": 37.57197453,
        "park_station_lon": 126.9848598,
        "park_station_type": "주차장",
        "park_station_name": "태화관",
        "distance": 629.4223891815907,
        "walking_time": "약 10분"
      },
      {
        "park_station_lat": 37.57134346,
        "park_station_lon": 126.9854651,
        "park_station_type": "주차장",
        "park_station_name": "하나로빌딩옆",
        "distance": 652.4512086387795,
        "walking_time": "약 10분"
      },
      {
        "park_station_lat": 37.57149688,
        "park_station_lon": 126.9950499,
        "park_station_type": "주차장",
        "park_station_name": "종묘주차장 공영주차장",
        "distance": 712.161109927012,
        "walking_time": "약 11분"
      },
      {
        "park_station_lat": 37.5728196,
        "park_station_lon": 126.9967772,
        "park_station_type": "주차장",
        "park_station_name": "동순라길 관광버스전용 주차장",
        "distance": 737.6520180896656,
        "walking_time": "약 12분"
      },
      {
        "park_station_lat": 37.58013602,
        "park_station_lon": 126.9963744,
        "park_station_type": "주차장",
        "park_station_name": "창경궁로1 관광버스 주차허용 구간",
        "distance": 739.9735733175218,
        "walking_time": "약 12분"
      },
      {
        "park_station_lat": 37.58013602,
        "park_station_lon": 126.9963744,
        "park_station_type": "주차장",
        "park_station_name": "창경궁로2 관광버스 주차허용 구간",
        "distance": 739.9735733175218,
        "walking_time": "약 12분"
      }
    ],
    "pc_room": [
      {
        "pc_room_lat": 37.5723246733308,
        "pc_room_lon": 126.990100870009,
        "pc_room_type": "PC방",
        "pc_room_name": "탑 플레이스",
        "distance": 435.1606693583619,
        "walking_time": "약 7분"
      },
      {
        "pc_room_lat": 37.5705989139519,
        "pc_room_lon": 126.989152966372,
        "pc_room_type": "PC방",
        "pc_room_name": "레벨업 PC방",
        "distance": 625.8780581141145,
        "walking_time": "약 10분"
      },
      {
        "pc_room_lat": 37.5699156472384,
        "pc_room_lon": 126.984705397841,
        "pc_room_type": "PC방",
        "pc_room_name": "포탈 스페이스",
        "distance": 822.2612643391246,
        "walking_time": "약 13분"
      },
      {
        "pc_room_lat": 37.5690689023223,
        "pc_room_lon": 126.987054345753,
        "pc_room_type": "PC방",
        "pc_room_name": "옵티멈존PC카페 종각2호점",
        "distance": 825.6017038790476,
        "walking_time": "약 13분"
      },
      {
        "pc_room_lat": 37.5690623337682,
        "pc_room_lon": 126.986332282651,
        "pc_room_type": "PC방",
        "pc_room_name": "아이센스리그PC 종각점",
        "distance": 845.7235955052191,
        "walking_time": "약 13분"
      },
      {
        "pc_room_lat": 37.5697034972222,
        "pc_room_lon": 126.984281413033,
        "pc_room_type": "PC방",
        "pc_room_name": "옵티멈존 PC카페 종각역점",
        "distance": 862.1383568905702,
        "walking_time": "약 13분"
      },
      {
        "pc_room_lat": 37.5711020733218,
        "pc_room_lon": 126.999002281266,
        "pc_room_type": "PC방",
        "pc_room_name": "행운PC",
        "distance": 1005.906210029686,
        "walking_time": "약 16분"
      },
      {
        "pc_room_lat": 37.5824983858422,
        "pc_room_lon": 126.998527082015,
        "pc_room_type": "PC방",
        "pc_room_name": "ESC PC",
        "distance": 1052.7946451761425,
        "walking_time": "약 16분"
      },
      {
        "pc_room_lat": 37.5826436294265,
        "pc_room_lon": 126.998834230134,
        "pc_room_type": "PC방",
        "pc_room_name": "스틸시리즈 PC방(steelseries PC)",
        "distance": 1083.776999790072,
        "walking_time": "약 17분"
      },
      {
        "pc_room_lat": 37.583982677102,
        "pc_room_lon": 126.998153324962,
        "pc_room_type": "PC방",
        "pc_room_name": "레벨업 PC cafe",
        "distance": 1146.8889240152532,
        "walking_time": "약 18분"
      }
    ],
    "police_office": [
      {
        "police_office_lat": 37.57050222,
        "police_office_lon": 126.9889229,
        "police_office_type": "경찰소",
        "police_office_name": "종로2가지구대",
        "distance": 638.1522053403992,
        "walking_time": "약 10분"
      },
      {
        "police_office_lat": 37.57297127,
        "police_office_lon": 126.9826619,
        "police_office_type": "경찰소",
        "police_office_name": "청진파출소",
        "distance": 709.1040371218836,
        "walking_time": "약 11분"
      },
      {
        "police_office_lat": 37.5686968,
        "police_office_lon": 126.9863455,
        "police_office_type": "경찰소",
        "police_office_name": "관수파출소",
        "distance": 883.6887626979249,
        "walking_time": "약 14분"
      },
      {
        "police_office_lat": 37.58140101,
        "police_office_lon": 126.9811409,
        "police_office_type": "경찰소",
        "police_office_name": "삼청파출소",
        "distance": 941.4848600918172,
        "walking_time": "약 15분"
      },
      {
        "police_office_lat": 37.56618152,
        "police_office_lon": 126.9928483,
        "police_office_type": "경찰소",
        "police_office_name": "을지로3가파출소",
        "distance": 1152.2951626583765,
        "walking_time": "약 18분"
      },
      {
        "police_office_lat": 37.56800799,
        "police_office_lon": 126.9799914,
        "police_office_type": "경찰소",
        "police_office_name": "태평로파출소",
        "distance": 1244.3956737774404,
        "walking_time": "약 19분"
      },
      {
        "police_office_lat": 37.57677089,
        "police_office_lon": 126.9740067,
        "police_office_type": "경찰소",
        "police_office_name": "통의파출소",
        "distance": 1374.5046885131585,
        "walking_time": "약 21분"
      },
      {
        "police_office_lat": 37.56894725,
        "police_office_lon": 126.9764297,
        "police_office_type": "경찰소",
        "police_office_name": "세종로파출소",
        "distance": 1413.5925413492082,
        "walking_time": "약 22분"
      },
      {
        "police_office_lat": 37.56358957,
        "police_office_lon": 126.9839685,
        "police_office_type": "경찰소",
        "police_office_name": "명동파출소",
        "distance": 1488.8944498719698,
        "walking_time": "약 23분"
      },
      {
        "police_office_lat": 37.58927843,
        "police_office_lon": 126.9975993,
        "police_office_type": "경찰소",
        "police_office_name": "명륜파출소",
        "distance": 1614.8454183630631,
        "walking_time": "약 25분"
      }
    ],
    "post_office": [
      {
        "post_office_lat": 37.57648617,
        "post_office_lon": 126.984804,
        "post_office_type": "우체국",
        "post_office_name": "서울안국동우체국",
        "distance": 422.6586621911628,
        "walking_time": "약 7분"
      },
      {
        "post_office_lat": 37.57071161,
        "post_office_lon": 126.9889709,
        "post_office_type": "우체국",
        "post_office_name": "서울종로2가우체국",
        "distance": 614.5824611306269,
        "walking_time": "약 10분"
      },
      {
        "post_office_lat": 37.58045239,
        "post_office_lon": 126.9971964,
        "post_office_type": "우체국",
        "post_office_name": "서울대학교병원우편취급국",
        "distance": 819.3576381844738,
        "walking_time": "약 13분"
      },
      {
        "post_office_lat": 37.56620281,
        "post_office_lon": 126.9951631,
        "post_office_type": "우체국",
        "post_office_name": "서울을지로4가우체국",
        "distance": 1217.1137748034923,
        "walking_time": "약 19분"
      },
      {
        "post_office_lat": 37.56984163,
        "post_office_lon": 126.9780961,
        "post_office_type": "우체국",
        "post_office_name": "서울지방우정청",
        "distance": 1236.24000199612,
        "walking_time": "약 19분"
      },
      {
        "post_office_lat": 37.56984163,
        "post_office_lon": 126.9780961,
        "post_office_type": "우체국",
        "post_office_name": "광화문우체국",
        "distance": 1236.24000199612,
        "walking_time": "약 19분"
      },
      {
        "post_office_lat": 37.58722841,
        "post_office_lon": 126.9931151,
        "post_office_type": "우체국",
        "post_office_name": "성균관대학교우편취급국",
        "distance": 1263.245483701446,
        "walking_time": "약 19분"
      },
      {
        "post_office_lat": 37.57490789,
        "post_office_lon": 126.9752073,
        "post_office_type": "우체국",
        "post_office_name": "정부서울청사우편취급국",
        "distance": 1275.6678962248552,
        "walking_time": "약 20분"
      },
      {
        "post_office_lat": 37.58714307,
        "post_office_lon": 126.9844496,
        "post_office_type": "우체국",
        "post_office_name": "서울삼청동우체국",
        "distance": 1296.5587411217489,
        "walking_time": "약 20분"
      },
      {
        "post_office_lat": 37.57273715,
        "post_office_lon": 126.9732814,
        "post_office_type": "우체국",
        "post_office_name": "서울내수동우편취급국",
        "distance": 1488.262752310143,
        "walking_time": "약 23분"
      }
    ],
    "school": [
      {
        "school_lat": 37.5766672930696,
        "school_lon": 126.988198556535,
        "school_type": "초등학교",
        "school_name": "운현초등학교",
        "distance": 132.2884892784823,
        "walking_time": "약 2분"
      },
      {
        "school_lat": 37.5749936834295,
        "school_lon": 126.988075995471,
        "school_type": "초등학교",
        "school_name": "서울교동초등학교",
        "distance": 190.41682339655327,
        "walking_time": "약 3분"
      },
      {
        "school_lat": 37.5799415657652,
        "school_lon": 126.9855017071,
        "school_type": "초등학교",
        "school_name": "서울재동초등학교",
        "distance": 548.8137168167206,
        "walking_time": "약 9분"
      },
      {
        "school_lat": 37.5777608153459,
        "school_lon": 126.983558137257,
        "school_type": "고등학교",
        "school_name": "덕성여자고등학교",
        "distance": 558.4267716357062,
        "walking_time": "약 9분"
      },
      {
        "school_lat": 37.5815827310558,
        "school_lon": 126.987951316186,
        "school_type": "고등학교",
        "school_name": "대동세무고등학교",
        "distance": 613.8274785153772,
        "walking_time": "약 10분"
      },
      {
        "school_lat": 37.5777859821946,
        "school_lon": 126.981909156246,
        "school_type": "중학교",
        "school_name": "덕성여자중학교",
        "distance": 698.8319439855926,
        "walking_time": "약 11분"
      },
      {
        "school_lat": 37.5837882231459,
        "school_lon": 126.987472622092,
        "school_type": "고등학교",
        "school_name": "중앙고등학교",
        "distance": 862.2725918853054,
        "walking_time": "약 13분"
      },
      {
        "school_lat": 37.5837882231459,
        "school_lon": 126.987472622092,
        "school_type": "중학교",
        "school_name": "중앙중학교",
        "distance": 862.2725918853054,
        "walking_time": "약 13분"
      },
      {
        "school_lat": 37.5655795665775,
        "school_lon": 126.996997330546,
        "school_type": "중학교",
        "school_name": "덕수중학교",
        "distance": 1351.111190669616,
        "walking_time": "약 21분"
      },
      {
        "school_lat": 37.5690888764456,
        "school_lon": 126.974657902016,
        "school_type": "초등학교",
        "school_name": "서울덕수초등학교",
        "distance": 1536.0899495756985,
        "walking_time": "약 23분"
      }
    ],
    "self_laundromat": [
      {
        "self_laundromat_lat": 37.57084449,
        "self_laundromat_lon": 126.9799237,
        "self_laundromat_type": "셀프 빨래방",
        "self_laundromat_name": "런드리투데이 광화문",
        "distance": 1040.3357929605888,
        "walking_time": "약 16분"
      },
      {
        "self_laundromat_lat": 37.57084449,
        "self_laundromat_lon": 126.9799237,
        "self_laundromat_type": "셀프 빨래방",
        "self_laundromat_name": "런드리투데이 광화문",
        "distance": 1040.3357929605888,
        "walking_time": "약 16분"
      },
      {
        "self_laundromat_lat": 37.58427655,
        "self_laundromat_lon": 126.9968838,
        "self_laundromat_type": "셀프 빨래방",
        "self_laundromat_name": "런드리익스프레스샵 성대정문점",
        "distance": 1102.944699337757,
        "walking_time": "약 17분"
      },
      {
        "self_laundromat_lat": 37.58427655,
        "self_laundromat_lon": 126.9968838,
        "self_laundromat_type": "셀프 빨래방",
        "self_laundromat_name": "런드리익스프레스샵 성대정문점",
        "distance": 1102.944699337757,
        "walking_time": "약 17분"
      },
      {
        "self_laundromat_lat": 37.58636244,
        "self_laundromat_lon": 126.9969187,
        "self_laundromat_type": "셀프 빨래방",
        "self_laundromat_name": "코인워시24 셀프빨래방 성균관대점",
        "distance": 1299.983396385464,
        "walking_time": "약 20분"
      },
      {
        "self_laundromat_lat": 37.58636244,
        "self_laundromat_lon": 126.9969187,
        "self_laundromat_type": "셀프 빨래방",
        "self_laundromat_name": "코인워시24 셀프빨래방 성균관대점",
        "distance": 1299.983396385464,
        "walking_time": "약 20분"
      },
      {
        "self_laundromat_lat": 37.58861793,
        "self_laundromat_lon": 126.9951625,
        "self_laundromat_type": "셀프 빨래방",
        "self_laundromat_name": "화이트365 성대점",
        "distance": 1463.8034088737572,
        "walking_time": "약 22분"
      },
      {
        "self_laundromat_lat": 37.58861793,
        "self_laundromat_lon": 126.9951625,
        "self_laundromat_type": "셀프 빨래방",
        "self_laundromat_name": "화이트365 성대점",
        "distance": 1463.8034088737572,
        "walking_time": "약 22분"
      },
      {
        "self_laundromat_lat": 37.58890913,
        "self_laundromat_lon": 126.9951729,
        "self_laundromat_type": "셀프 빨래방",
        "self_laundromat_name": "성대후문점런드리 익스프레스샵",
        "distance": 1494.6464179805598,
        "walking_time": "약 23분"
      },
      {
        "self_laundromat_lat": 37.58890913,
        "self_laundromat_lon": 126.9951729,
        "self_laundromat_type": "셀프 빨래방",
        "self_laundromat_name": "성대후문점런드리 익스프레스샵",
        "distance": 1494.6464179805598,
        "walking_time": "약 23분"
      }
    ],
    "subway": [
      {
        "subway_lat": 37.5767203705556,
        "subway_lon": 126.985823042976,
        "subway_type": "지하철",
        "subway_name": "3호선-안국역",
        "distance": 336.4803283718695,
        "walking_time": "약 6분"
      },
      {
        "subway_lat": 37.5726833459574,
        "subway_lon": 126.98994121133,
        "subway_type": "지하철",
        "subway_name": "5호선-종로3가(탑골공원)역",
        "distance": 394.15548392012187,
        "walking_time": "약 6분"
      },
      {
        "subway_lat": 37.5712662536965,
        "subway_lon": 126.992233420661,
        "subway_type": "지하철",
        "subway_name": "3호선-종로3가역",
        "distance": 597.8312414122499,
        "walking_time": "약 9분"
      },
      {
        "subway_lat": 37.5704266025836,
        "subway_lon": 126.99202930223,
        "subway_type": "지하철",
        "subway_name": "1호선-종로3가역",
        "distance": 678.8592434653846,
        "walking_time": "약 11분"
      },
      {
        "subway_lat": 37.5702140381269,
        "subway_lon": 126.983239678933,
        "subway_type": "지하철",
        "subway_name": "1호선-종각역",
        "distance": 870.9603910637578,
        "walking_time": "약 13분"
      },
      {
        "subway_lat": 37.56626594615,
        "subway_lon": 126.990308356253,
        "subway_type": "지하철",
        "subway_name": "2호선-을지로3가역",
        "distance": 1108.326518644333,
        "walking_time": "약 17분"
      },
      {
        "subway_lat": 37.5662750350156,
        "subway_lon": 126.992650024369,
        "subway_type": "지하철",
        "subway_name": "3호선-을지로3가역",
        "distance": 1137.9579376699858,
        "walking_time": "약 17분"
      },
      {
        "subway_lat": 37.5675250192617,
        "subway_lon": 126.998059555897,
        "subway_type": "지하철",
        "subway_name": "5호선-을지로4가역",
        "distance": 1221.295644656757,
        "walking_time": "약 19분"
      },
      {
        "subway_lat": 37.5716228232824,
        "subway_lon": 126.976787992565,
        "subway_type": "지하철",
        "subway_name": "5호선-광화문(세종문화회관)역",
        "distance": 1238.3380677579887,
        "walking_time": "약 19분"
      },
      {
        "subway_lat": 37.5666369941572,
        "subway_lon": 126.997852780281,
        "subway_type": "지하철",
        "subway_name": "2호선-을지로4가역",
        "distance": 1290.4699525878696,
        "walking_time": "약 20분"
      }
    ],
    "supermarket": [
      {
        "supermarket_lat": 37.57276352,
        "supermarket_lon": 126.9879025,
        "supermarket_type": "마트",
        "supermarket_name": "낙원상가",
        "distance": 411.7374324794717,
        "walking_time": "약 7분"
      },
      {
        "supermarket_lat": 37.57276352,
        "supermarket_lon": 126.9879025,
        "supermarket_type": "마트",
        "supermarket_name": "낙원상가",
        "distance": 411.7374324794717,
        "walking_time": "약 7분"
      },
      {
        "supermarket_lat": 37.57234902,
        "supermarket_lon": 126.9970861,
        "supermarket_type": "마트",
        "supermarket_name": "세운스퀘어",
        "distance": 788.4432901525466,
        "walking_time": "약 12분"
      },
      {
        "supermarket_lat": 37.57144769,
        "supermarket_lon": 126.99832,
        "supermarket_type": "마트",
        "supermarket_name": "효성주얼리시티",
        "distance": 934.583171405546,
        "walking_time": "약 14분"
      },
      {
        "supermarket_lat": 37.56966797,
        "supermarket_lon": 126.9821793,
        "supermarket_type": "마트",
        "supermarket_name": "(주)영풍문고",
        "distance": 978.0719278319416,
        "walking_time": "약 15분"
      },
      {
        "supermarket_lat": 37.56715654,
        "supermarket_lon": 126.9870523,
        "supermarket_type": "마트",
        "supermarket_name": "상제리제상가",
        "distance": 1031.965146246318,
        "walking_time": "약 16분"
      },
      {
        "supermarket_lat": 37.56797986,
        "supermarket_lon": 126.9953651,
        "supermarket_type": "마트",
        "supermarket_name": "청계상가",
        "distance": 1047.928062795062,
        "walking_time": "약 16분"
      },
      {
        "supermarket_lat": 37.57011963,
        "supermarket_lon": 126.999799,
        "supermarket_type": "마트",
        "supermarket_name": "광장시장",
        "distance": 1126.7198553018527,
        "walking_time": "약 17분"
      },
      {
        "supermarket_lat": 37.5671459,
        "supermarket_lon": 126.9954512,
        "supermarket_type": "마트",
        "supermarket_name": "대림상가",
        "distance": 1133.3189699717775,
        "walking_time": "약 17분"
      },
      {
        "supermarket_lat": 37.57095784,
        "supermarket_lon": 126.9779288,
        "supermarket_type": "마트",
        "supermarket_name": "종로1번지아케이트",
        "distance": 1182.280146501734,
        "walking_time": "약 18분"
      }
    ],
    "tax_office": [
      {
        "tax_office_lat": 37.57386581,
        "tax_office_lon": 126.9889562,
        "tax_office_type": "세무서",
        "tax_office_name": "종로세무서",
        "distance": 267.3037117297976,
        "walking_time": "약 4분"
      },
      {
        "tax_office_lat": 37.57410276,
        "tax_office_lon": 126.9799674,
        "tax_office_type": "세무서",
        "tax_office_name": "서울지방국세청",
        "distance": 879.8342836693843,
        "walking_time": "약 14분"
      },
      {
        "tax_office_lat": 37.5650468,
        "tax_office_lon": 126.9881845,
        "tax_office_type": "세무서",
        "tax_office_name": "남대문세무서",
        "distance": 1248.2136487419243,
        "walking_time": "약 19분"
      },
      {
        "tax_office_lat": 37.56074026,
        "tax_office_lon": 126.9907276,
        "tax_office_type": "세무서",
        "tax_office_name": "중부세무서",
        "distance": 1723.8634805892248,
        "walking_time": "약 26분"
      }
    ],
    "theater": [
      {
        "theater_lat": 37.5727635233966,
        "theater_lon": 126.987902476529,
        "theater_type": "영화관",
        "theater_name": "낭만극장",
        "distance": 411.7378264684948,
        "walking_time": "약 7분"
      },
      {
        "theater_lat": 37.5710275098022,
        "theater_lon": 126.991230294263,
        "theater_type": "영화관",
        "theater_name": "CGV 피카디리1958",
        "distance": 594.9194546090805,
        "walking_time": "약 9분"
      },
      {
        "theater_lat": 37.5834579529328,
        "theater_lon": 126.999842630109,
        "theater_type": "영화관",
        "theater_name": "CGV 대학로",
        "distance": 1210.3244833618537,
        "walking_time": "약 19분"
      },
      {
        "theater_lat": 37.5647056236712,
        "theater_lon": 126.993214191194,
        "theater_type": "영화관",
        "theater_name": "명보아트홀",
        "distance": 1319.300655923035,
        "walking_time": "약 20분"
      },
      {
        "theater_lat": 37.5645459184175,
        "theater_lon": 126.992413746356,
        "theater_type": "영화관",
        "theater_name": "시네아스트극장",
        "distance": 1321.4449430844454,
        "walking_time": "약 20분"
      },
      {
        "theater_lat": 37.561929293405,
        "theater_lon": 126.995026731814,
        "theater_type": "영화관",
        "theater_name": "극동극장",
        "distance": 1659.4586967095615,
        "walking_time": "약 25분"
      },
      {
        "theater_lat": 37.5696425113058,
        "theater_lon": 126.972139469043,
        "theater_type": "영화관",
        "theater_name": "씨네큐브광화문",
        "distance": 1702.6770428702202,
        "walking_time": "약 26분"
      },
      {
        "theater_lat": 37.5612658980395,
        "theater_lon": 126.985364301804,
        "theater_type": "영화관",
        "theater_name": "CGV 명동",
        "distance": 1703.654337400297,
        "walking_time": "약 26분"
      },
      {
        "theater_lat": 37.5612633940942,
        "theater_lon": 126.984115903127,
        "theater_type": "영화관",
        "theater_name": "명동시네마",
        "distance": 1731.29664752875,
        "walking_time": "약 26분"
      }
    ]
  }
}