{
  "클러스터_위도": 37.487079000168045,
  "클러스터_경도": 126.9218664002736,
  "클러스터_level": 3.0,
  "facilities": {
    "bus": [
      {
        "bus_lat": 37.48644918,
        "bus_lon": 126.9222367,
        "bus_type": "버스정류장",
        "bus_name": "남부초교후문",
        "distance": 77.27926294641505,
        "walking_time": "약 2분"
      },
      {
        "bus_lat": 37.48671975,
        "bus_lon": 126.9226406,
        "bus_type": "버스정류장",
        "bus_name": "남부초교후문",
        "distance": 79.13234567448684,
        "walking_time": "약 2분"
      },
      {
        "bus_lat": 37.48832724,
        "bus_lon": 126.9214263,
        "bus_type": "버스정류장",
        "bus_name": "은천성결교회",
        "distance": 144.12733030541315,
        "walking_time": "약 3분"
      },
      {
        "bus_lat": 37.48964863,
        "bus_lon": 126.9220386,
        "bus_type": "버스정류장",
        "bus_name": "보라매갑을아파트",
        "distance": 286.1334565672243,
        "walking_time": "약 5분"
      },
      {
        "bus_lat": 37.4897535,
        "bus_lon": 126.9220552,
        "bus_type": "버스정류장",
        "bus_name": "갑을아파트",
        "distance": 297.8569811000246,
        "walking_time": "약 5분"
      },
      {
        "bus_lat": 37.489233,
        "bus_lon": 126.919247,
        "bus_type": "버스정류장",
        "bus_name": "우방아파트",
        "distance": 332.8357119378506,
        "walking_time": "약 5분"
      },
      {
        "bus_lat": 37.48497178,
        "bus_lon": 126.9246318,
        "bus_type": "버스정류장",
        "bus_name": "봉림교",
        "distance": 338.2875563614815,
        "walking_time": "약 6분"
      },
      {
        "bus_lat": 37.48477707,
        "bus_lon": 126.9245167,
        "bus_type": "버스정류장",
        "bus_name": "봉림교",
        "distance": 346.6995940450366,
        "walking_time": "약 6분"
      },
      {
        "bus_lat": 37.4855926,
        "bus_lon": 126.9178057,
        "bus_type": "버스정류장",
        "bus_name": "신사동주민센터.신사시장",
        "distance": 394.57277646049226,
        "walking_time": "약 6분"
      },
      {
        "bus_lat": 37.4897441,
        "bus_lon": 126.9249188,
        "bus_type": "버스정류장",
        "bus_name": "롯데백화점관악점",
        "distance": 400.43879831686354,
        "walking_time": "약 6분"
      }
    ],
    "community_center": [
      {
        "community_center_lat": 37.48595224,
        "community_center_lon": 126.9191029,
        "community_center_type": "주민센터",
        "community_center_name": "신사동 자치회관",
        "distance": 274.13740412408293,
        "walking_time": "약 5분"
      },
      {
        "community_center_lat": 37.487396,
        "community_center_lon": 126.9271139,
        "community_center_type": "주민센터",
        "community_center_name": "신림동 자치회관",
        "distance": 464.33692975823766,
        "walking_time": "약 7분"
      },
      {
        "community_center_lat": 37.48161061,
        "community_center_lon": 126.9273799,
        "community_center_type": "주민센터",
        "community_center_name": "신원동 자치회관",
        "distance": 778.718097661061,
        "walking_time": "약 12분"
      },
      {
        "community_center_lat": 37.48817585,
        "community_center_lon": 126.932778,
        "community_center_type": "주민센터",
        "community_center_name": "보라매동 자치회관",
        "distance": 970.4412860765624,
        "walking_time": "약 15분"
      },
      {
        "community_center_lat": 37.48894469,
        "community_center_lon": 126.9100394,
        "community_center_type": "주민센터",
        "community_center_name": "신대방1동 자치회관",
        "distance": 1063.930183531127,
        "walking_time": "약 16분"
      },
      {
        "community_center_lat": 37.47976918,
        "community_center_lon": 126.9313747,
        "community_center_type": "주민센터",
        "community_center_name": "서원동 자치회관",
        "distance": 1168.1408898881427,
        "walking_time": "약 18분"
      },
      {
        "community_center_lat": 37.49841253,
        "community_center_lon": 126.924544,
        "community_center_type": "주민센터",
        "community_center_name": "신대방2동 자치회관",
        "distance": 1282.1809418060477,
        "walking_time": "약 20분"
      },
      {
        "community_center_lat": 37.47617498,
        "community_center_lon": 126.9155517,
        "community_center_type": "주민센터",
        "community_center_name": "미성동 자치회관",
        "distance": 1334.3761241844,
        "walking_time": "약 20분"
      },
      {
        "community_center_lat": 37.49912572,
        "community_center_lon": 126.931404,
        "community_center_type": "주민센터",
        "community_center_name": "상도3동 자치회관",
        "distance": 1581.8969576690686,
        "walking_time": "약 24분"
      },
      {
        "community_center_lat": 37.47499588,
        "community_center_lon": 126.9349996,
        "community_center_type": "주민센터",
        "community_center_name": "서림동 자치회관",
        "distance": 1774.310336568704,
        "walking_time": "약 27분"
      }
    ],
    "convenience_store": [
      {
        "convenience_store_lat": 37.4878029,
        "convenience_store_lon": 126.9217692,
        "convenience_store_type": "편의점",
        "convenience_store_name": "GS25 신림관천로점",
        "distance": 80.949567582492,
        "walking_time": "약 2분"
      },
      {
        "convenience_store_lat": 37.48657738,
        "convenience_store_lon": 126.9209957,
        "convenience_store_type": "편의점",
        "convenience_store_name": "CU 관악네잎클로버점",
        "distance": 94.93718555310733,
        "walking_time": "약 2분"
      },
      {
        "convenience_store_lat": 37.48557718,
        "convenience_store_lon": 126.921285,
        "convenience_store_type": "편의점",
        "convenience_store_name": "GS25 관악남부점",
        "distance": 174.69634884332072,
        "walking_time": "약 3분"
      },
      {
        "convenience_store_lat": 37.48757908,
        "convenience_store_lon": 126.9242301,
        "convenience_store_type": "편의점",
        "convenience_store_name": "세븐일레븐 관악웰피아점",
        "distance": 215.839415920451,
        "walking_time": "약 4분"
      },
      {
        "convenience_store_lat": 37.48689022,
        "convenience_store_lon": 126.9244584,
        "convenience_store_type": "편의점",
        "convenience_store_name": "CU 관악리베로점",
        "distance": 229.65928808601228,
        "walking_time": "약 4분"
      },
      {
        "convenience_store_lat": 37.48947584,
        "convenience_store_lon": 126.922504,
        "convenience_store_type": "편의점",
        "convenience_store_name": "CU 관악산들점",
        "distance": 272.3889333686526,
        "walking_time": "약 5분"
      },
      {
        "convenience_store_lat": 37.48520213,
        "convenience_store_lon": 126.9239545,
        "convenience_store_type": "편의점",
        "convenience_store_name": "CU 관악승리점",
        "distance": 278.3870381304265,
        "walking_time": "약 5분"
      },
      {
        "convenience_store_lat": 37.48964564,
        "convenience_store_lon": 126.9223005,
        "convenience_store_type": "편의점",
        "convenience_store_name": "CU 보라매산들점",
        "distance": 287.9558864685966,
        "walking_time": "약 5분"
      },
      {
        "convenience_store_lat": 37.48907561,
        "convenience_store_lon": 126.9196756,
        "convenience_store_type": "편의점",
        "convenience_store_name": "세븐일레븐 신림한양점",
        "distance": 294.3691816292826,
        "walking_time": "약 5분"
      },
      {
        "convenience_store_lat": 37.48573609,
        "convenience_store_lon": 126.9181821,
        "convenience_store_type": "편의점",
        "convenience_store_name": "CU 신림4동점",
        "distance": 357.7326914784724,
        "walking_time": "약 6분"
      }
    ],
    "daycare": [
      {
        "daycare_lat": 37.48779998876579,
        "daycare_lon": 126.92117805374444,
        "daycare_type": "어린이집",
        "daycare_name": "구립신사어린이집",
        "distance": 100.5777811148724,
        "walking_time": "약 2분"
      },
      {
        "daycare_lat": 37.48612652,
        "daycare_lon": 126.9220821,
        "daycare_type": "어린이집",
        "daycare_name": "아이세상어린이집",
        "distance": 107.60734238489512,
        "walking_time": "약 2분"
      },
      {
        "daycare_lat": 37.4860032,
        "daycare_lon": 126.9209108,
        "daycare_type": "어린이집",
        "daycare_name": "알토랑밤토랑어린이집",
        "distance": 146.35179813049135,
        "walking_time": "약 3분"
      },
      {
        "daycare_lat": 37.48522394313062,
        "daycare_lon": 126.91974480527745,
        "daycare_type": "어린이집",
        "daycare_name": "리라키즈스쿨어린이집",
        "distance": 278.5508092273253,
        "walking_time": "약 5분"
      },
      {
        "daycare_lat": 37.48454735,
        "daycare_lon": 126.9211837,
        "daycare_type": "어린이집",
        "daycare_name": "새동원어린이집",
        "distance": 287.87932755805764,
        "walking_time": "약 5분"
      },
      {
        "daycare_lat": 37.48846321347776,
        "daycare_lon": 126.91864227820253,
        "daycare_type": "어린이집",
        "daycare_name": "구립해뜨는어린이집",
        "distance": 323.43922963061266,
        "walking_time": "약 5분"
      },
      {
        "daycare_lat": 37.48733611674542,
        "daycare_lon": 126.9255724608312,
        "daycare_type": "어린이집",
        "daycare_name": "샛별어린이집",
        "distance": 328.2405334985512,
        "walking_time": "약 5분"
      },
      {
        "daycare_lat": 37.48886468,
        "daycare_lon": 126.9188476,
        "daycare_type": "어린이집",
        "daycare_name": "해뜨는어린이집",
        "distance": 332.21811711441234,
        "walking_time": "약 5분"
      },
      {
        "daycare_lat": 37.48926857,
        "daycare_lon": 126.9251911,
        "daycare_type": "어린이집",
        "daycare_name": "해달별어린이집",
        "distance": 381.21666561529,
        "walking_time": "약 6분"
      },
      {
        "daycare_lat": 37.48687049,
        "daycare_lon": 126.9175488,
        "daycare_type": "어린이집",
        "daycare_name": "조은어린이집",
        "distance": 381.6564909650232,
        "walking_time": "약 6분"
      }
    ],
    "education": [
      {
        "education_lat": 37.49379251,
        "education_lon": 126.9231084,
        "education_type": "미술관/갤러리",
        "education_name": "동작아트갤러리",
        "distance": 754.5079043366753,
        "walking_time": "약 12분"
      },
      {
        "education_lat": 37.4808823,
        "education_lon": 126.9182364,
        "education_type": "박물관/기념관",
        "education_name": "호림박물관(신림본관)",
        "distance": 759.8472493279731,
        "walking_time": "약 12분"
      }
    ],
    "fitness": [
      {
        "fitness_lat": 37.48681825,
        "fitness_lon": 126.9178756,
        "fitness_type": "운동시설",
        "fitness_name": "프리원핏 신림점",
        "distance": 353.309122316346,
        "walking_time": "약 6분"
      },
      {
        "fitness_lat": 37.48963706,
        "fitness_lon": 126.9250607,
        "fitness_type": "운동시설",
        "fitness_name": "바디클래스",
        "distance": 400.423485331635,
        "walking_time": "약 6분"
      },
      {
        "fitness_lat": 37.49069953,
        "fitness_lon": 126.9239441,
        "fitness_type": "운동시설",
        "fitness_name": "크로스핏 보라매. 엘루이짐",
        "distance": 442.3560394577666,
        "walking_time": "약 7분"
      },
      {
        "fitness_lat": 37.48525479,
        "fitness_lon": 126.9169215,
        "fitness_type": "운동시설",
        "fitness_name": "짐엑스 신사시장점",
        "distance": 481.1515200724171,
        "walking_time": "약 8분"
      },
      {
        "fitness_lat": 37.49014616,
        "fitness_lon": 126.9259748,
        "fitness_type": "운동시설",
        "fitness_name": "파인필드",
        "distance": 497.7073042033476,
        "walking_time": "약 8분"
      },
      {
        "fitness_lat": 37.48497625,
        "fitness_lon": 126.916872,
        "fitness_type": "운동시설",
        "fitness_name": "짐엑스 신대방점",
        "distance": 498.8607201298442,
        "walking_time": "약 8분"
      },
      {
        "fitness_lat": 37.48750717,
        "fitness_lon": 126.9275272,
        "fitness_type": "운동시설",
        "fitness_name": "레코브",
        "distance": 501.7270310002355,
        "walking_time": "약 8분"
      },
      {
        "fitness_lat": 37.4912751,
        "fitness_lon": 126.9240947,
        "fitness_type": "운동시설",
        "fitness_name": "짐박스피트니스 보라매점",
        "distance": 506.31409550241807,
        "walking_time": "약 8분"
      },
      {
        "fitness_lat": 37.4912751,
        "fitness_lon": 126.9240947,
        "fitness_type": "운동시설",
        "fitness_name": "제이디 피티샵",
        "distance": 506.31409550241807,
        "walking_time": "약 8분"
      },
      {
        "fitness_lat": 37.49008161,
        "fitness_lon": 126.9264815,
        "fitness_type": "운동시설",
        "fitness_name": "피지오숲",
        "distance": 526.5716857093489,
        "walking_time": "약 8분"
      }
    ],
    "gas_station": [
      {
        "gas_station_lat": 37.48302235,
        "gas_station_lon": 126.9188525,
        "gas_station_type": "주유소",
        "gas_station_name": "씨제이대한통운(주)",
        "distance": 523.6324918622008,
        "walking_time": "약 8분"
      },
      {
        "gas_station_lat": 37.4824162,
        "gas_station_lon": 126.9194521,
        "gas_station_type": "주유소",
        "gas_station_name": "현대오일뱅크㈜직영관악셀프주유소",
        "distance": 560.5364282108768,
        "walking_time": "약 9분"
      },
      {
        "gas_station_lat": 37.49159774,
        "gas_station_lon": 126.927219,
        "gas_station_type": "주유소",
        "gas_station_name": "대양석유㈜보라매주유소",
        "distance": 689.5604855919469,
        "walking_time": "약 11분"
      },
      {
        "gas_station_lat": 37.49322282,
        "gas_station_lon": 126.9266746,
        "gas_station_type": "주유소",
        "gas_station_name": "㈜엠오티이엔지직영삼화주유소",
        "distance": 804.1595552004594,
        "walking_time": "약 13분"
      },
      {
        "gas_station_lat": 37.48041974,
        "gas_station_lon": 126.9306687,
        "gas_station_type": "주유소",
        "gas_station_name": "신관주유소",
        "distance": 1073.0968534566302,
        "walking_time": "약 17분"
      },
      {
        "gas_station_lat": 37.47786965,
        "gas_station_lon": 126.9143629,
        "gas_station_type": "주유소",
        "gas_station_name": "문성골주유소",
        "distance": 1219.429209464815,
        "walking_time": "약 19분"
      },
      {
        "gas_station_lat": 37.49838192,
        "gas_station_lon": 126.9197833,
        "gas_station_type": "주유소",
        "gas_station_name": "한경석유㈜경덕주유소",
        "distance": 1270.193277320032,
        "walking_time": "약 19분"
      },
      {
        "gas_station_lat": 37.47341197,
        "gas_station_lon": 126.9188013,
        "gas_station_type": "주유소",
        "gas_station_name": "난곡주유소",
        "distance": 1543.5844204850005,
        "walking_time": "약 24분"
      },
      {
        "gas_station_lat": 37.4737677,
        "gas_station_lon": 126.9348256,
        "gas_station_type": "주유소",
        "gas_station_name": "유림주유소",
        "distance": 1870.421977631932,
        "walking_time": "약 28분"
      }
    ],
    "hospital": [
      {
        "hospital_lat": 37.48534822,
        "hospital_lon": 126.9187327,
        "hospital_type": "병원",
        "hospital_name": "닥터강이비인후과의원",
        "distance": 336.8808529188394,
        "walking_time": "약 6분"
      },
      {
        "hospital_lat": 37.48534822,
        "hospital_lon": 126.9187327,
        "hospital_type": "병원",
        "hospital_name": "청아의원",
        "distance": 336.8808529188394,
        "walking_time": "약 6분"
      },
      {
        "hospital_lat": 37.48534822,
        "hospital_lon": 126.9187327,
        "hospital_type": "병원",
        "hospital_name": "클린치과의원",
        "distance": 336.8808529188394,
        "walking_time": "약 6분"
      },
      {
        "hospital_lat": 37.48577621,
        "hospital_lon": 126.9183603,
        "hospital_type": "병원",
        "hospital_name": "남산당한의원",
        "distance": 341.5918611919147,
        "walking_time": "약 6분"
      },
      {
        "hospital_lat": 37.48541703,
        "hospital_lon": 126.9185608,
        "hospital_type": "병원",
        "hospital_name": "주함정형외과의원",
        "distance": 345.2818504430115,
        "walking_time": "약 6분"
      },
      {
        "hospital_lat": 37.48963706,
        "hospital_lon": 126.9250607,
        "hospital_type": "병원",
        "hospital_name": "김지연산부인과의원",
        "distance": 400.423485331635,
        "walking_time": "약 6분"
      },
      {
        "hospital_lat": 37.48963706,
        "hospital_lon": 126.9250607,
        "hospital_type": "병원",
        "hospital_name": "서울CL치과의원",
        "distance": 400.423485331635,
        "walking_time": "약 6분"
      },
      {
        "hospital_lat": 37.48963706,
        "hospital_lon": 126.9250607,
        "hospital_type": "병원",
        "hospital_name": "서울동안미의원",
        "distance": 400.423485331635,
        "walking_time": "약 6분"
      },
      {
        "hospital_lat": 37.48341254,
        "hospital_lon": 126.9216052,
        "hospital_type": "병원",
        "hospital_name": "가야한의원",
        "distance": 408.3426684313915,
        "walking_time": "약 7분"
      },
      {
        "hospital_lat": 37.48559444,
        "hospital_lon": 126.9173959,
        "hospital_type": "병원",
        "hospital_name": "신사경희한의원",
        "distance": 427.59482388052544,
        "walking_time": "약 7분"
      }
    ],
    "music_room": [
      {
        "music_room_lat": 37.48692769,
        "music_room_lon": 126.9178206,
        "music_room_type": "노래방",
        "music_room_name": "뉴월드",
        "distance": 357.36621659428994,
        "walking_time": "약 6분"
      },
      {
        "music_room_lat": 37.48691496,
        "music_room_lon": 126.9259569,
        "music_room_type": "노래방",
        "music_room_name": "짠짜라",
        "distance": 361.3745359111612,
        "walking_time": "약 6분"
      },
      {
        "music_room_lat": 37.48671946,
        "music_room_lon": 126.9262776,
        "music_room_type": "노래방",
        "music_room_name": "로데오 노래연습장",
        "distance": 391.2583843830058,
        "walking_time": "약 6분"
      },
      {
        "music_room_lat": 37.48346168,
        "music_room_lon": 126.9213744,
        "music_room_type": "노래방",
        "music_room_name": "남부",
        "distance": 404.5634962450296,
        "walking_time": "약 7분"
      },
      {
        "music_room_lat": 37.48341254,
        "music_room_lon": 126.9216052,
        "music_room_type": "노래방",
        "music_room_name": "큐",
        "distance": 408.3426684313915,
        "walking_time": "약 7분"
      },
      {
        "music_room_lat": 37.48961644,
        "music_room_lon": 126.9255208,
        "music_room_type": "노래방",
        "music_room_name": "원 노래연습장",
        "distance": 428.4506616618947,
        "walking_time": "약 7분"
      },
      {
        "music_room_lat": 37.49094201,
        "music_room_lon": 126.9232712,
        "music_room_type": "노래방",
        "music_room_name": "파크 노래연습장",
        "distance": 447.0717345508613,
        "walking_time": "약 7분"
      },
      {
        "music_room_lat": 37.4850065,
        "music_room_lon": 126.9266284,
        "music_room_type": "노래방",
        "music_room_name": "영",
        "distance": 479.2164184799716,
        "walking_time": "약 8분"
      },
      {
        "music_room_lat": 37.49014616,
        "music_room_lon": 126.9259748,
        "music_room_type": "노래방",
        "music_room_name": "브이아이피 노래연습장",
        "distance": 497.7073042033476,
        "walking_time": "약 8분"
      },
      {
        "music_room_lat": 37.4912751,
        "music_room_lon": 126.9240947,
        "music_room_type": "노래방",
        "music_room_name": "스핑크스 노래연습장",
        "distance": 506.31409550241807,
        "walking_time": "약 8분"
      }
    ],
    "park": [
      {
        "park_lat": 37.492333,
        "park_lon": 126.918289,
        "park_type": "공원",
        "park_name": "보라매근린공원",
        "distance": 664.0282064622797,
        "walking_time": "약 10분"
      },
      {
        "park_lat": 37.492299,
        "park_lon": 126.9385469,
        "park_type": "공원",
        "park_name": "상도근린공원",
        "distance": 1582.0309995796415,
        "walking_time": "약 24분"
      }
    ],
    "park_station": [
      {
        "park_station_lat": 37.48736362,
        "park_station_lon": 126.9234863,
        "park_station_type": "주차장",
        "park_station_name": "신림동공영주차장",
        "distance": 146.38893775160815,
        "walking_time": "약 3분"
      },
      {
        "park_station_lat": 37.4848902,
        "park_station_lon": 126.9221482,
        "park_station_type": "주차장",
        "park_station_name": "남부초등학교",
        "distance": 244.65024349378223,
        "walking_time": "약 4분"
      },
      {
        "park_station_lat": 37.490363,
        "park_station_lon": 126.9232398,
        "park_station_type": "주차장",
        "park_station_name": "보라매상업 공영주차장",
        "distance": 384.7444512510893,
        "walking_time": "약 6분"
      },
      {
        "park_station_lat": 37.48462415,
        "park_station_lon": 126.9252587,
        "park_station_type": "주차장",
        "park_station_name": "신림동제2공영",
        "distance": 405.092875109036,
        "walking_time": "약 7분"
      },
      {
        "park_station_lat": 37.48671106,
        "park_station_lon": 126.9172636,
        "park_station_type": "주차장",
        "park_station_name": "관악신사시장 공영주차장",
        "distance": 408.171508117453,
        "walking_time": "약 7분"
      },
      {
        "park_station_lat": 37.48445914,
        "park_station_lon": 126.9154432,
        "park_station_type": "주차장",
        "park_station_name": "신사동 제1공영주차장",
        "distance": 637.2296832603377,
        "walking_time": "약 10분"
      },
      {
        "park_station_lat": 37.48823393,
        "park_station_lon": 126.914468,
        "park_station_type": "주차장",
        "park_station_name": "신대방역 공영주차장",
        "distance": 665.2841596909951,
        "walking_time": "약 10분"
      },
      {
        "park_station_lat": 37.48271916,
        "park_station_lon": 126.9275934,
        "park_station_type": "주차장",
        "park_station_name": "서원동제1공영",
        "distance": 700.2655335850802,
        "walking_time": "약 11분"
      },
      {
        "park_station_lat": 37.48685341,
        "park_station_lon": 126.9331906,
        "park_station_type": "주차장",
        "park_station_name": "봉천복개3 공영주차장",
        "distance": 999.4745958284284,
        "walking_time": "약 15분"
      },
      {
        "park_station_lat": 37.49193146,
        "park_station_lon": 126.9331501,
        "park_station_type": "주차장",
        "park_station_name": "당곡중학교공영 ",
        "distance": 1132.3689472252547,
        "walking_time": "약 17분"
      }
    ],
    "pc_room": [
      {
        "pc_room_lat": 37.4871786916872,
        "pc_room_lon": 126.925828834235,
        "pc_room_type": "PC방",
        "pc_room_name": "대박PC",
        "distance": 349.7894480194779,
        "walking_time": "약 6분"
      },
      {
        "pc_room_lat": 37.4850367672133,
        "pc_room_lon": 126.918506808414,
        "pc_room_type": "PC방",
        "pc_room_name": "수 PC방",
        "distance": 373.41342033157065,
        "walking_time": "약 6분"
      },
      {
        "pc_room_lat": 37.4868916578486,
        "pc_room_lon": 126.92616007342,
        "pc_room_type": "PC방",
        "pc_room_name": "율PC",
        "distance": 379.412705246207,
        "walking_time": "약 6분"
      },
      {
        "pc_room_lat": 37.4912751024086,
        "pc_room_lon": 126.924094714271,
        "pc_room_type": "PC방",
        "pc_room_name": "피에스타PC방 보라매점",
        "distance": 506.3148312296466,
        "walking_time": "약 8분"
      },
      {
        "pc_room_lat": 37.4872013649081,
        "pc_room_lon": 126.927813421746,
        "pc_room_type": "PC방",
        "pc_room_name": "쿡피시방",
        "distance": 524.8943208569625,
        "walking_time": "약 8분"
      },
      {
        "pc_room_lat": 37.4858919115747,
        "pc_room_lon": 126.927636033729,
        "pc_room_type": "PC방",
        "pc_room_name": "뉴탑",
        "distance": 525.9057977922334,
        "walking_time": "약 8분"
      },
      {
        "pc_room_lat": 37.48492343619,
        "pc_room_lon": 126.927225743639,
        "pc_room_type": "PC방",
        "pc_room_name": "당근PC",
        "distance": 530.150167285994,
        "walking_time": "약 8분"
      },
      {
        "pc_room_lat": 37.4912113425285,
        "pc_room_lon": 126.924990343437,
        "pc_room_type": "PC방",
        "pc_room_name": "수피아PC방",
        "distance": 535.8218019900842,
        "walking_time": "약 8분"
      },
      {
        "pc_room_lat": 37.48531038244,
        "pc_room_lon": 126.915905394653,
        "pc_room_type": "PC방",
        "pc_room_name": "신사PC",
        "distance": 561.5228944350472,
        "walking_time": "약 9분"
      },
      {
        "pc_room_lat": 37.4852468185612,
        "pc_room_lon": 126.927830453385,
        "pc_room_type": "PC방",
        "pc_room_name": "황금PC방",
        "distance": 564.2881106371195,
        "walking_time": "약 9분"
      }
    ],
    "police_office": [
      {
        "police_office_lat": 37.4872985,
        "police_office_lon": 126.9142051,
        "police_office_type": "경찰소",
        "police_office_name": "신사지구대",
        "distance": 676.4123371490206,
        "walking_time": "약 11분"
      },
      {
        "police_office_lat": 37.47992421,
        "police_office_lon": 126.9156105,
        "police_office_type": "경찰소",
        "police_office_name": "미성파출소",
        "distance": 968.3198673741696,
        "walking_time": "약 15분"
      },
      {
        "police_office_lat": 37.48401647,
        "police_office_lon": 126.9333173,
        "police_office_type": "경찰소",
        "police_office_name": "신림지구대",
        "distance": 1066.203191414496,
        "walking_time": "약 16분"
      },
      {
        "police_office_lat": 37.48600685,
        "police_office_lon": 126.9343644,
        "police_office_type": "경찰소",
        "police_office_name": "당곡지구대",
        "distance": 1109.1586967733458,
        "walking_time": "약 17분"
      },
      {
        "police_office_lat": 37.49856527,
        "police_office_lon": 126.920574,
        "police_office_type": "경찰소",
        "police_office_name": "대방파출소",
        "distance": 1282.2944679360958,
        "walking_time": "약 20분"
      },
      {
        "police_office_lat": 37.49909994,
        "police_office_lon": 126.9128049,
        "police_office_type": "경찰소",
        "police_office_name": "신풍지구대",
        "distance": 1557.498692411351,
        "walking_time": "약 24분"
      },
      {
        "police_office_lat": 37.4738594,
        "police_office_lon": 126.9352631,
        "police_office_type": "경찰소",
        "police_office_name": "관악산지구대",
        "distance": 1886.313127633815,
        "walking_time": "약 29분"
      }
    ],
    "post_office": [
      {
        "post_office_lat": 37.49121134,
        "post_office_lon": 126.9249903,
        "post_office_type": "우체국",
        "post_office_name": "서울보라매우편취급국",
        "distance": 535.8195895065794,
        "walking_time": "약 8분"
      },
      {
        "post_office_lat": 37.48501945,
        "post_office_lon": 126.9155289,
        "post_office_type": "우체국",
        "post_office_name": "서울관악신사동우편취급국",
        "distance": 604.2576191287886,
        "walking_time": "약 10분"
      },
      {
        "post_office_lat": 37.48066748,
        "post_office_lon": 126.9284834,
        "post_office_type": "우체국",
        "post_office_name": "서울신림동부우편취급국",
        "distance": 921.4966616649972,
        "walking_time": "약 14분"
      },
      {
        "post_office_lat": 37.48501424,
        "post_office_lon": 126.9331367,
        "post_office_type": "우체국",
        "post_office_name": "서울관악우체국",
        "distance": 1020.5761668083164,
        "walking_time": "약 16분"
      },
      {
        "post_office_lat": 37.47854878,
        "post_office_lon": 126.9149155,
        "post_office_type": "우체국",
        "post_office_name": "서울난곡우체국",
        "distance": 1129.5378756110922,
        "walking_time": "약 17분"
      },
      {
        "post_office_lat": 37.49791931,
        "post_office_lon": 126.9245212,
        "post_office_type": "우체국",
        "post_office_name": "서울동작우체국",
        "distance": 1227.932691685326,
        "walking_time": "약 19분"
      }
    ],
    "public_health_center": [
      {
        "public_health_center_lat": 37.48784455,
        "public_health_center_lon": 126.932302,
        "public_health_center_type": "보건소",
        "public_health_center_name": "관악구보건지소",
        "distance": 924.6770975917924,
        "walking_time": "약 14분"
      },
      {
        "public_health_center_lat": 37.49961665,
        "public_health_center_lon": 126.9242845,
        "public_health_center_type": "보건소",
        "public_health_center_name": "동작구보건지소",
        "distance": 1410.3515216186172,
        "walking_time": "약 22분"
      }
    ],
    "school": [
      {
        "school_lat": 37.4851194359099,
        "school_lon": 126.922183775699,
        "school_type": "초등학교",
        "school_name": "서울남부초등학교",
        "distance": 219.68567307436007,
        "walking_time": "약 4분"
      },
      {
        "school_lat": 37.4821362472153,
        "school_lon": 126.921037135349,
        "school_type": "중학교",
        "school_name": "남서울중학교",
        "distance": 554.458287610447,
        "walking_time": "약 9분"
      },
      {
        "school_lat": 37.4889482943857,
        "school_lon": 126.914528045959,
        "school_type": "초등학교",
        "school_name": "서울문창초등학교",
        "distance": 680.0163339581281,
        "walking_time": "약 11분"
      },
      {
        "school_lat": 37.4807283676946,
        "school_lon": 126.920957326353,
        "school_type": "고등학교",
        "school_name": "성보고등학교",
        "distance": 710.6992292463685,
        "walking_time": "약 11분"
      },
      {
        "school_lat": 37.4807283676946,
        "school_lon": 126.920957326353,
        "school_type": "중학교",
        "school_name": "성보중학교",
        "distance": 710.6992292463685,
        "walking_time": "약 11분"
      },
      {
        "school_lat": 37.4901681154487,
        "school_lon": 126.930369788237,
        "school_type": "초등학교",
        "school_name": "서울당곡초등학교",
        "distance": 825.1502470662771,
        "walking_time": "약 13분"
      },
      {
        "school_lat": 37.4928014552579,
        "school_lon": 126.914907105304,
        "school_type": "고등학교",
        "school_name": "수도여자고등학교",
        "distance": 884.2488279587835,
        "walking_time": "약 14분"
      },
      {
        "school_lat": 37.4928014552579,
        "school_lon": 126.914907105304,
        "school_type": "고등학교",
        "school_name": "수도여자고등학교부설방송통신고등학교",
        "distance": 884.2488279587835,
        "walking_time": "약 14분"
      },
      {
        "school_lat": 37.4792104943499,
        "school_lon": 126.916967177377,
        "school_type": "고등학교",
        "school_name": "신림고등학교",
        "distance": 975.9059545010966,
        "walking_time": "약 15분"
      },
      {
        "school_lat": 37.4958609410012,
        "school_lon": 126.922405470441,
        "school_type": "중학교",
        "school_name": "문창중학교",
        "distance": 977.664791419338,
        "walking_time": "약 15분"
      }
    ],
    "self_laundromat": [
      {
        "self_laundromat_lat": 37.49878935,
        "self_laundromat_lon": 126.917808,
        "self_laundromat_type": "셀프 빨래방",
        "self_laundromat_name": "이지셀프빨래방",
        "distance": 1350.462340716219,
        "walking_time": "약 21분"
      },
      {
        "self_laundromat_lat": 37.49878935,
        "self_laundromat_lon": 126.917808,
        "self_laundromat_type": "셀프 빨래방",
        "self_laundromat_name": "이지셀프빨래방",
        "distance": 1350.462340716219,
        "walking_time": "약 21분"
      }
    ],
    "subway": [
      {
        "subway_lat": 37.4875759745635,
        "subway_lon": 126.913175585996,
        "subway_type": "지하철",
        "subway_name": "2호선-신대방역",
        "distance": 768.7951550554784,
        "walking_time": "약 12분"
      },
      {
        "subway_lat": 37.4842176141092,
        "subway_lon": 126.92980331103,
        "subway_type": "지하철",
        "subway_name": "2호선-신림역",
        "distance": 769.19360125294,
        "walking_time": "약 12분"
      },
      {
        "subway_lat": 37.499910050321,
        "subway_lon": 126.920489390309,
        "subway_type": "지하철",
        "subway_name": "7호선-보라매역",
        "distance": 1431.9105464437575,
        "walking_time": "약 22분"
      },
      {
        "subway_lat": 37.4997218266711,
        "subway_lon": 126.928222967016,
        "subway_type": "지하철",
        "subway_name": "7호선-신대방삼거리역",
        "distance": 1513.5481602511052,
        "walking_time": "약 23분"
      }
    ],
    "supermarket": [
      {
        "supermarket_lat": 37.49049549,
        "supermarket_lon": 126.9249817,
        "supermarket_type": "마트",
        "supermarket_name": "롯데쇼핑(주) 관악점",
        "distance": 468.9040721306037,
        "walking_time": "약 7분"
      },
      {
        "supermarket_lat": 37.48476254,
        "supermarket_lon": 126.9300965,
        "supermarket_type": "마트",
        "supermarket_name": "르네상스쇼핑몰(주)",
        "distance": 770.5000424316248,
        "walking_time": "약 12분"
      },
      {
        "supermarket_lat": 37.48385134,
        "supermarket_lon": 126.9302345,
        "supermarket_type": "마트",
        "supermarket_name": "타임스트림",
        "distance": 820.9575579531183,
        "walking_time": "약 13분"
      },
      {
        "supermarket_lat": 37.48314523,
        "supermarket_lon": 126.9114212,
        "supermarket_type": "마트",
        "supermarket_name": "신림중앙시장",
        "distance": 1020.1605692226228,
        "walking_time": "약 16분"
      },
      {
        "supermarket_lat": 37.49732616,
        "supermarket_lon": 126.9130959,
        "supermarket_type": "마트",
        "supermarket_name": "홈플러스(주) 익스프레스 신길점",
        "distance": 1377.335026119682,
        "walking_time": "약 21분"
      },
      {
        "supermarket_lat": 37.47428544,
        "supermarket_lon": 126.9180585,
        "supermarket_type": "마트",
        "supermarket_name": "(주)천성세이브마트",
        "distance": 1461.7223697136908,
        "walking_time": "약 22분"
      },
      {
        "supermarket_lat": 37.48665276,
        "supermarket_lon": 126.9392236,
        "supermarket_type": "마트",
        "supermarket_name": "GS THE FRESH 관악은천점",
        "distance": 1532.200286297402,
        "walking_time": "약 23분"
      },
      {
        "supermarket_lat": 37.49995131,
        "supermarket_lon": 126.9295592,
        "supermarket_type": "마트",
        "supermarket_name": "(주)이마트에브리데이 대방동점",
        "distance": 1584.0916871698398,
        "walking_time": "약 24분"
      },
      {
        "supermarket_lat": 37.4755685,
        "supermarket_lon": 126.9328111,
        "supermarket_type": "마트",
        "supermarket_name": "신림현대종합상가",
        "distance": 1603.3832599637333,
        "walking_time": "약 24분"
      },
      {
        "supermarket_lat": 37.4999427,
        "supermarket_lon": 126.9317763,
        "supermarket_type": "마트",
        "supermarket_name": "성대종합시장",
        "distance": 1676.4175004409913,
        "walking_time": "약 26분"
      }
    ],
    "tax_office": [
      {
        "tax_office_lat": 37.47933644,
        "tax_office_lon": 126.9243295,
        "tax_office_type": "세무서",
        "tax_office_name": "관악세무서",
        "distance": 887.9421063475145,
        "walking_time": "약 14분"
      },
      {
        "tax_office_lat": 37.49908057,
        "tax_office_lon": 126.9198001,
        "tax_office_type": "세무서",
        "tax_office_name": "동작세무서",
        "distance": 1346.9075080701791,
        "walking_time": "약 21분"
      }
    ],
    "theater": [
      {
        "theater_lat": 37.4838513393186,
        "theater_lon": 126.930234545397,
        "theater_type": "영화관",
        "theater_name": "롯데시네마 신림",
        "distance": 820.9611935947728,
        "walking_time": "약 13분"
      }
    ]
  }
}