{
  "클러스터_위도": 37.55382499999999,
  "클러스터_경도": 126.944289,
  "클러스터_level": 3.0,
  "facilities": {
    "bus": [
      {
        "bus_lat": 37.55404995,
        "bus_lon": 126.9457581,
        "bus_type": "버스정류장",
        "bus_name": "대흥교회",
        "distance": 131.89919590145672,
        "walking_time": "약 2분"
      },
      {
        "bus_lat": 37.55378877,
        "bus_lon": 126.9460582,
        "bus_type": "버스정류장",
        "bus_name": "대흥교회",
        "distance": 156.0127668066506,
        "walking_time": "약 3분"
      },
      {
        "bus_lat": 37.5534761,
        "bus_lon": 126.9460687,
        "bus_type": "버스정류장",
        "bus_name": "마포프레스티지자이아파트",
        "distance": 161.61235688941224,
        "walking_time": "약 3분"
      },
      {
        "bus_lat": 37.55209168,
        "bus_lon": 126.9453442,
        "bus_type": "버스정류장",
        "bus_name": "숭문중고등학교후문",
        "distance": 214.00959491233496,
        "walking_time": "약 4분"
      },
      {
        "bus_lat": 37.5559161,
        "bus_lon": 126.9457319,
        "bus_type": "버스정류장",
        "bus_name": "이화여대입구",
        "distance": 265.035586679354,
        "walking_time": "약 4분"
      },
      {
        "bus_lat": 37.55579909,
        "bus_lon": 126.9460206,
        "bus_type": "버스정류장",
        "bus_name": "이대역5번출구",
        "distance": 267.36555206971525,
        "walking_time": "약 4분"
      },
      {
        "bus_lat": 37.55591353,
        "bus_lon": 126.9460216,
        "bus_type": "버스정류장",
        "bus_name": "이대전철역",
        "distance": 277.95631857715085,
        "walking_time": "약 5분"
      },
      {
        "bus_lat": 37.55648966,
        "bus_lon": 126.9447875,
        "bus_type": "버스정류장",
        "bus_name": "이대역6번출구",
        "distance": 299.53757495107527,
        "walking_time": "약 5분"
      },
      {
        "bus_lat": 37.55665435,
        "bus_lon": 126.9444961,
        "bus_type": "버스정류장",
        "bus_name": "이대역",
        "distance": 315.1386066754194,
        "walking_time": "약 5분"
      },
      {
        "bus_lat": 37.55680821,
        "bus_lon": 126.9438433,
        "bus_type": "버스정류장",
        "bus_name": "신촌기차역입구",
        "distance": 334.0364418088347,
        "walking_time": "약 5분"
      }
    ],
    "community_center": [
      {
        "community_center_lat": 37.55585899,
        "community_center_lon": 126.9423208,
        "community_center_type": "주민센터",
        "community_center_name": "대흥동 자치회관",
        "distance": 285.05284154519904,
        "walking_time": "약 5분"
      },
      {
        "community_center_lat": 37.55781754,
        "community_center_lon": 126.939546,
        "community_center_type": "주민센터",
        "community_center_name": "신촌동 자치회관",
        "distance": 609.8352651530932,
        "walking_time": "약 10분"
      },
      {
        "community_center_lat": 37.54707412,
        "community_center_lon": 126.9456478,
        "community_center_type": "주민센터",
        "community_center_name": "염리동 자치회관",
        "distance": 760.1611837266344,
        "walking_time": "약 12분"
      },
      {
        "community_center_lat": 37.54712048,
        "community_center_lon": 126.9522123,
        "community_center_type": "주민센터",
        "community_center_name": "아현동 자치회관",
        "distance": 1021.606426083824,
        "walking_time": "약 16분"
      },
      {
        "community_center_lat": 37.54704643,
        "community_center_lon": 126.9352334,
        "community_center_type": "주민센터",
        "community_center_name": "신수동 자치회관",
        "distance": 1097.9241946811862,
        "walking_time": "약 17분"
      },
      {
        "community_center_lat": 37.54773473,
        "community_center_lon": 126.9320618,
        "community_center_type": "주민센터",
        "community_center_name": "서강동 자치회관",
        "distance": 1272.9894954210035,
        "walking_time": "약 19분"
      },
      {
        "community_center_lat": 37.55947096,
        "community_center_lon": 126.9570364,
        "community_center_type": "주민센터",
        "community_center_name": "북아현동 자치회관",
        "distance": 1287.1661615509372,
        "walking_time": "약 20분"
      },
      {
        "community_center_lat": 37.54231555,
        "community_center_lon": 126.9427071,
        "community_center_type": "주민센터",
        "community_center_name": "용강동 자치회관",
        "distance": 1287.368597796907,
        "walking_time": "약 20분"
      },
      {
        "community_center_lat": 37.54153106,
        "community_center_lon": 126.9498753,
        "community_center_type": "주민센터",
        "community_center_name": "도화동 자치회관",
        "distance": 1453.0317875244216,
        "walking_time": "약 22분"
      },
      {
        "community_center_lat": 37.56933601,
        "community_center_lon": 126.9307755,
        "community_center_type": "주민센터",
        "community_center_name": "연희동 자치회관",
        "distance": 2096.079554868289,
        "walking_time": "약 32분"
      }
    ],
    "convenience_store": [
      {
        "convenience_store_lat": 37.55405332,
        "convenience_store_lon": 126.9453936,
        "convenience_store_type": "편의점",
        "convenience_store_name": "CU 서강대원룸점",
        "distance": 100.62917777580076,
        "walking_time": "약 2분"
      },
      {
        "convenience_store_lat": 37.55409147,
        "convenience_store_lon": 126.945685,
        "convenience_store_type": "편의점",
        "convenience_store_name": "CU 마포월드점",
        "distance": 126.57853380930536,
        "walking_time": "약 2분"
      },
      {
        "convenience_store_lat": 37.55489914,
        "convenience_store_lon": 126.9415525,
        "convenience_store_type": "편의점",
        "convenience_store_name": "세븐일레븐 서교삼양점",
        "distance": 269.1790712071649,
        "walking_time": "약 5분"
      },
      {
        "convenience_store_lat": 37.55635786,
        "convenience_store_lon": 126.9443618,
        "convenience_store_type": "편의점",
        "convenience_store_name": "CU 이대푸르지오점",
        "distance": 281.71428604824143,
        "walking_time": "약 5분"
      },
      {
        "convenience_store_lat": 37.55146496,
        "convenience_store_lon": 126.94298,
        "convenience_store_type": "편의점",
        "convenience_store_name": "GS25 서강대학사점",
        "distance": 286.67486064646715,
        "walking_time": "약 5분"
      },
      {
        "convenience_store_lat": 37.55146496,
        "convenience_store_lon": 126.94298,
        "convenience_store_type": "편의점",
        "convenience_store_name": "미니스톱 서강대점",
        "distance": 286.67486064646715,
        "walking_time": "약 5분"
      },
      {
        "convenience_store_lat": 37.55591895,
        "convenience_store_lon": 126.9466333,
        "convenience_store_type": "편의점",
        "convenience_store_name": "CU 이대역점",
        "distance": 311.31827350722017,
        "walking_time": "약 5분"
      },
      {
        "convenience_store_lat": 37.55626469,
        "convenience_store_lon": 126.9468847,
        "convenience_store_type": "편의점",
        "convenience_store_name": "세븐일레븐 이대역점",
        "distance": 354.8944162692728,
        "walking_time": "약 6분"
      },
      {
        "convenience_store_lat": 37.55633216,
        "convenience_store_lon": 126.9476775,
        "convenience_store_type": "편의점",
        "convenience_store_name": "세븐일레븐 이대역점",
        "distance": 408.5868814627624,
        "walking_time": "약 7분"
      },
      {
        "convenience_store_lat": 37.55735275,
        "convenience_store_lon": 126.9425,
        "convenience_store_type": "편의점",
        "convenience_store_name": "CU 신촌푸르지오점",
        "distance": 422.7814527454181,
        "walking_time": "약 7분"
      }
    ],
    "daycare": [
      {
        "daycare_lat": 37.55463390425571,
        "daycare_lon": 126.94458526937515,
        "daycare_type": "어린이집",
        "daycare_name": "그랑어린이집",
        "distance": 93.66102464365768,
        "walking_time": "약 2분"
      },
      {
        "daycare_lat": 37.55415877,
        "daycare_lon": 126.9463947,
        "daycare_type": "어린이집",
        "daycare_name": "아기사랑어린이집",
        "distance": 189.2977278773189,
        "walking_time": "약 3분"
      },
      {
        "daycare_lat": 37.55536977,
        "daycare_lon": 126.9427673,
        "daycare_type": "어린이집",
        "daycare_name": "다연어린이집",
        "distance": 217.94276101159056,
        "walking_time": "약 4분"
      },
      {
        "daycare_lat": 37.55548265822227,
        "daycare_lon": 126.94132289719596,
        "daycare_type": "어린이집",
        "daycare_name": "우리마포어린이집",
        "distance": 319.90763336044864,
        "walking_time": "약 5분"
      },
      {
        "daycare_lat": 37.55386760880803,
        "daycare_lon": 126.94857511302196,
        "daycare_type": "어린이집",
        "daycare_name": "산들어린이집",
        "distance": 377.86433278809886,
        "walking_time": "약 6분"
      },
      {
        "daycare_lat": 37.5541244,
        "daycare_lon": 126.9399385,
        "daycare_type": "어린이집",
        "daycare_name": "신촌중앙방과후교실어린이집",
        "distance": 384.9521716816903,
        "walking_time": "약 6분"
      },
      {
        "daycare_lat": 37.55092596,
        "daycare_lon": 126.9467982,
        "daycare_type": "어린이집",
        "daycare_name": "온누리어린이집",
        "distance": 390.9523786651338,
        "walking_time": "약 6분"
      },
      {
        "daycare_lat": 37.55437744,
        "daycare_lon": 126.9487899,
        "daycare_type": "어린이집",
        "daycare_name": "염산어린이집",
        "distance": 401.4945326704303,
        "walking_time": "약 6분"
      },
      {
        "daycare_lat": 37.5558652,
        "daycare_lon": 126.9488063,
        "daycare_type": "어린이집",
        "daycare_name": "소망어린이집",
        "distance": 458.2967916483564,
        "walking_time": "약 7분"
      },
      {
        "daycare_lat": 37.55139897097667,
        "daycare_lon": 126.94879748529031,
        "daycare_type": "어린이집",
        "daycare_name": "구립 온누리어린이집",
        "distance": 480.3471311020657,
        "walking_time": "약 8분"
      }
    ],
    "education": [
      {
        "education_lat": 37.55146931,
        "education_lon": 126.943025,
        "education_type": "박물관/기념관",
        "education_name": "서강대학교 박물관",
        "distance": 284.6560164077169,
        "walking_time": "약 5분"
      },
      {
        "education_lat": 37.54990609,
        "education_lon": 126.9455338,
        "education_type": "문화예술회관",
        "education_name": "마포아트센터",
        "distance": 449.36767901363777,
        "walking_time": "약 7분"
      },
      {
        "education_lat": 37.55656393,
        "education_lon": 126.9403281,
        "education_type": "박물관/기념관",
        "education_name": "우석뮤지엄",
        "distance": 463.3209956448955,
        "walking_time": "약 7분"
      },
      {
        "education_lat": 37.54957866,
        "education_lon": 126.9461167,
        "education_type": "도서관",
        "education_name": "마포소금나루도서관",
        "distance": 498.9050763115462,
        "walking_time": "약 8분"
      },
      {
        "education_lat": 37.55848121,
        "education_lon": 126.9462494,
        "education_type": "미술관/갤러리",
        "education_name": "갤러리 히든플레이스",
        "distance": 545.8252929311224,
        "walking_time": "약 9분"
      },
      {
        "education_lat": 37.55865739,
        "education_lon": 126.9424913,
        "education_type": "미술관/갤러리",
        "education_name": "갤러리 아미디 신촌",
        "distance": 560.2172869259332,
        "walking_time": "약 9분"
      },
      {
        "education_lat": 37.55886566,
        "education_lon": 126.9400664,
        "education_type": "미술관/갤러리",
        "education_name": "ANDNEW GALLERY(앤드뉴 갤러리)",
        "distance": 672.8340990173681,
        "walking_time": "약 11분"
      },
      {
        "education_lat": 37.55760078,
        "education_lon": 126.9381984,
        "education_type": "공연장",
        "education_name": "극장PLOT",
        "distance": 681.5611123999917,
        "walking_time": "약 11분"
      },
      {
        "education_lat": 37.55504357,
        "education_lon": 126.9338654,
        "education_type": "박물관/기념관",
        "education_name": "이한열기념관",
        "distance": 928.8033661999806,
        "walking_time": "약 14분"
      },
      {
        "education_lat": 37.55507049,
        "education_lon": 126.9575347,
        "education_type": "공연장",
        "education_name": "서울마포음악창작소",
        "distance": 1175.8260585983132,
        "walking_time": "약 18분"
      }
    ],
    "fitness": [
      {
        "fitness_lat": 37.55635786,
        "fitness_lon": 126.9443618,
        "fitness_type": "운동시설",
        "fitness_name": "Gooood Gym",
        "distance": 281.71428604824143,
        "walking_time": "약 5분"
      },
      {
        "fitness_lat": 37.55694388,
        "fitness_lon": 126.9432464,
        "fitness_type": "운동시설",
        "fitness_name": "(주)바디채널 신촌이대역점",
        "distance": 358.7751252283138,
        "walking_time": "약 6분"
      },
      {
        "fitness_lat": 37.55592447,
        "fitness_lon": 126.9404633,
        "fitness_type": "운동시설",
        "fitness_name": "에이블짐 신촌점",
        "distance": 410.1609384246201,
        "walking_time": "약 7분"
      },
      {
        "fitness_lat": 37.55735275,
        "fitness_lon": 126.9425,
        "fitness_type": "운동시설",
        "fitness_name": "GymSH 퍼스널트레이닝",
        "distance": 422.7814527454181,
        "walking_time": "약 7분"
      },
      {
        "fitness_lat": 37.5572756,
        "fitness_lon": 126.9464827,
        "fitness_type": "운동시설",
        "fitness_name": "오늘부터 핏",
        "distance": 429.6652007428996,
        "walking_time": "약 7분"
      },
      {
        "fitness_lat": 37.55574222,
        "fitness_lon": 126.9399716,
        "fitness_type": "운동시설",
        "fitness_name": "피아트짐",
        "distance": 436.2282018871774,
        "walking_time": "약 7분"
      },
      {
        "fitness_lat": 37.55781679,
        "fitness_lon": 126.9425682,
        "fitness_type": "운동시설",
        "fitness_name": "좋은습관 PT studio 신촌",
        "distance": 469.0709937162183,
        "walking_time": "약 8분"
      },
      {
        "fitness_lat": 37.55808275,
        "fitness_lon": 126.9425358,
        "fitness_type": "운동시설",
        "fitness_name": "김수민 PT STUDIO",
        "distance": 498.0261424308234,
        "walking_time": "약 8분"
      },
      {
        "fitness_lat": 37.55616853,
        "fitness_lon": 126.9390187,
        "fitness_type": "운동시설",
        "fitness_name": "당근짐 PT 신촌점",
        "distance": 532.6793065685956,
        "walking_time": "약 8분"
      },
      {
        "fitness_lat": 37.55465421,
        "fitness_lon": 126.93813,
        "fitness_type": "운동시설",
        "fitness_name": "소마앤바디",
        "distance": 550.7064145866229,
        "walking_time": "약 9분"
      }
    ],
    "gas_station": [
      {
        "gas_station_lat": 37.56101556,
        "gas_station_lon": 126.9415693,
        "gas_station_type": "주유소",
        "gas_station_name": "행촌제2주유소",
        "distance": 834.7220817978329,
        "walking_time": "약 13분"
      },
      {
        "gas_station_lat": 37.5462257,
        "gas_station_lon": 126.9449699,
        "gas_station_type": "주유소",
        "gas_station_name": "에쓰-오일(주) 염리동 주유소",
        "distance": 847.1329806058714,
        "walking_time": "약 13분"
      },
      {
        "gas_station_lat": 37.54615484,
        "gas_station_lon": 126.9400827,
        "gas_station_type": "주유소",
        "gas_station_name": "대흥주유소",
        "distance": 930.008184645143,
        "walking_time": "약 14분"
      },
      {
        "gas_station_lat": 37.5505948,
        "gas_station_lon": 126.955637,
        "gas_station_type": "주유소",
        "gas_station_name": "마포주유소",
        "distance": 1062.91155423643,
        "walking_time": "약 16분"
      },
      {
        "gas_station_lat": 37.54983427,
        "gas_station_lon": 126.9325913,
        "gas_station_type": "주유소",
        "gas_station_name": "주식회사 에스에스 오토",
        "distance": 1122.641132714746,
        "walking_time": "약 17분"
      },
      {
        "gas_station_lat": 37.54302819,
        "gas_station_lon": 126.9388476,
        "gas_station_type": "주유소",
        "gas_station_name": "그린에너지컴퍼니 용강주유소",
        "distance": 1292.8437151000887,
        "walking_time": "약 20분"
      },
      {
        "gas_station_lat": 37.54211838,
        "gas_station_lon": 126.9485221,
        "gas_station_type": "주유소",
        "gas_station_name": "에스케이에너지(주) 양지주유소",
        "distance": 1354.1557721715951,
        "walking_time": "약 21분"
      },
      {
        "gas_station_lat": 37.5693078,
        "gas_station_lon": 126.9324582,
        "gas_station_type": "주유소",
        "gas_station_name": "연희주유소",
        "distance": 2012.8089663853088,
        "walking_time": "약 31분"
      }
    ],
    "hospital": [
      {
        "hospital_lat": 37.55382533,
        "hospital_lon": 126.9455145,
        "hospital_type": "병원",
        "hospital_name": "봄봄소아청소년과의원",
        "distance": 108.03179778126406,
        "walking_time": "약 2분"
      },
      {
        "hospital_lat": 37.55426128,
        "hospital_lon": 126.9456094,
        "hospital_type": "병원",
        "hospital_name": "푸른치과의원",
        "distance": 126.10207229616816,
        "walking_time": "약 2분"
      },
      {
        "hospital_lat": 37.55409147,
        "hospital_lon": 126.945685,
        "hospital_type": "병원",
        "hospital_name": "남산의원",
        "distance": 126.57853380930536,
        "walking_time": "약 2분"
      },
      {
        "hospital_lat": 37.5545234,
        "hospital_lon": 126.9466554,
        "hospital_type": "병원",
        "hospital_name": "성심한의원",
        "distance": 222.5911690651782,
        "walking_time": "약 4분"
      },
      {
        "hospital_lat": 37.55576127,
        "hospital_lon": 126.9456274,
        "hospital_type": "병원",
        "hospital_name": "서울새한치과의원",
        "distance": 245.5106634163965,
        "walking_time": "약 4분"
      },
      {
        "hospital_lat": 37.55576127,
        "hospital_lon": 126.9456274,
        "hospital_type": "병원",
        "hospital_name": "이화한의원",
        "distance": 245.5106634163965,
        "walking_time": "약 4분"
      },
      {
        "hospital_lat": 37.55573409,
        "hospital_lon": 126.9460925,
        "hospital_type": "병원",
        "hospital_name": "손창인치과의원",
        "distance": 265.214356796155,
        "walking_time": "약 4분"
      },
      {
        "hospital_lat": 37.55573409,
        "hospital_lon": 126.9460925,
        "hospital_type": "병원",
        "hospital_name": "채종찬내과의원",
        "distance": 265.214356796155,
        "walking_time": "약 4분"
      },
      {
        "hospital_lat": 37.55635786,
        "hospital_lon": 126.9443618,
        "hospital_type": "병원",
        "hospital_name": "뉴센스의원",
        "distance": 281.71428604824143,
        "walking_time": "약 5분"
      },
      {
        "hospital_lat": 37.55635786,
        "hospital_lon": 126.9443618,
        "hospital_type": "병원",
        "hospital_name": "엘리자베스경희한의원",
        "distance": 281.71428604824143,
        "walking_time": "약 5분"
      }
    ],
    "music_room": [
      {
        "music_room_lat": 37.55468333,
        "music_room_lon": 126.9466597,
        "music_room_type": "노래방",
        "music_room_name": "모닥불 노래연습장",
        "distance": 229.7462527582079,
        "walking_time": "약 4분"
      },
      {
        "music_room_lat": 37.55572416,
        "music_room_lon": 126.9464487,
        "music_room_type": "노래방",
        "music_room_name": "둘둘 노래연습장",
        "distance": 284.32562080413675,
        "walking_time": "약 5분"
      },
      {
        "music_room_lat": 37.55625489,
        "music_room_lon": 126.9467502,
        "music_room_type": "노래방",
        "music_room_name": "붕붕 노래연습장",
        "distance": 346.51798361288206,
        "walking_time": "약 6분"
      },
      {
        "music_room_lat": 37.55642122,
        "music_room_lon": 126.9467471,
        "music_room_type": "노래방",
        "music_room_name": "수 노래연습장",
        "distance": 360.9606380426233,
        "walking_time": "약 6분"
      },
      {
        "music_room_lat": 37.55645459,
        "music_room_lon": 126.9470297,
        "music_room_type": "노래방",
        "music_room_name": "열린 노래연습장",
        "distance": 379.29580392454267,
        "walking_time": "약 6분"
      },
      {
        "music_room_lat": 37.55784917,
        "music_room_lon": 126.9435637,
        "music_room_type": "노래방",
        "music_room_name": "쎄쎄노래연습장",
        "distance": 452.0119051600104,
        "walking_time": "약 7분"
      },
      {
        "music_room_lat": 37.55884584,
        "music_room_lon": 126.9433548,
        "music_room_type": "노래방",
        "music_room_name": "리코스타 코인노래연습장 이대점",
        "distance": 564.3327071681229,
        "walking_time": "약 9분"
      },
      {
        "music_room_lat": 37.55901325,
        "music_room_lon": 126.9443044,
        "music_room_type": "노래방",
        "music_room_name": "이화 코노 노래연습장",
        "distance": 576.9086753354763,
        "walking_time": "약 9분"
      },
      {
        "music_room_lat": 37.55929485,
        "music_room_lon": 126.9447608,
        "music_room_type": "노래방",
        "music_room_name": "락휴코인노래연습장 이대점",
        "distance": 609.6398148546944,
        "walking_time": "약 10분"
      },
      {
        "music_room_lat": 37.5544028,
        "music_room_lon": 126.9372048,
        "music_room_type": "노래방",
        "music_room_name": "허브 노래연습장",
        "distance": 627.789011037567,
        "walking_time": "약 10분"
      }
    ],
    "park": [
      {
        "park_lat": 37.545234,
        "park_lon": 126.95993,
        "park_type": "공원",
        "park_name": "효창근린공원",
        "distance": 1677.46035793522,
        "walking_time": "약 26분"
      }
    ],
    "park_station": [
      {
        "park_station_lat": 37.55473462,
        "park_station_lon": 126.9394176,
        "park_station_type": "주차장",
        "park_station_name": "창천중교 공영주차장",
        "distance": 441.17789460940514,
        "walking_time": "약 7분"
      },
      {
        "park_station_lat": 37.55289121,
        "park_station_lon": 126.9492327,
        "park_station_type": "주차장",
        "park_station_name": "한서 공영주차장",
        "distance": 448.00446788362,
        "walking_time": "약 7분"
      },
      {
        "park_station_lat": 37.55106386,
        "park_station_lon": 126.9364908,
        "park_station_type": "주차장",
        "park_station_name": "서강대역 환승 공영주차장",
        "distance": 752.8949139762151,
        "walking_time": "약 12분"
      },
      {
        "park_station_lat": 37.55558374,
        "park_station_lon": 126.9352179,
        "park_station_type": "주차장",
        "park_station_name": "신촌노외 공영주차장",
        "distance": 823.2040028181352,
        "walking_time": "약 13분"
      },
      {
        "park_station_lat": 37.55369411,
        "park_station_lon": 126.9341263,
        "park_station_type": "주차장",
        "park_station_name": "신촌노외 공영주차장",
        "distance": 895.9939027357319,
        "walking_time": "약 14분"
      },
      {
        "park_station_lat": 37.54198589,
        "park_station_lon": 126.9452067,
        "park_station_type": "주차장",
        "park_station_name": "염리 공영주차장",
        "distance": 1318.9326926660838,
        "walking_time": "약 20분"
      },
      {
        "park_station_lat": 37.54157795,
        "park_station_lon": 126.9499639,
        "park_station_type": "주차장",
        "park_station_name": "도화 공영주차장",
        "distance": 1450.802535917331,
        "walking_time": "약 22분"
      }
    ],
    "pc_room": [
      {
        "pc_room_lat": 37.5555623593394,
        "pc_room_lon": 126.946092732192,
        "pc_room_type": "PC방",
        "pc_room_name": "AROHA PC",
        "distance": 250.20511875821435,
        "walking_time": "약 4분"
      },
      {
        "pc_room_lat": 37.5572344939529,
        "pc_room_lon": 126.94564199236,
        "pc_room_type": "PC방",
        "pc_room_name": "PC지엥 이대역점",
        "distance": 397.43631251375456,
        "walking_time": "약 6분"
      },
      {
        "pc_room_lat": 37.5564623964348,
        "pc_room_lon": 126.939992863232,
        "pc_room_type": "PC방",
        "pc_room_name": "레드포스PC 아레나 신촌점",
        "distance": 478.985326009524,
        "walking_time": "약 8분"
      },
      {
        "pc_room_lat": 37.5588306073179,
        "pc_room_lon": 126.943901845804,
        "pc_room_type": "PC방",
        "pc_room_name": "purple PC",
        "distance": 557.6434264687795,
        "walking_time": "약 9분"
      },
      {
        "pc_room_lat": 37.5588458433014,
        "pc_room_lon": 126.943354842765,
        "pc_room_type": "PC방",
        "pc_room_name": "리코스타PC방",
        "distance": 564.3325202518665,
        "walking_time": "약 9분"
      },
      {
        "pc_room_lat": 37.5520644056727,
        "pc_room_lon": 126.936974571542,
        "pc_room_type": "PC방",
        "pc_room_name": "레드포스 PC아레나 서강대점",
        "distance": 673.8621748723614,
        "walking_time": "약 11분"
      },
      {
        "pc_room_lat": 37.5563412561961,
        "pc_room_lon": 126.937303024246,
        "pc_room_type": "PC방",
        "pc_room_name": "롤스터PC방",
        "distance": 676.4072993900969,
        "walking_time": "약 11분"
      },
      {
        "pc_room_lat": 37.5514167009969,
        "pc_room_lon": 126.93718651337,
        "pc_room_type": "PC방",
        "pc_room_name": "PC CAFE COZY",
        "distance": 680.9806887229275,
        "walking_time": "약 11분"
      },
      {
        "pc_room_lat": 37.556633214994,
        "pc_room_lon": 126.937200582487,
        "pc_room_type": "PC방",
        "pc_room_name": "갤러리 PC방",
        "distance": 698.53406123821,
        "walking_time": "약 11분"
      },
      {
        "pc_room_lat": 37.5573105128395,
        "pc_room_lon": 126.937404523407,
        "pc_room_type": "PC방",
        "pc_room_name": "아이콘 PC",
        "distance": 720.0753101326076,
        "walking_time": "약 11분"
      }
    ],
    "police_office": [
      {
        "police_office_lat": 37.55855258,
        "police_office_lon": 126.9430099,
        "police_office_type": "경찰소",
        "police_office_name": "신촌지구대",
        "distance": 537.6391111215331,
        "walking_time": "약 9분"
      },
      {
        "police_office_lat": 37.55180946,
        "police_office_lon": 126.9540398,
        "police_office_type": "경찰소",
        "police_office_name": "공덕지구대",
        "distance": 888.3130364603151,
        "walking_time": "약 14분"
      },
      {
        "police_office_lat": 37.54256134,
        "police_office_lon": 126.9430834,
        "police_office_type": "경찰소",
        "police_office_name": "용강지구대",
        "distance": 1256.9635246518455,
        "walking_time": "약 19분"
      }
    ],
    "post_office": [
      {
        "post_office_lat": 37.55146496,
        "post_office_lon": 126.94298,
        "post_office_type": "우체국",
        "post_office_name": "서강대학교우편취급국",
        "distance": 286.67486064646715,
        "walking_time": "약 5분"
      },
      {
        "post_office_lat": 37.55694048,
        "post_office_lon": 126.943879,
        "post_office_type": "우체국",
        "post_office_name": "서울신촌우체국",
        "distance": 348.3057922792842,
        "walking_time": "약 6분"
      },
      {
        "post_office_lat": 37.55462944,
        "post_office_lon": 126.9379735,
        "post_office_type": "우체국",
        "post_office_name": "서울노고산동우편취급국",
        "distance": 563.8689159611126,
        "walking_time": "약 9분"
      },
      {
        "post_office_lat": 37.54743639,
        "post_office_lon": 126.9436701,
        "post_office_type": "우체국",
        "post_office_name": "서울대흥동우편취급국",
        "distance": 712.473177540439,
        "walking_time": "약 11분"
      },
      {
        "post_office_lat": 37.55708135,
        "post_office_lon": 126.9551404,
        "post_office_type": "우체국",
        "post_office_name": "서울아현동우체국",
        "distance": 1022.8028813202956,
        "walking_time": "약 16분"
      },
      {
        "post_office_lat": 37.5496239,
        "post_office_lon": 126.9556711,
        "post_office_type": "우체국",
        "post_office_name": "서울서부지방법원우체국",
        "distance": 1106.8092582779375,
        "walking_time": "약 17분"
      },
      {
        "post_office_lat": 37.54830349,
        "post_office_lon": 126.9561562,
        "post_office_type": "우체국",
        "post_office_name": "서울공덕2동우편취급국",
        "distance": 1213.0231258462086,
        "walking_time": "약 19분"
      },
      {
        "post_office_lat": 37.54574778,
        "post_office_lon": 126.9344967,
        "post_office_type": "우체국",
        "post_office_name": "서울신수동우편취급국",
        "distance": 1245.7530393555282,
        "walking_time": "약 19분"
      },
      {
        "post_office_lat": 37.5432405,
        "post_office_lon": 126.9497967,
        "post_office_type": "우체국",
        "post_office_name": "서울마포우체국",
        "distance": 1273.168805179611,
        "walking_time": "약 20분"
      },
      {
        "post_office_lat": 37.56446452,
        "post_office_lon": 126.9502888,
        "post_office_type": "우체국",
        "post_office_name": "이화여자대학교우편취급국",
        "distance": 1295.8895230045136,
        "walking_time": "약 20분"
      }
    ],
    "public_health_center": [
      {
        "public_health_center_lat": 37.54934032,
        "public_health_center_lon": 126.9518822,
        "public_health_center_type": "보건소",
        "public_health_center_name": "아현보건지소",
        "distance": 834.7167778255803,
        "walking_time": "약 13분"
      },
      {
        "public_health_center_lat": 37.54773473,
        "public_health_center_lon": 126.9320618,
        "public_health_center_type": "보건소",
        "public_health_center_name": "서강보건지소",
        "distance": 1272.9894954210035,
        "walking_time": "약 19분"
      }
    ],
    "school": [
      {
        "school_lat": 37.5508909515504,
        "school_lon": 126.945886852057,
        "school_type": "고등학교",
        "school_name": "숭문고등학교",
        "distance": 355.36046253436206,
        "walking_time": "약 6분"
      },
      {
        "school_lat": 37.5508909515504,
        "school_lon": 126.945886852057,
        "school_type": "중학교",
        "school_name": "숭문중학교",
        "distance": 355.36046253436206,
        "walking_time": "약 6분"
      },
      {
        "school_lat": 37.5549178201995,
        "school_lon": 126.939295148137,
        "school_type": "중학교",
        "school_name": "창천중학교",
        "distance": 456.6844239945488,
        "walking_time": "약 7분"
      },
      {
        "school_lat": 37.5549178201995,
        "school_lon": 126.939295148137,
        "school_type": "초등학교",
        "school_name": "서울창천초등학교",
        "distance": 456.6844239945488,
        "walking_time": "약 7분"
      },
      {
        "school_lat": 37.5536478329572,
        "school_lon": 126.949778833645,
        "school_type": "초등학교",
        "school_name": "서울한서초등학교",
        "distance": 484.3479811983423,
        "walking_time": "약 8분"
      },
      {
        "school_lat": 37.549112429713,
        "school_lon": 126.944058506049,
        "school_type": "초등학교",
        "school_name": "서울용강초등학교",
        "distance": 524.4077176801343,
        "walking_time": "약 8분"
      },
      {
        "school_lat": 37.5501838418884,
        "school_lon": 126.948491864665,
        "school_type": "고등학교",
        "school_name": "일성여자고등학교(2년제)",
        "distance": 548.8173920927297,
        "walking_time": "약 9분"
      },
      {
        "school_lat": 37.5501838418884,
        "school_lon": 126.948491864665,
        "school_type": "중학교",
        "school_name": "일성여자중학교(2년제)",
        "distance": 548.8173920927297,
        "walking_time": "약 9분"
      },
      {
        "school_lat": 37.5579475491997,
        "school_lon": 126.948057240166,
        "school_type": "초등학교",
        "school_name": "서울대신초등학교",
        "distance": 566.1057538911693,
        "walking_time": "약 9분"
      },
      {
        "school_lat": 37.5517396875369,
        "school_lon": 126.952136379582,
        "school_type": "고등학교",
        "school_name": "한세사이버보안고등학교",
        "distance": 729.6083357902133,
        "walking_time": "약 11분"
      }
    ],
    "self_laundromat": [
      {
        "self_laundromat_lat": 37.55735805,
        "self_laundromat_lon": 126.9441565,
        "self_laundromat_type": "셀프 빨래방",
        "self_laundromat_name": "AMPM 워시큐 이대점",
        "distance": 393.0308265010892,
        "walking_time": "약 6분"
      },
      {
        "self_laundromat_lat": 37.55735805,
        "self_laundromat_lon": 126.9441565,
        "self_laundromat_type": "셀프 빨래방",
        "self_laundromat_name": "AMPM 워시큐 이대점",
        "distance": 393.0308265010892,
        "walking_time": "약 6분"
      },
      {
        "self_laundromat_lat": 37.55771008,
        "self_laundromat_lon": 126.9422991,
        "self_laundromat_type": "셀프 빨래방",
        "self_laundromat_name": "버블맨24 신촌역점",
        "distance": 466.25554952565153,
        "walking_time": "약 7분"
      },
      {
        "self_laundromat_lat": 37.55771008,
        "self_laundromat_lon": 126.9422991,
        "self_laundromat_type": "셀프 빨래방",
        "self_laundromat_name": "버블맨24 신촌역점",
        "distance": 466.25554952565153,
        "walking_time": "약 7분"
      },
      {
        "self_laundromat_lat": 37.55813101,
        "self_laundromat_lon": 126.9437627,
        "self_laundromat_type": "셀프 빨래방",
        "self_laundromat_name": "런드리익스프레스샵 이대점",
        "distance": 481.04886250499294,
        "walking_time": "약 8분"
      },
      {
        "self_laundromat_lat": 37.55813101,
        "self_laundromat_lon": 126.9437627,
        "self_laundromat_type": "셀프 빨래방",
        "self_laundromat_name": "런드리24 펭귄하우스 이대1호점",
        "distance": 481.04886250499294,
        "walking_time": "약 8분"
      },
      {
        "self_laundromat_lat": 37.55813101,
        "self_laundromat_lon": 126.9437627,
        "self_laundromat_type": "셀프 빨래방",
        "self_laundromat_name": "런드리익스프레스샵 이대점",
        "distance": 481.04886250499294,
        "walking_time": "약 8분"
      },
      {
        "self_laundromat_lat": 37.55813101,
        "self_laundromat_lon": 126.9437627,
        "self_laundromat_type": "셀프 빨래방",
        "self_laundromat_name": "런드리24 펭귄하우스 이대1호점",
        "distance": 481.04886250499294,
        "walking_time": "약 8분"
      },
      {
        "self_laundromat_lat": 37.55494795,
        "self_laundromat_lon": 126.9379781,
        "self_laundromat_type": "셀프 빨래방",
        "self_laundromat_name": "몬투노샵",
        "distance": 570.1630032436464,
        "walking_time": "약 9분"
      },
      {
        "self_laundromat_lat": 37.55494795,
        "self_laundromat_lon": 126.9379781,
        "self_laundromat_type": "셀프 빨래방",
        "self_laundromat_name": "몬투노샵",
        "distance": 570.1630032436464,
        "walking_time": "약 9분"
      }
    ],
    "subway": [
      {
        "subway_lat": 37.5565092992834,
        "subway_lon": 126.945485771834,
        "subway_type": "지하철",
        "subway_name": "2호선-이대역",
        "distance": 316.5758832445698,
        "walking_time": "약 5분"
      },
      {
        "subway_lat": 37.5477273573601,
        "subway_lon": 126.9415226828,
        "subway_type": "지하철",
        "subway_name": "6호선-대흥(서강대앞)역",
        "distance": 720.5504753159198,
        "walking_time": "약 11분"
      },
      {
        "subway_lat": 37.5553118177651,
        "subway_lon": 126.935539064832,
        "subway_type": "지하철",
        "subway_name": "2호선-신촌(지하)역",
        "distance": 788.8465375145896,
        "walking_time": "약 12분"
      },
      {
        "subway_lat": 37.5571213001608,
        "subway_lon": 126.955710653541,
        "subway_type": "지하철",
        "subway_name": "2호선-아현역",
        "distance": 1071.475253792392,
        "walking_time": "약 16분"
      },
      {
        "subway_lat": 37.5533624029594,
        "subway_lon": 126.95661326016,
        "subway_type": "지하철",
        "subway_name": "5호선-애오개역",
        "distance": 1087.6438282868723,
        "walking_time": "약 17분"
      },
      {
        "subway_lat": 37.5445267873155,
        "subway_lon": 126.951363830233,
        "subway_type": "지하철",
        "subway_name": "5호선-공덕역",
        "distance": 1207.4726078065955,
        "walking_time": "약 19분"
      },
      {
        "subway_lat": 37.5477347268018,
        "subway_lon": 126.932061794829,
        "subway_type": "지하철",
        "subway_name": "6호선-광흥창(서강)역",
        "distance": 1272.9900706269036,
        "walking_time": "약 19분"
      },
      {
        "subway_lat": 37.543526917067,
        "subway_lon": 126.951947569181,
        "subway_type": "지하철",
        "subway_name": "6호선-공덕역",
        "distance": 1329.3238616364886,
        "walking_time": "약 20분"
      }
    ],
    "supermarket": [
      {
        "supermarket_lat": 37.55396071,
        "supermarket_lon": 126.9476103,
        "supermarket_type": "마트",
        "supermarket_name": "GS THE FRESH 마포염리점",
        "distance": 293.1717029666289,
        "walking_time": "약 5분"
      },
      {
        "supermarket_lat": 37.55764636,
        "supermarket_lon": 126.944912,
        "supermarket_type": "마트",
        "supermarket_name": "예스에이피엠",
        "distance": 428.4500768809791,
        "walking_time": "약 7분"
      },
      {
        "supermarket_lat": 37.55945396,
        "supermarket_lon": 126.9465196,
        "supermarket_type": "마트",
        "supermarket_name": "GS THE FRESH 신촌이대역점",
        "distance": 656.069983738761,
        "walking_time": "약 10분"
      },
      {
        "supermarket_lat": 37.55945396,
        "supermarket_lon": 126.9465196,
        "supermarket_type": "마트",
        "supermarket_name": "GS THE FRESH 신촌이대역점",
        "distance": 656.069983738761,
        "walking_time": "약 10분"
      },
      {
        "supermarket_lat": 37.55982413,
        "supermarket_lon": 126.942387,
        "supermarket_type": "마트",
        "supermarket_name": "신촌 밀리오레",
        "distance": 687.819933135434,
        "walking_time": "약 11분"
      },
      {
        "supermarket_lat": 37.55499393,
        "supermarket_lon": 126.9360018,
        "supermarket_type": "마트",
        "supermarket_name": "정도진흥기업(주)",
        "distance": 742.0107838254728,
        "walking_time": "약 12분"
      },
      {
        "supermarket_lat": 37.55608306,
        "supermarket_lon": 126.9358449,
        "supermarket_type": "마트",
        "supermarket_name": "현대백화점 신촌점",
        "distance": 785.5702133111444,
        "walking_time": "약 12분"
      },
      {
        "supermarket_lat": 37.55032087,
        "supermarket_lon": 126.935286,
        "supermarket_type": "마트",
        "supermarket_name": "GS THE FRESH 신촌숲아이파크점",
        "distance": 884.1494485066688,
        "walking_time": "약 14분"
      },
      {
        "supermarket_lat": 37.5453842,
        "supermarket_lon": 126.940229,
        "supermarket_type": "마트",
        "supermarket_name": "롯데슈퍼 대흥점",
        "distance": 1004.504783780108,
        "walking_time": "약 15분"
      },
      {
        "supermarket_lat": 37.54506861,
        "supermarket_lon": 126.9508475,
        "supermarket_type": "마트",
        "supermarket_name": "롯데프리미엄푸드마켓 공덕점",
        "distance": 1132.3983077895211,
        "walking_time": "약 17분"
      }
    ],
    "tax_office": [
      {
        "tax_office_lat": 37.54652242,
        "tax_office_lon": 126.9394936,
        "tax_office_type": "세무서",
        "tax_office_name": "마포세무서",
        "distance": 915.4661010070506,
        "walking_time": "약 14분"
      }
    ],
    "theater": [
      {
        "theater_lat": 37.5565639285478,
        "theater_lon": 126.940328119434,
        "theater_type": "영화관",
        "theater_name": "CGV신촌아트레온",
        "distance": 463.3195984807948,
        "walking_time": "약 7분"
      },
      {
        "theater_lat": 37.5598241279561,
        "theater_lon": 126.942386979371,
        "theater_type": "영화관",
        "theater_name": "메가박스중앙(주) 신촌지점",
        "distance": 687.8201559785554,
        "walking_time": "약 11분"
      },
      {
        "theater_lat": 37.5637750959193,
        "theater_lon": 126.944090214952,
        "theater_type": "영화관",
        "theater_name": "필름포럼",
        "distance": 1106.5389305845151,
        "walking_time": "약 17분"
      },
      {
        "theater_lat": 37.5644645178259,
        "theater_lon": 126.950288837762,
        "theater_type": "영화관",
        "theater_name": "아트하우스 모모-이화?KB 시네마",
        "distance": 1295.8906607439296,
        "walking_time": "약 20분"
      },
      {
        "theater_lat": 37.5651674709792,
        "theater_lon": 126.930936157626,
        "theater_type": "영화관",
        "theater_name": "라이카시네마",
        "distance": 1725.1184950476477,
        "walking_time": "약 26분"
      }
    ],
    "university": [
      {
        "university_lat": 37.5514649610226,
        "university_lon": 126.942979960696,
        "university_type": "대학교",
        "university_name": "서강대학교",
        "distance": 286.676151263291,
        "walking_time": "약 5분"
      },
      {
        "university_lat": 37.5631740311778,
        "university_lon": 126.947807434256,
        "university_type": "대학교",
        "university_name": "이화여자대학교",
        "distance": 1084.8424095721684,
        "walking_time": "약 17분"
      },
      {
        "university_lat": 37.5429684534294,
        "university_lon": 126.947855469473,
        "university_type": "대학교",
        "university_name": "서울디지털대학교",
        "distance": 1247.4669662215083,
        "walking_time": "약 19분"
      },
      {
        "university_lat": 37.5627772025805,
        "university_lon": 126.953331564253,
        "university_type": "대학교",
        "university_name": "추계예술대학교",
        "distance": 1275.2418611946198,
        "walking_time": "약 20분"
      },
      {
        "university_lat": 37.5660508394158,
        "university_lon": 126.943916239886,
        "university_type": "대학교",
        "university_name": "연세대학교",
        "distance": 1359.8483321537478,
        "walking_time": "약 21분"
      }
    ]
  }
}