{
  "클러스터_위도": 37.508802,
  "클러스터_경도": 126.908708,
  "클러스터_level": 3.0,
  "facilities": {
    "bus": [
      {
        "bus_lat": 37.50929403,
        "bus_lon": 126.9076717,
        "bus_type": "버스정류장",
        "bus_name": "도림동자치회관",
        "distance": 106.53052696010232,
        "walking_time": "약 2분"
      },
      {
        "bus_lat": 37.5095426,
        "bus_lon": 126.9074866,
        "bus_type": "버스정류장",
        "bus_name": "도림동자치회관",
        "distance": 135.60412085939586,
        "walking_time": "약 3분"
      },
      {
        "bus_lat": 37.509355,
        "bus_lon": 126.910608,
        "bus_type": "버스정류장",
        "bus_name": "우신초등학교",
        "distance": 178.51634136319905,
        "walking_time": "약 3분"
      },
      {
        "bus_lat": 37.50958,
        "bus_lon": 126.910838,
        "bus_type": "버스정류장",
        "bus_name": "우신초등학교",
        "distance": 206.83897468620364,
        "walking_time": "약 4분"
      },
      {
        "bus_lat": 37.51088808,
        "bus_lon": 126.910017,
        "bus_type": "버스정류장",
        "bus_name": "우신사거리",
        "distance": 259.1086746608919,
        "walking_time": "약 4분"
      },
      {
        "bus_lat": 37.507364,
        "bus_lon": 126.90639,
        "bus_type": "버스정류장",
        "bus_name": "신길3동주민센터",
        "distance": 259.5635250200715,
        "walking_time": "약 4분"
      },
      {
        "bus_lat": 37.50818054,
        "bus_lon": 126.9115552,
        "bus_type": "버스정류장",
        "bus_name": "신길4동주민센터",
        "distance": 260.47611364598987,
        "walking_time": "약 4분"
      },
      {
        "bus_lat": 37.5069672,
        "bus_lon": 126.9064945,
        "bus_type": "버스정류장",
        "bus_name": "신길3동주민센터",
        "distance": 282.39316012239703,
        "walking_time": "약 5분"
      },
      {
        "bus_lat": 37.50830191,
        "bus_lon": 126.9053801,
        "bus_type": "버스정류장",
        "bus_name": "크라운사거리",
        "distance": 298.7638696428792,
        "walking_time": "약 5분"
      },
      {
        "bus_lat": 37.50913531,
        "bus_lon": 126.9051713,
        "bus_type": "버스정류장",
        "bus_name": "크라운사거리",
        "distance": 314.15300176529024,
        "walking_time": "약 5분"
      }
    ],
    "community_center": [
      {
        "community_center_lat": 37.50729949,
        "community_center_lon": 126.9077531,
        "community_center_type": "주민센터",
        "community_center_name": "신길3동 자치회관",
        "distance": 187.1027553743744,
        "walking_time": "약 3분"
      },
      {
        "community_center_lat": 37.50845067,
        "community_center_lon": 126.9113577,
        "community_center_type": "주민센터",
        "community_center_name": "신길4동 자치회관",
        "distance": 236.96365092334625,
        "walking_time": "약 4분"
      },
      {
        "community_center_lat": 37.51466633,
        "community_center_lon": 126.9093394,
        "community_center_type": "주민센터",
        "community_center_name": "영등포본동 자치회관",
        "distance": 654.4575911904407,
        "walking_time": "약 10분"
      },
      {
        "community_center_lat": 37.5016416,
        "community_center_lon": 126.905219,
        "community_center_type": "주민센터",
        "community_center_name": "신길5동 자치회관",
        "distance": 853.6130762494622,
        "walking_time": "약 13분"
      },
      {
        "community_center_lat": 37.5094934,
        "community_center_lon": 126.8959996,
        "community_center_type": "주민센터",
        "community_center_name": "도림동 자치회관",
        "distance": 1123.5911614821057,
        "walking_time": "약 17분"
      },
      {
        "community_center_lat": 37.50094613,
        "community_center_lon": 126.8990356,
        "community_center_type": "주민센터",
        "community_center_name": "대림3동 자치회관",
        "distance": 1221.0783469504684,
        "walking_time": "약 19분"
      },
      {
        "community_center_lat": 37.51710975,
        "community_center_lon": 126.8995233,
        "community_center_type": "주민센터",
        "community_center_name": "문래동 자치회관",
        "distance": 1228.6735549897612,
        "walking_time": "약 19분"
      },
      {
        "community_center_lat": 37.49545723,
        "community_center_lon": 126.905842,
        "community_center_type": "주민센터",
        "community_center_name": "대림1동 자치회관",
        "distance": 1505.2546117611128,
        "walking_time": "약 23분"
      },
      {
        "community_center_lat": 37.49273981,
        "community_center_lon": 126.8982505,
        "community_center_type": "주민센터",
        "community_center_name": "대림2동 자치회관",
        "distance": 2010.2133443697576,
        "walking_time": "약 31분"
      }
    ],
    "convenience_store": [
      {
        "convenience_store_lat": 37.50976524,
        "convenience_store_lon": 126.9078306,
        "convenience_store_type": "편의점",
        "convenience_store_name": "GS25 도림현대점",
        "distance": 132.14194827525608,
        "walking_time": "약 2분"
      },
      {
        "convenience_store_lat": 37.50779716,
        "convenience_store_lon": 126.9097979,
        "convenience_store_type": "편의점",
        "convenience_store_name": "이마트24 신길대박점",
        "distance": 147.39941179025502,
        "walking_time": "약 3분"
      },
      {
        "convenience_store_lat": 37.50698138,
        "convenience_store_lon": 126.9093155,
        "convenience_store_type": "편의점",
        "convenience_store_name": "GS25 신길행복점",
        "distance": 209.4156699281455,
        "walking_time": "약 4분"
      },
      {
        "convenience_store_lat": 37.51034489,
        "convenience_store_lon": 126.910226,
        "convenience_store_type": "편의점",
        "convenience_store_name": "GS25 영등포우신점",
        "distance": 217.62699645752187,
        "walking_time": "약 4분"
      },
      {
        "convenience_store_lat": 37.50849652,
        "convenience_store_lon": 126.9059853,
        "convenience_store_type": "편의점",
        "convenience_store_name": "세븐일레븐 신길행촌주유소점",
        "distance": 242.55051628488843,
        "walking_time": "약 4분"
      },
      {
        "convenience_store_lat": 37.50992236,
        "convenience_store_lon": 126.90588,
        "convenience_store_type": "편의점",
        "convenience_store_name": "세븐일레븐 영등포아트자이점",
        "distance": 278.8244595596188,
        "walking_time": "약 5분"
      },
      {
        "convenience_store_lat": 37.50821054,
        "convenience_store_lon": 126.905419,
        "convenience_store_type": "편의점",
        "convenience_store_name": "CU 신길도림점",
        "distance": 297.4734328365968,
        "walking_time": "약 5분"
      },
      {
        "convenience_store_lat": 37.50521912,
        "convenience_store_lon": 126.9103958,
        "convenience_store_type": "편의점",
        "convenience_store_name": "GS25 신길중앙점",
        "distance": 425.3067376649722,
        "walking_time": "약 7분"
      },
      {
        "convenience_store_lat": 37.50498194,
        "convenience_store_lon": 126.9095271,
        "convenience_store_type": "편의점",
        "convenience_store_name": "GS25 영등포프레비뉴점",
        "distance": 430.87233336181913,
        "walking_time": "약 7분"
      },
      {
        "convenience_store_lat": 37.50676295,
        "convenience_store_lon": 126.9043743,
        "convenience_store_type": "편의점",
        "convenience_store_name": "세븐일레븐 신길2호점",
        "distance": 444.4484039892823,
        "walking_time": "약 7분"
      }
    ],
    "daycare": [
      {
        "daycare_lat": 37.50920382,
        "daycare_lon": 126.907481,
        "daycare_type": "어린이집",
        "daycare_name": "새봄어린이집",
        "distance": 117.08910719378022,
        "walking_time": "약 2분"
      },
      {
        "daycare_lat": 37.50763271,
        "daycare_lon": 126.90837,
        "daycare_type": "어린이집",
        "daycare_name": "명신어린이집",
        "distance": 133.39357633041683,
        "walking_time": "약 2분"
      },
      {
        "daycare_lat": 37.5089507,
        "daycare_lon": 126.9071963,
        "daycare_type": "어린이집",
        "daycare_name": "리틀동심원어린이집",
        "distance": 134.36284254752246,
        "walking_time": "약 3분"
      },
      {
        "daycare_lat": 37.5096237,
        "daycare_lon": 126.9101432568504,
        "daycare_type": "어린이집",
        "daycare_name": "123목화어린이집",
        "distance": 156.12618165812958,
        "walking_time": "약 3분"
      },
      {
        "daycare_lat": 37.50936991,
        "daycare_lon": 126.9064414,
        "daycare_type": "어린이집",
        "daycare_name": "미루나무어린이집",
        "distance": 209.66394869521352,
        "walking_time": "약 4분"
      },
      {
        "daycare_lat": 37.5085586,
        "daycare_lon": 126.9115713,
        "daycare_type": "어린이집",
        "daycare_name": "튼튼아이어린이집",
        "distance": 254.0079982982412,
        "walking_time": "약 4분"
      },
      {
        "daycare_lat": 37.50862568,
        "daycare_lon": 126.9117128,
        "daycare_type": "어린이집",
        "daycare_name": "탄탄어린이집",
        "distance": 265.767262037204,
        "walking_time": "약 4분"
      },
      {
        "daycare_lat": 37.50708005,
        "daycare_lon": 126.9063097,
        "daycare_type": "어린이집",
        "daycare_name": "경희어린이집",
        "distance": 285.3316078957857,
        "walking_time": "약 5분"
      },
      {
        "daycare_lat": 37.50622486,
        "daycare_lon": 126.9090264,
        "daycare_type": "어린이집",
        "daycare_name": "명문어린이집",
        "distance": 287.93789099504784,
        "walking_time": "약 5분"
      },
      {
        "daycare_lat": 37.5078418,
        "daycare_lon": 126.9118136,
        "daycare_type": "어린이집",
        "daycare_name": "예승아트스쿨어린이집",
        "distance": 294.0076544805555,
        "walking_time": "약 5분"
      }
    ],
    "education": [
      {
        "education_lat": 37.51612662,
        "education_lon": 126.9121264,
        "education_type": "문화원",
        "education_name": "영등포문화원",
        "distance": 868.4782305713723,
        "walking_time": "약 13분"
      },
      {
        "education_lat": 37.51417644,
        "education_lon": 126.9010171,
        "education_type": "미술관/갤러리",
        "education_name": "공간투",
        "distance": 904.0543137617148,
        "walking_time": "약 14분"
      },
      {
        "education_lat": 37.50429681,
        "education_lon": 126.896056,
        "education_type": "도서관",
        "education_name": "대림도서관",
        "distance": 1223.2988342126237,
        "walking_time": "약 19분"
      },
      {
        "education_lat": 37.50701416,
        "education_lon": 126.8914492,
        "education_type": "도서관",
        "education_name": "구로미래도서관",
        "distance": 1535.2813107285265,
        "walking_time": "약 23분"
      },
      {
        "education_lat": 37.50818811797741,
        "education_lon": 126.89081137277203,
        "education_type": "공연장",
        "education_name": "신도림 오페라하우스",
        "distance": 1580.0798788803415,
        "walking_time": "약 24분"
      },
      {
        "education_lat": 37.51685657,
        "education_lon": 126.8908946,
        "education_type": "도서관",
        "education_name": "문래도서관",
        "distance": 1808.516146633236,
        "walking_time": "약 27분"
      },
      {
        "education_lat": 37.49865742,
        "education_lon": 126.8915436,
        "education_type": "도서관",
        "education_name": "서울특별시교육청구로도서관",
        "distance": 1888.1163339686784,
        "walking_time": "약 29분"
      },
      {
        "education_lat": 37.49662515,
        "education_lon": 126.890315,
        "education_type": "문화예술회관",
        "education_name": "구로아트밸리예술극장",
        "distance": 2113.2623728904414,
        "walking_time": "약 32분"
      }
    ],
    "electric_gas_station": [
      {
        "electric_gas_station_lat": 37.51107647,
        "electric_gas_station_lon": 126.9175847,
        "electric_gas_station_type": "전기차 충전소",
        "electric_gas_station_name": "영등포구 대신시장(공중전화부스)",
        "distance": 822.8036781527194,
        "walking_time": "약 13분"
      },
      {
        "electric_gas_station_lat": 37.49183884,
        "electric_gas_station_lon": 126.8917009,
        "electric_gas_station_type": "전기차 충전소",
        "electric_gas_station_name": "구로리공원 앞(공중전화부스)",
        "distance": 2410.1318969213016,
        "walking_time": "약 36분"
      }
    ],
    "fitness": [
      {
        "fitness_lat": 37.50705834,
        "fitness_lon": 126.9107483,
        "fitness_type": "운동시설",
        "fitness_name": "투핏 신길점",
        "distance": 264.5391282840233,
        "walking_time": "약 4분"
      },
      {
        "fitness_lat": 37.50563105,
        "fitness_lon": 126.9083858,
        "fitness_type": "운동시설",
        "fitness_name": "짐블랙 피트니스",
        "distance": 353.7371214562572,
        "walking_time": "약 6분"
      },
      {
        "fitness_lat": 37.50585598,
        "fitness_lon": 126.906481,
        "fitness_type": "운동시설",
        "fitness_name": "신길PT",
        "distance": 381.9670489195634,
        "walking_time": "약 6분"
      },
      {
        "fitness_lat": 37.50560595,
        "fitness_lon": 126.9104393,
        "fitness_type": "운동시설",
        "fitness_name": "이지휘트니스",
        "distance": 386.8075546082399,
        "walking_time": "약 6분"
      },
      {
        "fitness_lat": 37.51020338,
        "fitness_lon": 126.9034209,
        "fitness_type": "운동시설",
        "fitness_name": "더 루트짐 영등포",
        "distance": 491.6971293777723,
        "walking_time": "약 8분"
      },
      {
        "fitness_lat": 37.50513836,
        "fitness_lon": 126.9047129,
        "fitness_type": "운동시설",
        "fitness_name": "머슬베어pt 신길점",
        "distance": 538.6505031622112,
        "walking_time": "약 9분"
      },
      {
        "fitness_lat": 37.51381438,
        "fitness_lon": 126.9081031,
        "fitness_type": "운동시설",
        "fitness_name": "휴 휘트니스",
        "distance": 559.899161385303,
        "walking_time": "약 9분"
      },
      {
        "fitness_lat": 37.50708498,
        "fitness_lon": 126.9027325,
        "fitness_type": "운동시설",
        "fitness_name": "진풍헬스",
        "distance": 560.5972484457436,
        "walking_time": "약 9분"
      },
      {
        "fitness_lat": 37.51335913,
        "fitness_lon": 126.9053976,
        "fitness_type": "운동시설",
        "fitness_name": "바디피티 PT센터",
        "distance": 584.8359195730189,
        "walking_time": "약 9분"
      },
      {
        "fitness_lat": 37.51355431,
        "fitness_lon": 126.9054235,
        "fitness_type": "운동시설",
        "fitness_name": "GT휘트니스클럽",
        "distance": 602.6359782544012,
        "walking_time": "약 9분"
      }
    ],
    "gas_station": [
      {
        "gas_station_lat": 37.51001487,
        "gas_station_lon": 126.9082519,
        "gas_station_type": "주유소",
        "gas_station_name": "㈜강서오일",
        "distance": 140.7375937940022,
        "walking_time": "약 3분"
      },
      {
        "gas_station_lat": 37.50849652,
        "gas_station_lon": 126.9059853,
        "gas_station_type": "주유소",
        "gas_station_name": "행촌주유소",
        "distance": 242.55051628488843,
        "walking_time": "약 4분"
      },
      {
        "gas_station_lat": 37.50776985,
        "gas_station_lon": 126.9002568,
        "gas_station_type": "주유소",
        "gas_station_name": "도림주유소",
        "distance": 754.2388430383104,
        "walking_time": "약 12분"
      },
      {
        "gas_station_lat": 37.50373331,
        "gas_station_lon": 126.9028133,
        "gas_station_type": "주유소",
        "gas_station_name": "㈜정수에너지개발",
        "distance": 766.8286774719478,
        "walking_time": "약 12분"
      },
      {
        "gas_station_lat": 37.51532916,
        "gas_station_lon": 126.9044808,
        "gas_station_type": "주유소",
        "gas_station_name": "현대오일뱅크㈜직영 영등포현대셀프주유소",
        "distance": 815.9559165083183,
        "walking_time": "약 13분"
      },
      {
        "gas_station_lat": 37.5146713,
        "gas_station_lon": 126.9007278,
        "gas_station_type": "주유소",
        "gas_station_name": "㈜지에스이앤알 모드니주유소",
        "distance": 959.8843050219664,
        "walking_time": "약 15분"
      },
      {
        "gas_station_lat": 37.51304064,
        "gas_station_lon": 126.9183332,
        "gas_station_type": "주유소",
        "gas_station_name": "매봉주유소",
        "distance": 971.0336934019714,
        "walking_time": "약 15분"
      },
      {
        "gas_station_lat": 37.51525021,
        "gas_station_lon": 126.916967,
        "gas_station_type": "주유소",
        "gas_station_name": "SK에너지(주)신길동주유소",
        "distance": 1022.136559171944,
        "walking_time": "약 16분"
      },
      {
        "gas_station_lat": 37.50240207,
        "gas_station_lon": 126.8994644,
        "gas_station_type": "주유소",
        "gas_station_name": "현대오일뱅크㈜직영 영등포제일셀프주유소",
        "distance": 1082.2550857696433,
        "walking_time": "약 17분"
      },
      {
        "gas_station_lat": 37.49906276,
        "gas_station_lon": 126.9087927,
        "gas_station_type": "주유소",
        "gas_station_name": "지에스칼텍스㈜신길주유소",
        "distance": 1082.9798512138195,
        "walking_time": "약 17분"
      }
    ],
    "hospital": [
      {
        "hospital_lat": 37.50858386,
        "hospital_lon": 126.9106682,
        "hospital_type": "병원",
        "hospital_name": "노박의원",
        "distance": 174.5956889299703,
        "walking_time": "약 3분"
      },
      {
        "hospital_lat": 37.50858386,
        "hospital_lon": 126.9106682,
        "hospital_type": "병원",
        "hospital_name": "제일진단방사선과의원",
        "distance": 174.5956889299703,
        "walking_time": "약 3분"
      },
      {
        "hospital_lat": 37.5094674,
        "hospital_lon": 126.9066184,
        "hospital_type": "병원",
        "hospital_name": "영생한의원",
        "distance": 198.6115761753728,
        "walking_time": "약 3분"
      },
      {
        "hospital_lat": 37.51035488,
        "hospital_lon": 126.9075189,
        "hospital_type": "병원",
        "hospital_name": "하나의원",
        "distance": 202.0313317844696,
        "walking_time": "약 4분"
      },
      {
        "hospital_lat": 37.50883195,
        "hospital_lon": 126.911085,
        "hospital_type": "병원",
        "hospital_name": "유기종치과의원",
        "distance": 209.6931757107588,
        "walking_time": "약 4분"
      },
      {
        "hospital_lat": 37.50760739,
        "hospital_lon": 126.9107268,
        "hospital_type": "병원",
        "hospital_name": "재단법인한국산업보건환경연구소부설해상병원",
        "distance": 222.15960079681443,
        "walking_time": "약 4분"
      },
      {
        "hospital_lat": 37.50705834,
        "hospital_lon": 126.9107483,
        "hospital_type": "병원",
        "hospital_name": "365열린치과의원",
        "distance": 264.5391282840233,
        "walking_time": "약 4분"
      },
      {
        "hospital_lat": 37.50681763,
        "hospital_lon": 126.9108098,
        "hospital_type": "병원",
        "hospital_name": "신흥치과의원",
        "distance": 288.19869570043073,
        "walking_time": "약 5분"
      },
      {
        "hospital_lat": 37.50704489,
        "hospital_lon": 126.9112027,
        "hospital_type": "병원",
        "hospital_name": "신익순한의원",
        "distance": 294.27295719374376,
        "walking_time": "약 5분"
      },
      {
        "hospital_lat": 37.5061407,
        "hospital_lon": 126.9090227,
        "hospital_type": "병원",
        "hospital_name": "임종원한의원",
        "distance": 297.22217679378394,
        "walking_time": "약 5분"
      }
    ],
    "music_room": [
      {
        "music_room_lat": 37.50969203,
        "music_room_lon": 126.907663,
        "music_room_type": "노래방",
        "music_room_name": "월드노래연습장",
        "distance": 135.24311637172326,
        "walking_time": "약 3분"
      },
      {
        "music_room_lat": 37.51072641,
        "music_room_lon": 126.909912,
        "music_room_type": "노래방",
        "music_room_name": "쿨(Cool)노래연습장",
        "distance": 238.8884571648138,
        "walking_time": "약 4분"
      },
      {
        "music_room_lat": 37.50700296,
        "music_room_lon": 126.9102036,
        "music_room_type": "노래방",
        "music_room_name": "쥬라기노래연습장",
        "distance": 239.62757759417647,
        "walking_time": "약 4분"
      },
      {
        "music_room_lat": 37.50699831,
        "music_room_lon": 126.9103663,
        "music_room_type": "노래방",
        "music_room_name": "정원노래연습장",
        "distance": 248.23583533004123,
        "walking_time": "약 4분"
      },
      {
        "music_room_lat": 37.50722484,
        "music_room_lon": 126.9107397,
        "music_room_type": "노래방",
        "music_room_name": "달빛노래방",
        "distance": 250.74285106292936,
        "walking_time": "약 4분"
      },
      {
        "music_room_lat": 37.50667257,
        "music_room_lon": 126.9108076,
        "music_room_type": "노래방",
        "music_room_name": "센스노래연습장",
        "distance": 300.607741782061,
        "walking_time": "약 5분"
      },
      {
        "music_room_lat": 37.50870162,
        "music_room_lon": 126.905231,
        "music_room_type": "노래방",
        "music_room_name": "비엔나노래연습장",
        "distance": 306.8971317333665,
        "walking_time": "약 5분"
      },
      {
        "music_room_lat": 37.5085939,
        "music_room_lon": 126.9051754,
        "music_room_type": "노래방",
        "music_room_name": "파티파티노래연습장",
        "distance": 312.4566052433755,
        "walking_time": "약 5분"
      },
      {
        "music_room_lat": 37.50600708,
        "music_room_lon": 126.9069374,
        "music_room_type": "노래방",
        "music_room_name": "코끼리노래연습장",
        "distance": 347.8180261628949,
        "walking_time": "약 6분"
      },
      {
        "music_room_lat": 37.51198583,
        "music_room_lon": 126.9094366,
        "music_room_type": "노래방",
        "music_room_name": "자기야노래연습장",
        "distance": 359.8115170278916,
        "walking_time": "약 6분"
      }
    ],
    "outdoor_sports": [
      {
        "outdoor_sports_lat": 37.5079895530212,
        "outdoor_sports_lon": 126.890926686339,
        "outdoor_sports_type": "야외 체육시설",
        "outdoor_sports_name": "신도림테크노근린공원",
        "distance": 1571.0349625326323,
        "walking_time": "약 24분"
      },
      {
        "outdoor_sports_lat": 37.4917935272155,
        "outdoor_sports_lon": 126.895209860135,
        "outdoor_sports_type": "야외 체육시설",
        "outdoor_sports_name": "대림역 하부",
        "distance": 2234.894949122631,
        "walking_time": "약 34분"
      },
      {
        "outdoor_sports_lat": 37.4908836860729,
        "outdoor_sports_lon": 126.891610005413,
        "outdoor_sports_type": "야외 체육시설",
        "outdoor_sports_name": "구로리어린이공원",
        "distance": 2498.9664327456403,
        "walking_time": "약 38분"
      }
    ],
    "park": [
      {
        "park_lat": 37.515423,
        "park_lon": 126.910662,
        "park_type": "공원",
        "park_name": "영등포근린공원",
        "distance": 756.1256635531955,
        "walking_time": "약 12분"
      },
      {
        "park_lat": 37.519832,
        "park_lon": 126.9112668,
        "park_type": "공원",
        "park_name": "중마루근린공원",
        "distance": 1247.071559425345,
        "walking_time": "약 19분"
      },
      {
        "park_lat": 37.492333,
        "park_lon": 126.918289,
        "park_type": "공원",
        "park_name": "보라매근린공원",
        "distance": 2016.905803996292,
        "walking_time": "약 31분"
      }
    ],
    "park_station": [
      {
        "park_station_lat": 37.50811471,
        "park_station_lon": 126.907406,
        "park_station_type": "주차장",
        "park_station_name": "도림초교공영",
        "distance": 137.9490975738417,
        "walking_time": "약 3분"
      },
      {
        "park_station_lat": 37.5071576,
        "park_station_lon": 126.9116715,
        "park_station_type": "주차장",
        "park_station_name": "신길4동1마을공원 공영",
        "distance": 319.00646967710713,
        "walking_time": "약 5분"
      },
      {
        "park_station_lat": 37.50527056,
        "park_station_lon": 126.9120634,
        "park_station_type": "주차장",
        "park_station_name": "신길4동 공영주차장",
        "distance": 491.72895558280567,
        "walking_time": "약 8분"
      },
      {
        "park_station_lat": 37.51437697,
        "park_station_lon": 126.9091587,
        "park_station_type": "주차장",
        "park_station_name": "영등포본동제1공영",
        "distance": 621.181707992608,
        "walking_time": "약 10분"
      },
      {
        "park_station_lat": 37.50576543,
        "park_station_lon": 126.9148182,
        "park_station_type": "주차장",
        "park_station_name": "대신시장앞",
        "distance": 636.0008657686649,
        "walking_time": "약 10분"
      },
      {
        "park_station_lat": 37.51331747,
        "park_station_lon": 126.9140769,
        "park_station_type": "주차장",
        "park_station_name": "영등포본동제2공영",
        "distance": 690.1871775928321,
        "walking_time": "약 11분"
      },
      {
        "park_station_lat": 37.50246998,
        "park_station_lon": 126.9111248,
        "park_station_type": "주차장",
        "park_station_name": "신길6동공영",
        "distance": 735.6555366409192,
        "walking_time": "약 11분"
      },
      {
        "park_station_lat": 37.51039457,
        "park_station_lon": 126.9173087,
        "park_station_type": "주차장",
        "park_station_name": "대신시장앞",
        "distance": 779.0235587549607,
        "walking_time": "약 12분"
      },
      {
        "park_station_lat": 37.50222205,
        "park_station_lon": 126.9047983,
        "park_station_type": "주차장",
        "park_station_name": "신길5동 공영",
        "distance": 808.8643392663045,
        "walking_time": "약 13분"
      },
      {
        "park_station_lat": 37.51029411,
        "park_station_lon": 126.9186008,
        "park_station_type": "주차장",
        "park_station_name": "신길1동공영",
        "distance": 888.2336028396418,
        "walking_time": "약 14분"
      }
    ],
    "pc_room": [
      {
        "pc_room_lat": 37.5113609532519,
        "pc_room_lon": 126.909748053975,
        "pc_room_type": "PC방",
        "pc_room_name": "파우(POW) PC",
        "distance": 298.96546101814005,
        "walking_time": "약 5분"
      },
      {
        "pc_room_lat": 37.5052191180452,
        "pc_room_lon": 126.910395805911,
        "pc_room_type": "PC방",
        "pc_room_name": "사러가 PC CAFE",
        "distance": 425.3071237941746,
        "walking_time": "약 7분"
      },
      {
        "pc_room_lat": 37.5067509124905,
        "pc_room_lon": 126.90308671235,
        "pc_room_type": "PC방",
        "pc_room_name": "원투쓰리 PC CAFE",
        "distance": 545.7785232467905,
        "walking_time": "약 9분"
      },
      {
        "pc_room_lat": 37.5113180664152,
        "pc_room_lon": 126.914471892191,
        "pc_room_type": "PC방",
        "pc_room_name": "ZOOM PC방",
        "distance": 580.2999329006632,
        "walking_time": "약 9분"
      },
      {
        "pc_room_lat": 37.5145951895027,
        "pc_room_lon": 126.907525588394,
        "pc_room_type": "PC방",
        "pc_room_name": "SKY PC",
        "distance": 652.5611858475,
        "walking_time": "약 10분"
      },
      {
        "pc_room_lat": 37.5063427806294,
        "pc_room_lon": 126.901914175609,
        "pc_room_type": "PC방",
        "pc_room_name": "도깨비PC cafe 도림사거리점",
        "distance": 658.7107559338167,
        "walking_time": "약 10분"
      },
      {
        "pc_room_lat": 37.5069785540028,
        "pc_room_lon": 126.900864114112,
        "pc_room_type": "PC방",
        "pc_room_name": "NEOX PC 도림사거리점",
        "distance": 720.9871207204374,
        "walking_time": "약 11분"
      },
      {
        "pc_room_lat": 37.502181737466,
        "pc_room_lon": 126.912436125445,
        "pc_room_type": "PC방",
        "pc_room_name": "리틀세븐PC",
        "distance": 806.2567798723899,
        "walking_time": "약 13분"
      },
      {
        "pc_room_lat": 37.5170420928318,
        "pc_room_lon": 126.90781802619,
        "pc_room_type": "PC방",
        "pc_room_name": "PC 카페",
        "distance": 919.6128551120628,
        "walking_time": "약 14분"
      },
      {
        "pc_room_lat": 37.5003710511097,
        "pc_room_lon": 126.908363715093,
        "pc_room_type": "PC방",
        "pc_room_name": "제노피시방(신풍점)",
        "distance": 937.9705343606248,
        "walking_time": "약 14분"
      }
    ],
    "police_office": [
      {
        "police_office_lat": 37.51545334,
        "police_office_lon": 126.9088443,
        "police_office_type": "경찰소",
        "police_office_name": "영등포역파출소",
        "distance": 739.692964848859,
        "walking_time": "약 12분"
      },
      {
        "police_office_lat": 37.51801061,
        "police_office_lon": 126.9075138,
        "police_office_type": "경찰소",
        "police_office_name": "중앙지구대",
        "distance": 1029.35387585269,
        "walking_time": "약 16분"
      },
      {
        "police_office_lat": 37.51358216,
        "police_office_lon": 126.8976501,
        "police_office_type": "경찰소",
        "police_office_name": "문래지구대",
        "distance": 1110.7769917216451,
        "walking_time": "약 17분"
      },
      {
        "police_office_lat": 37.49909994,
        "police_office_lon": 126.9128049,
        "police_office_type": "경찰소",
        "police_office_name": "신풍지구대",
        "distance": 1137.7432656178614,
        "walking_time": "약 17분"
      },
      {
        "police_office_lat": 37.49898725,
        "police_office_lon": 126.8966377,
        "police_office_type": "경찰소",
        "police_office_name": "대림3파출소",
        "distance": 1524.708193020831,
        "walking_time": "약 23분"
      },
      {
        "police_office_lat": 37.49343055,
        "police_office_lon": 126.8987029,
        "police_office_type": "경찰소",
        "police_office_name": "대림지구대",
        "distance": 1923.655386399636,
        "walking_time": "약 29분"
      }
    ],
    "post_office": [
      {
        "post_office_lat": 37.51150632,
        "post_office_lon": 126.9130319,
        "post_office_type": "우체국",
        "post_office_name": "서울신길2동우편취급국",
        "distance": 485.6769409652383,
        "walking_time": "약 8분"
      },
      {
        "post_office_lat": 37.51653019,
        "post_office_lon": 126.9060431,
        "post_office_type": "우체국",
        "post_office_name": "서울영등포동4가우체국",
        "distance": 890.9016123759526,
        "walking_time": "약 14분"
      },
      {
        "post_office_lat": 37.50343511,
        "post_office_lon": 126.9006872,
        "post_office_type": "우체국",
        "post_office_name": "서울신길3동우편취급국",
        "distance": 925.5855356609816,
        "walking_time": "약 14분"
      },
      {
        "post_office_lat": 37.50041961,
        "post_office_lon": 126.9115445,
        "post_office_type": "우체국",
        "post_office_name": "서울신길7동우편취급국",
        "distance": 965.0790646619804,
        "walking_time": "약 15분"
      },
      {
        "post_office_lat": 37.4984417,
        "post_office_lon": 126.9079864,
        "post_office_type": "우체국",
        "post_office_name": "서울신길5동우체국",
        "distance": 1153.770057453123,
        "walking_time": "약 18분"
      },
      {
        "post_office_lat": 37.51389666,
        "post_office_lon": 126.895143,
        "post_office_type": "우체국",
        "post_office_name": "서울문래동우체국",
        "distance": 1323.8152246622046,
        "walking_time": "약 20분"
      },
      {
        "post_office_lat": 37.49415933,
        "post_office_lon": 126.9007745,
        "post_office_type": "우체국",
        "post_office_name": "서울대림1동우편취급국",
        "distance": 1772.2305667669289,
        "walking_time": "약 27분"
      }
    ],
    "school": [
      {
        "school_lat": 37.5086786949617,
        "school_lon": 126.907115425568,
        "school_type": "초등학교",
        "school_name": "서울도림초등학교",
        "distance": 141.14300867930336,
        "walking_time": "약 3분"
      },
      {
        "school_lat": 37.5098647213535,
        "school_lon": 126.911863664868,
        "school_type": "초등학교",
        "school_name": "서울우신초등학교",
        "distance": 302.3931398368392,
        "walking_time": "약 5분"
      },
      {
        "school_lat": 37.5107193620837,
        "school_lon": 126.902182504089,
        "school_type": "초등학교",
        "school_name": "서울영원초등학교",
        "distance": 613.8005008052966,
        "walking_time": "약 10분"
      },
      {
        "school_lat": 37.5036530645899,
        "school_lon": 126.905518076656,
        "school_type": "고등학교",
        "school_name": "대영고등학교",
        "distance": 637.9439484181286,
        "walking_time": "약 10분"
      },
      {
        "school_lat": 37.5034378363342,
        "school_lon": 126.905208015838,
        "school_type": "중학교",
        "school_name": "대영중학교",
        "distance": 671.6319445951978,
        "walking_time": "약 11분"
      },
      {
        "school_lat": 37.5026541997676,
        "school_lon": 126.906524398043,
        "school_type": "초등학교",
        "school_name": "서울대영초등학교",
        "distance": 710.2221633906664,
        "walking_time": "약 11분"
      },
      {
        "school_lat": 37.5123057802523,
        "school_lon": 126.915519617033,
        "school_type": "초등학교",
        "school_name": "서현초등학교",
        "distance": 716.0784323227359,
        "walking_time": "약 11분"
      },
      {
        "school_lat": 37.5149741902707,
        "school_lon": 126.913646864883,
        "school_type": "중학교",
        "school_name": "영원중학교",
        "distance": 812.8938101211479,
        "walking_time": "약 13분"
      },
      {
        "school_lat": 37.5133455931748,
        "school_lon": 126.916228547854,
        "school_type": "고등학교",
        "school_name": "장훈고등학교",
        "distance": 833.8301814744868,
        "walking_time": "약 13분"
      },
      {
        "school_lat": 37.5101719627186,
        "school_lon": 126.918122078214,
        "school_type": "초등학교",
        "school_name": "서울영신초등학교",
        "distance": 844.2321229739065,
        "walking_time": "약 13분"
      }
    ],
    "self_laundromat": [
      {
        "self_laundromat_lat": 37.51120601,
        "self_laundromat_lon": 126.9169112,
        "self_laundromat_type": "셀프 빨래방",
        "self_laundromat_name": "호텔런드리셀프빨래방",
        "distance": 771.3630495610221,
        "walking_time": "약 12분"
      },
      {
        "self_laundromat_lat": 37.51120601,
        "self_laundromat_lon": 126.9169112,
        "self_laundromat_type": "셀프 빨래방",
        "self_laundromat_name": "호텔런드리셀프빨래방",
        "distance": 771.3630495610221,
        "walking_time": "약 12분"
      },
      {
        "self_laundromat_lat": 37.50724119,
        "self_laundromat_lon": 126.898737,
        "self_laundromat_type": "셀프 빨래방",
        "self_laundromat_name": "더 런드리 셀프 빨래방 도림동점",
        "distance": 896.4759965728488,
        "walking_time": "약 14분"
      },
      {
        "self_laundromat_lat": 37.50724119,
        "self_laundromat_lon": 126.898737,
        "self_laundromat_type": "셀프 빨래방",
        "self_laundromat_name": "더 런드리 셀프 빨래방 도림동점",
        "distance": 896.4759965728488,
        "walking_time": "약 14분"
      },
      {
        "self_laundromat_lat": 37.51002008,
        "self_laundromat_lon": 126.897799,
        "self_laundromat_type": "셀프 빨래방",
        "self_laundromat_name": "셀프 코인 빨래방",
        "distance": 971.7222993976102,
        "walking_time": "약 15분"
      },
      {
        "self_laundromat_lat": 37.51002008,
        "self_laundromat_lon": 126.897799,
        "self_laundromat_type": "셀프 빨래방",
        "self_laundromat_name": "셀프 코인 빨래방",
        "distance": 971.7222993976102,
        "walking_time": "약 15분"
      },
      {
        "self_laundromat_lat": 37.51676248,
        "self_laundromat_lon": 126.9146045,
        "self_laundromat_type": "셀프 빨래방",
        "self_laundromat_name": "뽀송한빨래방",
        "distance": 1026.646008652382,
        "walking_time": "약 16분"
      },
      {
        "self_laundromat_lat": 37.51676248,
        "self_laundromat_lon": 126.9146045,
        "self_laundromat_type": "셀프 빨래방",
        "self_laundromat_name": "뽀송한빨래방",
        "distance": 1026.646008652382,
        "walking_time": "약 16분"
      },
      {
        "self_laundromat_lat": 37.51368016,
        "self_laundromat_lon": 126.9187163,
        "self_laundromat_type": "셀프 빨래방",
        "self_laundromat_name": "워시프렌즈 셀프빨래방 신길삼거리점",
        "distance": 1036.101289666103,
        "walking_time": "약 16분"
      },
      {
        "self_laundromat_lat": 37.51368016,
        "self_laundromat_lon": 126.9187163,
        "self_laundromat_type": "셀프 빨래방",
        "self_laundromat_name": "워시프렌즈 셀프빨래방 신길삼거리점",
        "distance": 1036.101289666103,
        "walking_time": "약 16분"
      }
    ],
    "subway": [
      {
        "subway_lat": 37.5001172036762,
        "subway_lon": 126.909841656125,
        "subway_type": "지하철",
        "subway_name": "7호선-신풍역",
        "distance": 970.8692141208456,
        "walking_time": "약 15분"
      },
      {
        "subway_lat": 37.5176677017212,
        "subway_lon": 126.914336937521,
        "subway_type": "지하철",
        "subway_name": "5호선-신길역",
        "distance": 1103.782018344834,
        "walking_time": "약 17분"
      },
      {
        "subway_lat": 37.5087701449787,
        "subway_lon": 126.891080501385,
        "subway_type": "지하철",
        "subway_name": "2호선-신도림역",
        "distance": 1554.863729376427,
        "walking_time": "약 24분"
      },
      {
        "subway_lat": 37.5179214637526,
        "subway_lon": 126.894763060556,
        "subway_type": "지하철",
        "subway_name": "2호선-문래역",
        "distance": 1594.0739155781375,
        "walking_time": "약 24분"
      },
      {
        "subway_lat": 37.4927430722225,
        "subway_lon": 126.896611839343,
        "subway_type": "지하철",
        "subway_name": "7호선-대림(구로구청)역",
        "distance": 2080.209033447988,
        "walking_time": "약 32분"
      },
      {
        "subway_lat": 37.4933105886136,
        "subway_lon": 126.8949461878,
        "subway_type": "지하철",
        "subway_name": "2호선-대림(구로구청)역",
        "distance": 2107.379240258287,
        "walking_time": "약 32분"
      }
    ],
    "supermarket": [
      {
        "supermarket_lat": 37.5061325,
        "supermarket_lon": 126.9096066,
        "supermarket_type": "마트",
        "supermarket_name": "홈플러스(주) 익스프레스 신길3점",
        "distance": 307.2355348729721,
        "walking_time": "약 5분"
      },
      {
        "supermarket_lat": 37.50667661,
        "supermarket_lon": 126.911387,
        "supermarket_type": "마트",
        "supermarket_name": "GS THE FRESH 신길사러가점",
        "distance": 334.2077081169508,
        "walking_time": "약 5분"
      },
      {
        "supermarket_lat": 37.50671773,
        "supermarket_lon": 126.9007733,
        "supermarket_type": "마트",
        "supermarket_name": "홈플러스(주) 익스프레스 도림점",
        "distance": 737.275451469555,
        "walking_time": "약 12분"
      },
      {
        "supermarket_lat": 37.51566803,
        "supermarket_lon": 126.907666,
        "supermarket_type": "마트",
        "supermarket_name": "롯데백화점 영등포점",
        "distance": 768.9797217816554,
        "walking_time": "약 12분"
      },
      {
        "supermarket_lat": 37.51115621,
        "supermarket_lon": 126.9175856,
        "supermarket_type": "마트",
        "supermarket_name": "대신시장",
        "distance": 825.6470862886752,
        "walking_time": "약 13분"
      },
      {
        "supermarket_lat": 37.51718997,
        "supermarket_lon": 126.9055671,
        "supermarket_type": "마트",
        "supermarket_name": "(주)신세계 타임스퀘어점",
        "distance": 972.972529968828,
        "walking_time": "약 15분"
      },
      {
        "supermarket_lat": 37.49981392,
        "supermarket_lon": 126.9096029,
        "supermarket_type": "마트",
        "supermarket_name": "(주)이마트에브리데이 신풍역점",
        "distance": 1002.5416479032076,
        "walking_time": "약 15분"
      },
      {
        "supermarket_lat": 37.51723326,
        "supermarket_lon": 126.903716,
        "supermarket_type": "마트",
        "supermarket_name": "타임스퀘어",
        "distance": 1035.7591138382336,
        "walking_time": "약 16분"
      },
      {
        "supermarket_lat": 37.51412159,
        "supermarket_lon": 126.918361,
        "supermarket_type": "마트",
        "supermarket_name": "홈플러스(주) 익스프레스 신길2점",
        "distance": 1036.7319565616056,
        "walking_time": "약 16분"
      },
      {
        "supermarket_lat": 37.51992006,
        "supermarket_lon": 126.9066547,
        "supermarket_type": "마트",
        "supermarket_name": "영신상가",
        "distance": 1249.4661436384388,
        "walking_time": "약 19분"
      }
    ],
    "tax_office": [
      {
        "tax_office_lat": 37.51361958,
        "tax_office_lon": 126.8994697,
        "tax_office_type": "세무서",
        "tax_office_name": "구로세무서",
        "distance": 975.165233539812,
        "walking_time": "약 15분"
      },
      {
        "tax_office_lat": 37.49908057,
        "tax_office_lon": 126.9198001,
        "tax_office_type": "세무서",
        "tax_office_name": "동작세무서",
        "distance": 1458.0416523123367,
        "walking_time": "약 22분"
      }
    ],
    "theater": [
      {
        "theater_lat": 37.5156680341198,
        "theater_lon": 126.907665995469,
        "theater_type": "영화관",
        "theater_name": "롯데시네마 영등포",
        "distance": 768.9802243631117,
        "walking_time": "약 12분"
      },
      {
        "theater_lat": 37.5172332566615,
        "theater_lon": 126.903715993779,
        "theater_type": "영화관",
        "theater_name": "CGV 영등포",
        "distance": 1035.7590110847298,
        "walking_time": "약 16분"
      },
      {
        "theater_lat": 37.5070438414784,
        "theater_lon": 126.890227293528,
        "theater_type": "영화관",
        "theater_name": "CINE Q 신도림점",
        "distance": 1641.8179739008713,
        "walking_time": "약 25분"
      }
    ]
  }
}