{
  "클러스터_위도": 37.481736333363,
  "클러스터_경도": 126.9341013334152,
  "클러스터_level": 3.0,
  "facilities": {
    "bus": [
      {
        "bus_lat": 37.48445247,
        "bus_lon": 126.9331483,
        "bus_type": "버스정류장",
        "bus_name": "관악우체국.에이치플러스양지병원",
        "distance": 313.5092113087772,
        "walking_time": "약 5분"
      },
      {
        "bus_lat": 37.48449815,
        "bus_lon": 126.9329882,
        "bus_type": "버스정류장",
        "bus_name": "신림역",
        "distance": 322.42432869807203,
        "walking_time": "약 5분"
      },
      {
        "bus_lat": 37.48484806,
        "bus_lon": 126.933157,
        "bus_type": "버스정류장",
        "bus_name": "관악우체국.에이치플러스양지병원",
        "distance": 355.8998489781566,
        "walking_time": "약 6분"
      },
      {
        "bus_lat": 37.48192579,
        "bus_lon": 126.9300715,
        "bus_type": "버스정류장",
        "bus_name": "신림사거리",
        "distance": 356.20925780578204,
        "walking_time": "약 6분"
      },
      {
        "bus_lat": 37.484533,
        "bus_lon": 126.936125,
        "bus_type": "버스정류장",
        "bus_name": "KT&G관악지점",
        "distance": 358.59429595909444,
        "walking_time": "약 6분"
      },
      {
        "bus_lat": 37.48158628,
        "bus_lon": 126.9299073,
        "bus_type": "버스정류장",
        "bus_name": "서원동승리교앞",
        "distance": 370.4512764570727,
        "walking_time": "약 6분"
      },
      {
        "bus_lat": 37.47864981,
        "bus_lon": 126.9323857,
        "bus_type": "버스정류장",
        "bus_name": "서원역1번출구",
        "distance": 375.1113009624816,
        "walking_time": "약 6분"
      },
      {
        "bus_lat": 37.48514319,
        "bus_lon": 126.9341383,
        "bus_type": "버스정류장",
        "bus_name": "관악우체국",
        "distance": 378.8392161192143,
        "walking_time": "약 6분"
      },
      {
        "bus_lat": 37.4827671,
        "bus_lon": 126.9296378,
        "bus_type": "버스정류장",
        "bus_name": "신림사거리",
        "distance": 410.1909657284581,
        "walking_time": "약 7분"
      },
      {
        "bus_lat": 37.48332204,
        "bus_lon": 126.9298972,
        "bus_type": "버스정류장",
        "bus_name": "신림역2번출구",
        "distance": 410.73423925722057,
        "walking_time": "약 7분"
      }
    ],
    "community_center": [
      {
        "community_center_lat": 37.47976918,
        "community_center_lon": 126.9313747,
        "community_center_type": "주민센터",
        "community_center_name": "서원동 자치회관",
        "distance": 325.1661423810329,
        "walking_time": "약 5분"
      },
      {
        "community_center_lat": 37.48161061,
        "community_center_lon": 126.9273799,
        "community_center_type": "주민센터",
        "community_center_name": "신원동 자치회관",
        "distance": 593.2540304840082,
        "walking_time": "약 9분"
      },
      {
        "community_center_lat": 37.48817585,
        "community_center_lon": 126.932778,
        "community_center_type": "주민센터",
        "community_center_name": "보라매동 자치회관",
        "distance": 725.4993724723041,
        "walking_time": "약 11분"
      },
      {
        "community_center_lat": 37.4791175,
        "community_center_lon": 126.9416407,
        "community_center_type": "주민센터",
        "community_center_name": "청룡동 자치회관",
        "distance": 726.2141379570118,
        "walking_time": "약 11분"
      },
      {
        "community_center_lat": 37.47499588,
        "community_center_lon": 126.9349996,
        "community_center_type": "주민센터",
        "community_center_name": "서림동 자치회관",
        "distance": 753.6839829849085,
        "walking_time": "약 12분"
      },
      {
        "community_center_lat": 37.48533865,
        "community_center_lon": 126.9424717,
        "community_center_type": "주민센터",
        "community_center_name": "은천동 자치회관",
        "distance": 840.1986888314273,
        "walking_time": "약 13분"
      },
      {
        "community_center_lat": 37.487396,
        "community_center_lon": 126.9271139,
        "community_center_type": "주민센터",
        "community_center_name": "신림동 자치회관",
        "distance": 881.0046508162994,
        "walking_time": "약 14분"
      },
      {
        "community_center_lat": 37.47059604,
        "community_center_lon": 126.9369573,
        "community_center_type": "주민센터",
        "community_center_name": "대학동 자치회관",
        "distance": 1264.1216170109751,
        "walking_time": "약 19분"
      },
      {
        "community_center_lat": 37.48419282,
        "community_center_lon": 126.9497511,
        "community_center_type": "주민센터",
        "community_center_name": "중앙동 자치회관",
        "distance": 1407.6443900298666,
        "walking_time": "약 22분"
      },
      {
        "community_center_lat": 37.47102189,
        "community_center_lon": 126.9216418,
        "community_center_type": "주민센터",
        "community_center_name": "난곡동 자치회관",
        "distance": 1621.2000083316177,
        "walking_time": "약 25분"
      }
    ],
    "convenience_store": [
      {
        "convenience_store_lat": 37.48232293,
        "convenience_store_lon": 126.9318787,
        "convenience_store_type": "편의점",
        "convenience_store_name": "GS25 신림서원점",
        "distance": 206.68315396931112,
        "walking_time": "약 4분"
      },
      {
        "convenience_store_lat": 37.48430771,
        "convenience_store_lon": 126.9328955,
        "convenience_store_type": "편의점",
        "convenience_store_name": "CU 양지병원점",
        "distance": 305.0791827791195,
        "walking_time": "약 5분"
      },
      {
        "convenience_store_lat": 37.48451119,
        "convenience_store_lon": 126.9339059,
        "convenience_store_type": "편의점",
        "convenience_store_name": "GS25 신림두림점",
        "distance": 309.0314875203952,
        "walking_time": "약 5분"
      },
      {
        "convenience_store_lat": 37.47929956,
        "convenience_store_lon": 126.9318211,
        "convenience_store_type": "편의점",
        "convenience_store_name": "CU 관악서원점",
        "distance": 337.4938105770112,
        "walking_time": "약 6분"
      },
      {
        "convenience_store_lat": 37.47899837,
        "convenience_store_lon": 126.9321683,
        "convenience_store_type": "편의점",
        "convenience_store_name": "미니스톱 신림본점",
        "distance": 348.97395424218814,
        "walking_time": "약 6분"
      },
      {
        "convenience_store_lat": 37.48321534,
        "convenience_store_lon": 126.9378617,
        "convenience_store_type": "편의점",
        "convenience_store_name": "GS25 관악장군점",
        "distance": 370.3260694918438,
        "walking_time": "약 6분"
      },
      {
        "convenience_store_lat": 37.48525701,
        "convenience_store_lon": 126.9333704,
        "convenience_store_type": "편의점",
        "convenience_store_name": "CU 관악우체국점",
        "distance": 396.7584452327785,
        "walking_time": "약 6분"
      },
      {
        "convenience_store_lat": 37.48285957,
        "convenience_store_lon": 126.9386315,
        "convenience_store_type": "편의점",
        "convenience_store_name": "CU 관악장군점",
        "distance": 418.7900378781043,
        "walking_time": "약 7분"
      },
      {
        "convenience_store_lat": 37.48558501,
        "convenience_store_lon": 126.934401,
        "convenience_store_type": "편의점",
        "convenience_store_name": "GS25 관악당곡점",
        "distance": 428.7693904841704,
        "walking_time": "약 7분"
      },
      {
        "convenience_store_lat": 37.48182067,
        "convenience_store_lon": 126.9292156,
        "convenience_store_type": "편의점",
        "convenience_store_name": "GS25 신림서부점",
        "distance": 431.2112325131736,
        "walking_time": "약 7분"
      }
    ],
    "daycare": [
      {
        "daycare_lat": 37.48238542,
        "daycare_lon": 126.9337224,
        "daycare_type": "어린이집",
        "daycare_name": "구립용꿈어린이집",
        "distance": 79.54395224765472,
        "walking_time": "약 2분"
      },
      {
        "daycare_lat": 37.47941916467786,
        "daycare_lon": 126.9334763246171,
        "daycare_type": "어린이집",
        "daycare_name": "구립금강어린이집",
        "distance": 263.49370324428327,
        "walking_time": "약 4분"
      },
      {
        "daycare_lat": 37.47901456,
        "daycare_lon": 126.9340291,
        "daycare_type": "어린이집",
        "daycare_name": "리라어린이집",
        "distance": 302.71450028198933,
        "walking_time": "약 5분"
      },
      {
        "daycare_lat": 37.48456729,
        "daycare_lon": 126.9345834,
        "daycare_type": "어린이집",
        "daycare_name": "은천꿈의어린이집",
        "distance": 317.6488718960444,
        "walking_time": "약 5분"
      },
      {
        "daycare_lat": 37.48209886081846,
        "daycare_lon": 126.9305117084322,
        "daycare_type": "어린이집",
        "daycare_name": "왕성어린이집",
        "distance": 319.2970025083664,
        "walking_time": "약 5분"
      },
      {
        "daycare_lat": 37.48404231,
        "daycare_lon": 126.9364192,
        "daycare_type": "어린이집",
        "daycare_name": "다온어린이집",
        "distance": 327.9889217664679,
        "walking_time": "약 5분"
      },
      {
        "daycare_lat": 37.4840772,
        "daycare_lon": 126.9364255,
        "daycare_type": "어린이집",
        "daycare_name": "구립다온어린이집",
        "distance": 331.3744294116364,
        "walking_time": "약 5분"
      },
      {
        "daycare_lat": 37.483635083116745,
        "daycare_lon": 126.9371926903611,
        "daycare_type": "어린이집",
        "daycare_name": "성우꼬마숲어린이집",
        "distance": 344.9370628541297,
        "walking_time": "약 6분"
      },
      {
        "daycare_lat": 37.47861350555325,
        "daycare_lon": 126.93503083280804,
        "daycare_type": "어린이집",
        "daycare_name": "빛나는어린이집",
        "distance": 356.797692732324,
        "walking_time": "약 6분"
      },
      {
        "daycare_lat": 37.48292163,
        "daycare_lon": 126.9384477,
        "daycare_type": "어린이집",
        "daycare_name": "내친구어린이집",
        "distance": 405.5288170865084,
        "walking_time": "약 7분"
      }
    ],
    "education": [
      {
        "education_lat": 37.49543351,
        "education_lon": 126.9405902,
        "education_type": "도서관",
        "education_name": "국사봉숲속작은도서관",
        "distance": 1627.1062201385744,
        "walking_time": "약 25분"
      },
      {
        "education_lat": 37.49379251,
        "education_lon": 126.9231084,
        "education_type": "미술관/갤러리",
        "education_name": "동작아트갤러리",
        "distance": 1654.6651451024836,
        "walking_time": "약 25분"
      },
      {
        "education_lat": 37.49925547,
        "education_lon": 126.9403722,
        "education_type": "공연장",
        "education_name": "상도어울마당 아트홀",
        "distance": 2025.0827923670488,
        "walking_time": "약 31분"
      },
      {
        "education_lat": 37.49788488,
        "education_lon": 126.9474555,
        "education_type": "도서관",
        "education_name": "약수도서관",
        "distance": 2147.6780044676584,
        "walking_time": "약 33분"
      }
    ],
    "fitness": [
      {
        "fitness_lat": 37.48261963,
        "fitness_lon": 126.9306338,
        "fitness_type": "운동시설",
        "fitness_name": "주식회사바운드 신림역점",
        "distance": 321.34587164011293,
        "walking_time": "약 5분"
      },
      {
        "fitness_lat": 37.47936716,
        "fitness_lon": 126.9317037,
        "fitness_type": "운동시설",
        "fitness_name": "Him PT",
        "distance": 337.8774462410285,
        "walking_time": "약 6분"
      },
      {
        "fitness_lat": 37.48114052,
        "fitness_lon": 126.9303107,
        "fitness_type": "운동시설",
        "fitness_name": "The Gym : 魂 (더 짐 : 혼)",
        "distance": 340.97907605312355,
        "walking_time": "약 6분"
      },
      {
        "fitness_lat": 37.47912208,
        "fitness_lon": 126.9320183,
        "fitness_type": "운동시설",
        "fitness_name": "럭키헬스클럽",
        "distance": 343.9282230981991,
        "walking_time": "약 6분"
      },
      {
        "fitness_lat": 37.48424552,
        "fitness_lon": 126.9317551,
        "fitness_type": "운동시설",
        "fitness_name": "핏라운지 신림점",
        "distance": 347.4263474219622,
        "walking_time": "약 6분"
      },
      {
        "fitness_lat": 37.47881889,
        "fitness_lon": 126.9323284,
        "fitness_type": "운동시설",
        "fitness_name": "동방짐 피트니스",
        "distance": 360.1572481143303,
        "walking_time": "약 6분"
      },
      {
        "fitness_lat": 37.48375895,
        "fitness_lon": 126.9306297,
        "fitness_type": "운동시설",
        "fitness_name": "그린짐",
        "distance": 380.0244523949321,
        "walking_time": "약 6분"
      },
      {
        "fitness_lat": 37.48369573,
        "fitness_lon": 126.9379889,
        "fitness_type": "운동시설",
        "fitness_name": "메이크타임PT",
        "distance": 406.3716551960816,
        "walking_time": "약 7분"
      },
      {
        "fitness_lat": 37.48191763,
        "fitness_lon": 126.9293784,
        "fitness_type": "운동시설",
        "fitness_name": "피티나인",
        "distance": 417.2310679855909,
        "walking_time": "약 7분"
      },
      {
        "fitness_lat": 37.48558849,
        "fitness_lon": 126.9340015,
        "fitness_type": "운동시설",
        "fitness_name": "고핏 피트니스",
        "distance": 428.4308438222472,
        "walking_time": "약 7분"
      }
    ],
    "gas_station": [
      {
        "gas_station_lat": 37.48041974,
        "gas_station_lon": 126.9306687,
        "gas_station_type": "주유소",
        "gas_station_name": "신관주유소",
        "distance": 336.4173309545119,
        "walking_time": "약 6분"
      },
      {
        "gas_station_lat": 37.4737677,
        "gas_station_lon": 126.9348256,
        "gas_station_type": "주유소",
        "gas_station_name": "유림주유소",
        "distance": 888.3735542603057,
        "walking_time": "약 14분"
      },
      {
        "gas_station_lat": 37.48233196,
        "gas_station_lon": 126.9450663,
        "gas_station_type": "주유소",
        "gas_station_name": "시몬주유소",
        "distance": 969.7918926199158,
        "walking_time": "약 15분"
      },
      {
        "gas_station_lat": 37.49159774,
        "gas_station_lon": 126.927219,
        "gas_station_type": "주유소",
        "gas_station_name": "대양석유㈜보라매주유소",
        "distance": 1253.4530226486306,
        "walking_time": "약 19분"
      },
      {
        "gas_station_lat": 37.49322282,
        "gas_station_lon": 126.9266746,
        "gas_station_type": "주유소",
        "gas_station_name": "㈜엠오티이엔지직영삼화주유소",
        "distance": 1435.5215955712629,
        "walking_time": "약 22분"
      }
    ],
    "hospital": [
      {
        "hospital_lat": 37.48449204,
        "hospital_lon": 126.9336636,
        "hospital_type": "병원",
        "hospital_name": "양지치과의원",
        "distance": 308.8452871492619,
        "walking_time": "약 5분"
      },
      {
        "hospital_lat": 37.48436933,
        "hospital_lon": 126.9325655,
        "hospital_type": "병원",
        "hospital_name": "의료법인서울효천의료재단에이치플러스양지병원",
        "distance": 322.61836329023686,
        "walking_time": "약 5분"
      },
      {
        "hospital_lat": 37.48095398,
        "hospital_lon": 126.9304184,
        "hospital_type": "병원",
        "hospital_name": "은진외과의원",
        "distance": 336.4202837523684,
        "walking_time": "약 6분"
      },
      {
        "hospital_lat": 37.47912208,
        "hospital_lon": 126.9320183,
        "hospital_type": "병원",
        "hospital_name": "서울SM치과의원",
        "distance": 343.9282230981991,
        "walking_time": "약 6분"
      },
      {
        "hospital_lat": 37.47912208,
        "hospital_lon": 126.9320183,
        "hospital_type": "병원",
        "hospital_name": "김홍내과의원",
        "distance": 343.9282230981991,
        "walking_time": "약 6분"
      },
      {
        "hospital_lat": 37.4819355,
        "hospital_lon": 126.9301852,
        "hospital_type": "병원",
        "hospital_name": "신창식이비인후과의원",
        "distance": 346.26198608631654,
        "walking_time": "약 6분"
      },
      {
        "hospital_lat": 37.48424552,
        "hospital_lon": 126.9317551,
        "hospital_type": "병원",
        "hospital_name": "관악모아한의원",
        "distance": 347.4263474219622,
        "walking_time": "약 6분"
      },
      {
        "hospital_lat": 37.48424552,
        "hospital_lon": 126.9317551,
        "hospital_type": "병원",
        "hospital_name": "예담미인의원",
        "distance": 347.4263474219622,
        "walking_time": "약 6분"
      },
      {
        "hospital_lat": 37.48257543,
        "hospital_lon": 126.9302529,
        "hospital_type": "병원",
        "hospital_name": "연세햇살정신건강의학과의원",
        "distance": 352.1627762911442,
        "walking_time": "약 6분"
      },
      {
        "hospital_lat": 37.48257543,
        "hospital_lon": 126.9302529,
        "hospital_type": "병원",
        "hospital_name": "신림연세정내과의원",
        "distance": 352.1627762911442,
        "walking_time": "약 6분"
      }
    ],
    "music_room": [
      {
        "music_room_lat": 37.48218848,
        "music_room_lon": 126.9301485,
        "music_room_type": "노래방",
        "music_room_name": "슈퍼스타코인노래연습장",
        "distance": 352.39571085956936,
        "walking_time": "약 6분"
      },
      {
        "music_room_lat": 37.4849927,
        "music_room_lon": 126.9337684,
        "music_room_type": "노래방",
        "music_room_name": "특급",
        "distance": 363.28118453281127,
        "walking_time": "약 6분"
      },
      {
        "music_room_lat": 37.48498494,
        "music_room_lon": 126.9335883,
        "music_room_type": "노래방",
        "music_room_name": "SBS동영상",
        "distance": 364.0539824458011,
        "walking_time": "약 6분"
      },
      {
        "music_room_lat": 37.48161744,
        "music_room_lon": 126.929723,
        "music_room_type": "노래방",
        "music_room_name": "샛별노래연습장",
        "distance": 386.5637461992703,
        "walking_time": "약 6분"
      },
      {
        "music_room_lat": 37.48482123,
        "music_room_lon": 126.9320091,
        "music_room_type": "노래방",
        "music_room_name": "파티 노래연습장",
        "distance": 389.547807311198,
        "walking_time": "약 6분"
      },
      {
        "music_room_lat": 37.48416732,
        "music_room_lon": 126.9308488,
        "music_room_type": "노래방",
        "music_room_name": "짱 노래연습장",
        "distance": 394.2521617479516,
        "walking_time": "약 6분"
      },
      {
        "music_room_lat": 37.47874195,
        "music_room_lon": 126.9315526,
        "music_room_type": "노래방",
        "music_room_name": "007",
        "distance": 401.7995451285776,
        "walking_time": "약 6분"
      },
      {
        "music_room_lat": 37.48248929,
        "music_room_lon": 126.9296275,
        "music_room_type": "노래방",
        "music_room_name": "뮤직스테이션",
        "distance": 403.5430282490331,
        "walking_time": "약 7분"
      },
      {
        "music_room_lat": 37.48345475,
        "music_room_lon": 126.9299829,
        "music_room_type": "노래방",
        "music_room_name": "스타버스코인노래연습장 신림2호점",
        "distance": 410.57373842009696,
        "walking_time": "약 7분"
      },
      {
        "music_room_lat": 37.4846683,
        "music_room_lon": 126.9311766,
        "music_room_type": "노래방",
        "music_room_name": "뮤직비 노래연습장",
        "distance": 415.79856944184905,
        "walking_time": "약 7분"
      }
    ],
    "park": [
      {
        "park_lat": 37.492299,
        "park_lon": 126.9385469,
        "park_type": "공원",
        "park_name": "상도근린공원",
        "distance": 1238.2807577768551,
        "walking_time": "약 19분"
      }
    ],
    "park_station": [
      {
        "park_station_lat": 37.48685341,
        "park_station_lon": 126.9331906,
        "park_station_type": "주차장",
        "park_station_name": "봉천복개3 공영주차장",
        "distance": 574.6394954704292,
        "walking_time": "약 9분"
      },
      {
        "park_station_lat": 37.48271916,
        "park_station_lon": 126.9275934,
        "park_station_type": "주차장",
        "park_station_name": "서원동제1공영",
        "distance": 584.552718220253,
        "walking_time": "약 9분"
      },
      {
        "park_station_lat": 37.48462415,
        "park_station_lon": 126.9252587,
        "park_station_type": "주차장",
        "park_station_name": "신림동제2공영",
        "distance": 843.7383458655614,
        "walking_time": "약 13분"
      },
      {
        "park_station_lat": 37.4848902,
        "park_station_lon": 126.9221482,
        "park_station_type": "주차장",
        "park_station_name": "남부초등학교",
        "distance": 1111.4791466352888,
        "walking_time": "약 17분"
      },
      {
        "park_station_lat": 37.48736362,
        "park_station_lon": 126.9234863,
        "park_station_type": "주차장",
        "park_station_name": "신림동공영주차장",
        "distance": 1126.404584002835,
        "walking_time": "약 17분"
      },
      {
        "park_station_lat": 37.49193146,
        "park_station_lon": 126.9331501,
        "park_station_type": "주차장",
        "park_station_name": "당곡중학교공영 ",
        "distance": 1136.7489820378623,
        "walking_time": "약 17분"
      },
      {
        "park_station_lat": 37.49330922,
        "park_station_lon": 126.9336841,
        "park_station_type": "주차장",
        "park_station_name": "빙수골장미",
        "distance": 1287.3727353940596,
        "walking_time": "약 20분"
      },
      {
        "park_station_lat": 37.490363,
        "park_station_lon": 126.9232398,
        "park_station_type": "주차장",
        "park_station_name": "보라매상업 공영주차장",
        "distance": 1355.941738419134,
        "walking_time": "약 21분"
      },
      {
        "park_station_lat": 37.47001309,
        "park_station_lon": 126.9293131,
        "park_station_type": "주차장",
        "park_station_name": "원신공영주차장",
        "distance": 1370.3363547537128,
        "walking_time": "약 21분"
      },
      {
        "park_station_lat": 37.47224069,
        "park_station_lon": 126.923162,
        "park_station_type": "주차장",
        "park_station_name": "난곡동제1공영주차장",
        "distance": 1430.636189707536,
        "walking_time": "약 22분"
      }
    ],
    "pc_room": [
      {
        "pc_room_lat": 37.4840824266542,
        "pc_room_lon": 126.937097299683,
        "pc_room_type": "PC방",
        "pc_room_name": "에이스피시방",
        "distance": 371.4010822651687,
        "walking_time": "약 6분"
      },
      {
        "pc_room_lat": 37.4837589483107,
        "pc_room_lon": 126.930629680819,
        "pc_room_type": "PC방",
        "pc_room_name": "레벨업 PC카페",
        "distance": 380.025705493282,
        "walking_time": "약 6분"
      },
      {
        "pc_room_lat": 37.4837589483107,
        "pc_room_lon": 126.930629680819,
        "pc_room_type": "PC방",
        "pc_room_name": "레벨업플러스",
        "distance": 380.025705493282,
        "walking_time": "약 6분"
      },
      {
        "pc_room_lat": 37.4848212281323,
        "pc_room_lon": 126.932009130194,
        "pc_room_type": "PC방",
        "pc_room_name": "썬PC",
        "distance": 389.5463618356412,
        "walking_time": "약 6분"
      },
      {
        "pc_room_lat": 37.4828969433377,
        "pc_room_lon": 126.929546648038,
        "pc_room_type": "PC방",
        "pc_room_name": "SNS PC방",
        "distance": 422.1074244105719,
        "walking_time": "약 7분"
      },
      {
        "pc_room_lat": 37.4850497000506,
        "pc_room_lon": 126.931500008304,
        "pc_room_type": "PC방",
        "pc_room_name": "한수PC",
        "distance": 434.07969571757206,
        "walking_time": "약 7분"
      },
      {
        "pc_room_lat": 37.4852226853822,
        "pc_room_lon": 126.931021236392,
        "pc_room_type": "PC방",
        "pc_room_name": "골드PC게임장",
        "distance": 473.4410352609171,
        "walking_time": "약 8분"
      },
      {
        "pc_room_lat": 37.4776103633224,
        "pc_room_lon": 126.936542759177,
        "pc_room_type": "PC방",
        "pc_room_name": "신림 PC",
        "distance": 506.8501412170066,
        "walking_time": "약 8분"
      },
      {
        "pc_room_lat": 37.4851501707989,
        "pc_room_lon": 126.929977240424,
        "pc_room_type": "PC방",
        "pc_room_name": "SNS PC",
        "distance": 525.8487931439525,
        "walking_time": "약 8분"
      },
      {
        "pc_room_lat": 37.4815767925511,
        "pc_room_lon": 126.928063159676,
        "pc_room_type": "PC방",
        "pc_room_name": "인터파크秀",
        "distance": 533.0948521837995,
        "walking_time": "약 8분"
      }
    ],
    "police_office": [
      {
        "police_office_lat": 37.48401647,
        "police_office_lon": 126.9333173,
        "police_office_type": "경찰소",
        "police_office_name": "신림지구대",
        "distance": 262.8085408476551,
        "walking_time": "약 4분"
      },
      {
        "police_office_lat": 37.48600685,
        "police_office_lon": 126.9343644,
        "police_office_type": "경찰소",
        "police_office_name": "당곡지구대",
        "distance": 475.4267640092938,
        "walking_time": "약 8분"
      },
      {
        "police_office_lat": 37.4738594,
        "police_office_lon": 126.9352631,
        "police_office_type": "경찰소",
        "police_office_name": "관악산지구대",
        "distance": 881.8542839489734,
        "walking_time": "약 14분"
      },
      {
        "police_office_lat": 37.48735272,
        "police_office_lon": 126.9454289,
        "police_office_type": "경찰소",
        "police_office_name": "구암지구대",
        "distance": 1178.5567777490314,
        "walking_time": "약 18분"
      },
      {
        "police_office_lat": 37.49856527,
        "police_office_lon": 126.920574,
        "police_office_type": "경찰소",
        "police_office_name": "대방파출소",
        "distance": 2219.49739122181,
        "walking_time": "약 34분"
      }
    ],
    "post_office": [
      {
        "post_office_lat": 37.48501424,
        "post_office_lon": 126.9331367,
        "post_office_type": "우체국",
        "post_office_name": "서울관악우체국",
        "distance": 374.2929145536417,
        "walking_time": "약 6분"
      },
      {
        "post_office_lat": 37.48066748,
        "post_office_lon": 126.9284834,
        "post_office_type": "우체국",
        "post_office_name": "서울신림동부우편취급국",
        "distance": 509.7696610403042,
        "walking_time": "약 8분"
      },
      {
        "post_office_lat": 37.48227075,
        "post_office_lon": 126.9412539,
        "post_office_type": "우체국",
        "post_office_name": "서울봉천역전우편취급국",
        "distance": 633.9204571480744,
        "walking_time": "약 10분"
      },
      {
        "post_office_lat": 37.48582895,
        "post_office_lon": 126.9416713,
        "post_office_type": "우체국",
        "post_office_name": "서울은천동우체국",
        "distance": 808.2357438643454,
        "walking_time": "약 13분"
      },
      {
        "post_office_lat": 37.47864491,
        "post_office_lon": 126.947376,
        "post_office_type": "우체국",
        "post_office_name": "서울청룡동우편취급국",
        "distance": 1220.7575250943737,
        "walking_time": "약 19분"
      },
      {
        "post_office_lat": 37.49121134,
        "post_office_lon": 126.9249903,
        "post_office_type": "우체국",
        "post_office_name": "서울보라매우편취급국",
        "distance": 1325.238975057615,
        "walking_time": "약 20분"
      },
      {
        "post_office_lat": 37.49791931,
        "post_office_lon": 126.9245212,
        "post_office_type": "우체국",
        "post_office_name": "서울동작우체국",
        "distance": 1988.092584522116,
        "walking_time": "약 30분"
      },
      {
        "post_office_lat": 37.49941236,
        "post_office_lon": 126.9437362,
        "post_office_type": "우체국",
        "post_office_name": "서울동작약수우편취급국",
        "distance": 2141.4340481288623,
        "walking_time": "약 32분"
      }
    ],
    "public_health_center": [
      {
        "public_health_center_lat": 37.48784455,
        "public_health_center_lon": 126.932302,
        "public_health_center_type": "보건소",
        "public_health_center_name": "관악구보건지소",
        "distance": 697.5114903554977,
        "walking_time": "약 11분"
      },
      {
        "public_health_center_lat": 37.49961665,
        "public_health_center_lon": 126.9242845,
        "public_health_center_type": "보건소",
        "public_health_center_name": "동작구보건지소",
        "distance": 2168.66371043519,
        "walking_time": "약 33분"
      }
    ],
    "school": [
      {
        "school_lat": 37.4802012453571,
        "school_lon": 126.934452241482,
        "school_type": "중학교",
        "school_name": "신관중학교",
        "distance": 173.47969338764258,
        "walking_time": "약 3분"
      },
      {
        "school_lat": 37.4811981682395,
        "school_lon": 126.937702673305,
        "school_type": "중학교",
        "school_name": "봉림중학교",
        "distance": 323.3630699154613,
        "walking_time": "약 5분"
      },
      {
        "school_lat": 37.4810297131995,
        "school_lon": 126.942570541831,
        "school_type": "초등학교",
        "school_name": "서울관악초등학교",
        "distance": 751.4324771823191,
        "walking_time": "약 12분"
      },
      {
        "school_lat": 37.4771198534832,
        "school_lon": 126.926876735629,
        "school_type": "초등학교",
        "school_name": "서울신림초등학교",
        "distance": 818.4875612436181,
        "walking_time": "약 13분"
      },
      {
        "school_lat": 37.4865852040387,
        "school_lon": 126.942679132637,
        "school_type": "초등학교",
        "school_name": "서울은천초등학교",
        "distance": 929.2748964132096,
        "walking_time": "약 14분"
      },
      {
        "school_lat": 37.4901681154487,
        "school_lon": 126.930369788237,
        "school_type": "초등학교",
        "school_name": "서울당곡초등학교",
        "distance": 993.7020646246464,
        "walking_time": "약 15분"
      },
      {
        "school_lat": 37.4878154195732,
        "school_lon": 126.943760849751,
        "school_type": "고등학교",
        "school_name": "서울관광고등학교",
        "distance": 1087.8199213495054,
        "walking_time": "약 17분"
      },
      {
        "school_lat": 37.472003312266,
        "school_lon": 126.936754150323,
        "school_type": "초등학교",
        "school_name": "서울신성초등학교",
        "distance": 1107.2908585938465,
        "walking_time": "약 17분"
      },
      {
        "school_lat": 37.4917603442825,
        "school_lon": 126.934246405052,
        "school_type": "고등학교",
        "school_name": "당곡고등학교",
        "distance": 1114.6926528237243,
        "walking_time": "약 17분"
      },
      {
        "school_lat": 37.4851194359099,
        "school_lon": 126.922183775699,
        "school_type": "초등학교",
        "school_name": "서울남부초등학교",
        "distance": 1116.8253139966046,
        "walking_time": "약 17분"
      }
    ],
    "subway": [
      {
        "subway_lat": 37.4842176141092,
        "subway_lon": 126.92980331103,
        "subway_type": "지하철",
        "subway_name": "2호선-신림역",
        "distance": 468.98871049151614,
        "walking_time": "약 7분"
      },
      {
        "subway_lat": 37.4825562153548,
        "subway_lon": 126.941495272047,
        "subway_type": "지하철",
        "subway_name": "2호선-봉천역",
        "distance": 658.7648208699298,
        "walking_time": "약 10분"
      },
      {
        "subway_lat": 37.4997218266711,
        "subway_lon": 126.928222967016,
        "subway_type": "지하철",
        "subway_name": "7호선-신대방삼거리역",
        "distance": 2066.050619719962,
        "walking_time": "약 31분"
      },
      {
        "subway_lat": 37.499910050321,
        "subway_lon": 126.920489390309,
        "subway_type": "지하철",
        "subway_name": "7호선-보라매역",
        "distance": 2350.7480344062965,
        "walking_time": "약 36분"
      }
    ],
    "supermarket": [
      {
        "supermarket_lat": 37.48385134,
        "supermarket_lon": 126.9302345,
        "supermarket_type": "마트",
        "supermarket_name": "타임스트림",
        "distance": 414.39730087455393,
        "walking_time": "약 7분"
      },
      {
        "supermarket_lat": 37.48476254,
        "supermarket_lon": 126.9300965,
        "supermarket_type": "마트",
        "supermarket_name": "르네상스쇼핑몰(주)",
        "distance": 487.95901739684814,
        "walking_time": "약 8분"
      },
      {
        "supermarket_lat": 37.4755685,
        "supermarket_lon": 126.9328111,
        "supermarket_type": "마트",
        "supermarket_name": "신림현대종합상가",
        "distance": 695.2177405923611,
        "walking_time": "약 11분"
      },
      {
        "supermarket_lat": 37.48665276,
        "supermarket_lon": 126.9392236,
        "supermarket_type": "마트",
        "supermarket_name": "GS THE FRESH 관악은천점",
        "distance": 709.3194553326737,
        "walking_time": "약 11분"
      },
      {
        "supermarket_lat": 37.48629672,
        "supermarket_lon": 126.9412497,
        "supermarket_type": "마트",
        "supermarket_name": "(주)이마트에브리데이 봉천동점",
        "distance": 809.3064577935841,
        "walking_time": "약 13분"
      },
      {
        "supermarket_lat": 37.48658496,
        "supermarket_lon": 126.9465719,
        "supermarket_type": "마트",
        "supermarket_name": "봉천현대시장",
        "distance": 1225.3324991336558,
        "walking_time": "약 19분"
      },
      {
        "supermarket_lat": 37.47048117,
        "supermarket_lon": 126.9344768,
        "supermarket_type": "마트",
        "supermarket_name": "일성트루엘상가",
        "distance": 1251.9555758126007,
        "walking_time": "약 19분"
      },
      {
        "supermarket_lat": 37.48615809,
        "supermarket_lon": 126.9472386,
        "supermarket_type": "마트",
        "supermarket_name": "홈플러스 익스프레스 봉천점",
        "distance": 1259.1421209951843,
        "walking_time": "약 19분"
      },
      {
        "supermarket_lat": 37.49049549,
        "supermarket_lon": 126.9249817,
        "supermarket_type": "마트",
        "supermarket_name": "롯데쇼핑(주) 관악점",
        "distance": 1263.3664034985943,
        "walking_time": "약 19분"
      },
      {
        "supermarket_lat": 37.47933913,
        "supermarket_lon": 126.9490155,
        "supermarket_type": "마트",
        "supermarket_name": "(주)지에스리테일 관악점",
        "distance": 1342.747719917808,
        "walking_time": "약 21분"
      }
    ],
    "tax_office": [
      {
        "tax_office_lat": 37.47933644,
        "tax_office_lon": 126.9243295,
        "tax_office_type": "세무서",
        "tax_office_name": "관악세무서",
        "distance": 902.6147246924196,
        "walking_time": "약 14분"
      }
    ],
    "theater": [
      {
        "theater_lat": 37.4838513393186,
        "theater_lon": 126.930234545397,
        "theater_type": "영화관",
        "theater_name": "롯데시네마 신림",
        "distance": 414.3939597422198,
        "walking_time": "약 7분"
      }
    ]
  }
}