{
  "클러스터_위도": 37.48805442864104,
  "클러스터_경도": 126.91704185695303,
  "클러스터_level": 3.0,
  "facilities": {
    "bus": [
      {
        "bus_lat": 37.4891229,
        "bus_lon": 126.9174897,
        "bus_type": "버스정류장",
        "bus_name": "보라매공원입구",
        "distance": 125.20697546581326,
        "walking_time": "약 2분"
      },
      {
        "bus_lat": 37.48943527,
        "bus_lon": 126.9178011,
        "bus_type": "버스정류장",
        "bus_name": "보라매공원입구",
        "distance": 167.51933104246282,
        "walking_time": "약 3분"
      },
      {
        "bus_lat": 37.48769406,
        "bus_lon": 126.9146116,
        "bus_type": "버스정류장",
        "bus_name": "신사동진양빌딩앞",
        "distance": 218.13653715947368,
        "walking_time": "약 4분"
      },
      {
        "bus_lat": 37.489233,
        "bus_lon": 126.919247,
        "bus_type": "버스정류장",
        "bus_name": "우방아파트",
        "distance": 234.58079937651425,
        "walking_time": "약 4분"
      },
      {
        "bus_lat": 37.4855926,
        "bus_lon": 126.9178057,
        "bus_type": "버스정류장",
        "bus_name": "신사동주민센터.신사시장",
        "distance": 281.91724859302565,
        "walking_time": "약 5분"
      },
      {
        "bus_lat": 37.48644841,
        "bus_lon": 126.9136841,
        "bus_type": "버스정류장",
        "bus_name": "신대방역",
        "distance": 345.92197557320486,
        "walking_time": "약 6분"
      },
      {
        "bus_lat": 37.48749918,
        "bus_lon": 126.9130147,
        "bus_type": "버스정류장",
        "bus_name": "신대방역",
        "distance": 360.6454867549167,
        "walking_time": "약 6분"
      },
      {
        "bus_lat": 37.48636536,
        "bus_lon": 126.9134841,
        "bus_type": "버스정류장",
        "bus_name": "신대방역",
        "distance": 365.8045684647325,
        "walking_time": "약 6분"
      },
      {
        "bus_lat": 37.48676868,
        "bus_lon": 126.9129713,
        "bus_type": "버스정류장",
        "bus_name": "신대방역",
        "distance": 386.5623339082837,
        "walking_time": "약 6분"
      },
      {
        "bus_lat": 37.48832724,
        "bus_lon": 126.9214263,
        "bus_type": "버스정류장",
        "bus_name": "은천성결교회",
        "distance": 388.0305723279724,
        "walking_time": "약 6분"
      }
    ],
    "community_center": [
      {
        "community_center_lat": 37.48595224,
        "community_center_lon": 126.9191029,
        "community_center_type": "주민센터",
        "community_center_name": "신사동 자치회관",
        "distance": 296.15857017125563,
        "walking_time": "약 5분"
      },
      {
        "community_center_lat": 37.48894469,
        "community_center_lon": 126.9100394,
        "community_center_type": "주민센터",
        "community_center_name": "신대방1동 자치회관",
        "distance": 625.7102835130177,
        "walking_time": "약 10분"
      },
      {
        "community_center_lat": 37.487396,
        "community_center_lon": 126.9271139,
        "community_center_type": "주민센터",
        "community_center_name": "신림동 자치회관",
        "distance": 891.6809178275262,
        "walking_time": "약 14분"
      },
      {
        "community_center_lat": 37.48256328,
        "community_center_lon": 126.9077947,
        "community_center_type": "주민센터",
        "community_center_name": "조원동 자치회관",
        "distance": 1019.085838808884,
        "walking_time": "약 16분"
      },
      {
        "community_center_lat": 37.48161061,
        "community_center_lon": 126.9273799,
        "community_center_type": "주민센터",
        "community_center_name": "신원동 자치회관",
        "distance": 1159.9413870273709,
        "walking_time": "약 18분"
      },
      {
        "community_center_lat": 37.49545723,
        "community_center_lon": 126.905842,
        "community_center_type": "주민센터",
        "community_center_name": "대림1동 자치회관",
        "distance": 1286.0692658289618,
        "walking_time": "약 20분"
      },
      {
        "community_center_lat": 37.47617498,
        "community_center_lon": 126.9155517,
        "community_center_type": "주민센터",
        "community_center_name": "미성동 자치회관",
        "distance": 1327.4626009554063,
        "walking_time": "약 20분"
      },
      {
        "community_center_lat": 37.49841253,
        "community_center_lon": 126.924544,
        "community_center_type": "주민센터",
        "community_center_name": "신대방2동 자치회관",
        "distance": 1328.4010937310472,
        "walking_time": "약 20분"
      },
      {
        "community_center_lat": 37.47516041,
        "community_center_lon": 126.9031745,
        "community_center_type": "주민센터",
        "community_center_name": "독산3동 자치회관",
        "distance": 1884.919801576176,
        "walking_time": "약 29분"
      },
      {
        "community_center_lat": 37.47102189,
        "community_center_lon": 126.9216418,
        "community_center_type": "주민센터",
        "community_center_name": "난곡동 자치회관",
        "distance": 1936.9398090186144,
        "walking_time": "약 29분"
      }
    ],
    "convenience_store": [
      {
        "convenience_store_lat": 37.48893143,
        "convenience_store_lon": 126.9169041,
        "convenience_store_type": "편의점",
        "convenience_store_name": "CU 관악신사로점",
        "distance": 98.27262397719188,
        "walking_time": "약 2분"
      },
      {
        "convenience_store_lat": 37.48790223,
        "convenience_store_lon": 126.9151564,
        "convenience_store_type": "편의점",
        "convenience_store_name": "세븐일레븐 신대방행복점",
        "distance": 167.21450534568,
        "walking_time": "약 3분"
      },
      {
        "convenience_store_lat": 37.48907561,
        "convenience_store_lon": 126.9196756,
        "convenience_store_type": "편의점",
        "convenience_store_name": "세븐일레븐 신림한양점",
        "distance": 258.63548280070194,
        "walking_time": "약 4분"
      },
      {
        "convenience_store_lat": 37.48573609,
        "convenience_store_lon": 126.9181821,
        "convenience_store_type": "편의점",
        "convenience_store_name": "CU 신림4동점",
        "distance": 276.723732627973,
        "walking_time": "약 5분"
      },
      {
        "convenience_store_lat": 37.48593026,
        "convenience_store_lon": 126.9150082,
        "convenience_store_type": "편의점",
        "convenience_store_name": "GS25 신림신사점",
        "distance": 296.62351627804844,
        "walking_time": "약 5분"
      },
      {
        "convenience_store_lat": 37.48501945,
        "convenience_store_lon": 126.9155289,
        "convenience_store_type": "편의점",
        "convenience_store_name": "세븐일레븐 관악청솔점",
        "distance": 362.9174428192458,
        "walking_time": "약 6분"
      },
      {
        "convenience_store_lat": 37.48657738,
        "convenience_store_lon": 126.9209957,
        "convenience_store_type": "편의점",
        "convenience_store_name": "CU 관악네잎클로버점",
        "distance": 385.5834700058098,
        "walking_time": "약 6분"
      },
      {
        "convenience_store_lat": 37.4850622,
        "convenience_store_lon": 126.9142181,
        "convenience_store_type": "편의점",
        "convenience_store_name": "미니스톱 신대방역점",
        "distance": 415.665329521395,
        "walking_time": "약 7분"
      },
      {
        "convenience_store_lat": 37.4878029,
        "convenience_store_lon": 126.9217692,
        "convenience_store_type": "편의점",
        "convenience_store_name": "GS25 신림관천로점",
        "distance": 418.0354741364784,
        "walking_time": "약 7분"
      },
      {
        "convenience_store_lat": 37.48774748,
        "convenience_store_lon": 126.9122604,
        "convenience_store_type": "편의점",
        "convenience_store_name": "GS25 신대방본점",
        "distance": 423.251903102709,
        "walking_time": "약 7분"
      }
    ],
    "daycare": [
      {
        "daycare_lat": 37.48687049,
        "daycare_lon": 126.9175488,
        "daycare_type": "어린이집",
        "daycare_name": "조은어린이집",
        "distance": 139.03891898431186,
        "walking_time": "약 3분"
      },
      {
        "daycare_lat": 37.48846321347776,
        "daycare_lon": 126.91864227820253,
        "daycare_type": "어린이집",
        "daycare_name": "구립해뜨는어린이집",
        "distance": 148.34207312304986,
        "walking_time": "약 3분"
      },
      {
        "daycare_lat": 37.48886468,
        "daycare_lon": 126.9188476,
        "daycare_type": "어린이집",
        "daycare_name": "해뜨는어린이집",
        "distance": 183.0317892682651,
        "walking_time": "약 3분"
      },
      {
        "daycare_lat": 37.48598974602752,
        "daycare_lon": 126.9170574792566,
        "daycare_type": "어린이집",
        "daycare_name": "훈세어린이집",
        "distance": 229.58636957999747,
        "walking_time": "약 4분"
      },
      {
        "daycare_lat": 37.4863452,
        "daycare_lon": 126.9151666,
        "daycare_type": "어린이집",
        "daycare_name": "구립새빛어린이집",
        "distance": 251.9883062237116,
        "walking_time": "약 4분"
      },
      {
        "daycare_lat": 37.48584497,
        "daycare_lon": 126.91618475242583,
        "daycare_type": "어린이집",
        "daycare_name": "소하어린이집",
        "distance": 257.0563869392638,
        "walking_time": "약 4분"
      },
      {
        "daycare_lat": 37.48584136,
        "daycare_lon": 126.9161848,
        "daycare_type": "어린이집",
        "daycare_name": "구립소하어린이집",
        "distance": 257.43883102400736,
        "walking_time": "약 4분"
      },
      {
        "daycare_lat": 37.48625944,
        "daycare_lon": 126.9148812,
        "daycare_type": "어린이집",
        "daycare_name": "하나어린이집",
        "distance": 276.00889220820795,
        "walking_time": "약 5분"
      },
      {
        "daycare_lat": 37.48779998876579,
        "daycare_lon": 126.92117805374444,
        "daycare_type": "어린이집",
        "daycare_name": "구립신사어린이집",
        "distance": 366.0363629990367,
        "walking_time": "약 6분"
      },
      {
        "daycare_lat": 37.48522394313062,
        "daycare_lon": 126.91974480527745,
        "daycare_type": "어린이집",
        "daycare_name": "리라키즈스쿨어린이집",
        "distance": 394.8862884061184,
        "walking_time": "약 6분"
      }
    ],
    "education": [
      {
        "education_lat": 37.4808823,
        "education_lon": 126.9182364,
        "education_type": "박물관/기념관",
        "education_name": "호림박물관(신림본관)",
        "distance": 804.4392193307206,
        "walking_time": "약 13분"
      },
      {
        "education_lat": 37.49379251,
        "education_lon": 126.9231084,
        "education_type": "미술관/갤러리",
        "education_name": "동작아트갤러리",
        "distance": 832.8146121182212,
        "walking_time": "약 13분"
      },
      {
        "education_lat": 37.48606517,
        "education_lon": 126.9058854,
        "education_type": "도서관",
        "education_name": "신대방누리도서관",
        "distance": 1008.9046118646348,
        "walking_time": "약 16분"
      }
    ],
    "electric_gas_station": [
      {
        "electric_gas_station_lat": 37.48105867,
        "electric_gas_station_lon": 126.9057171,
        "electric_gas_station_type": "전기차 충전소",
        "electric_gas_station_name": "조원동 제1공영주차장",
        "distance": 1266.3333715837562,
        "walking_time": "약 19분"
      }
    ],
    "fitness": [
      {
        "fitness_lat": 37.48681825,
        "fitness_lon": 126.9178756,
        "fitness_type": "운동시설",
        "fitness_name": "프리원핏 신림점",
        "distance": 155.9032460233822,
        "walking_time": "약 3분"
      },
      {
        "fitness_lat": 37.48790223,
        "fitness_lon": 126.9151564,
        "fitness_type": "운동시설",
        "fitness_name": "비더원 PT 신대방역점",
        "distance": 167.21450534568,
        "walking_time": "약 3분"
      },
      {
        "fitness_lat": 37.48721974,
        "fitness_lon": 126.914066,
        "fitness_type": "운동시설",
        "fitness_name": "더 스테이 짐(The Stay Gym)",
        "distance": 278.4856489495286,
        "walking_time": "약 5분"
      },
      {
        "fitness_lat": 37.48711721,
        "fitness_lon": 126.9139589,
        "fitness_type": "운동시설",
        "fitness_name": "이너핏",
        "distance": 291.29396088908913,
        "walking_time": "약 5분"
      },
      {
        "fitness_lat": 37.48525479,
        "fitness_lon": 126.9169215,
        "fitness_type": "운동시설",
        "fitness_name": "짐엑스 신사시장점",
        "distance": 311.48668794593385,
        "walking_time": "약 5분"
      },
      {
        "fitness_lat": 37.48497625,
        "fitness_lon": 126.916872,
        "fitness_type": "운동시설",
        "fitness_name": "짐엑스 신대방점",
        "distance": 342.6057999275447,
        "walking_time": "약 6분"
      },
      {
        "fitness_lat": 37.48670096,
        "fitness_lon": 126.9133541,
        "fitness_type": "운동시설",
        "fitness_name": "파운드 짐",
        "distance": 358.4973102113929,
        "walking_time": "약 6분"
      },
      {
        "fitness_lat": 37.48591345,
        "fitness_lon": 126.9134476,
        "fitness_type": "운동시설",
        "fitness_name": "유얼스짐PT 신대방역점",
        "distance": 396.5430952995342,
        "walking_time": "약 6분"
      },
      {
        "fitness_lat": 37.49109691,
        "fitness_lon": 126.9118137,
        "fitness_type": "운동시설",
        "fitness_name": "짐퍼스트 헬스(우성점)",
        "distance": 572.0386241242682,
        "walking_time": "약 9분"
      },
      {
        "fitness_lat": 37.49109691,
        "fitness_lon": 126.9118137,
        "fitness_type": "운동시설",
        "fitness_name": "짐퍼스트 동작점",
        "distance": 572.0386241242682,
        "walking_time": "약 9분"
      }
    ],
    "gas_station": [
      {
        "gas_station_lat": 37.48302235,
        "gas_station_lon": 126.9188525,
        "gas_station_type": "주유소",
        "gas_station_name": "씨제이대한통운(주)",
        "distance": 581.9021708588456,
        "walking_time": "약 9분"
      },
      {
        "gas_station_lat": 37.4824162,
        "gas_station_lon": 126.9194521,
        "gas_station_type": "주유소",
        "gas_station_name": "현대오일뱅크㈜직영관악셀프주유소",
        "distance": 662.0299682247775,
        "walking_time": "약 10분"
      },
      {
        "gas_station_lat": 37.49159774,
        "gas_station_lon": 126.927219,
        "gas_station_type": "주유소",
        "gas_station_name": "대양석유㈜보라매주유소",
        "distance": 980.556637877174,
        "walking_time": "약 15분"
      },
      {
        "gas_station_lat": 37.48708383,
        "gas_station_lon": 126.9056392,
        "gas_station_type": "주유소",
        "gas_station_name": "현대오일뱅크㈜직영신대방셀프주유소",
        "distance": 1011.8463555820576,
        "walking_time": "약 16분"
      },
      {
        "gas_station_lat": 37.49322282,
        "gas_station_lon": 126.9266746,
        "gas_station_type": "주유소",
        "gas_station_name": "㈜엠오티이엔지직영삼화주유소",
        "distance": 1025.9481574730182,
        "walking_time": "약 16분"
      },
      {
        "gas_station_lat": 37.47786965,
        "gas_station_lon": 126.9143629,
        "gas_station_type": "주유소",
        "gas_station_name": "문성골주유소",
        "distance": 1156.9025511222549,
        "walking_time": "약 18분"
      },
      {
        "gas_station_lat": 37.49838192,
        "gas_station_lon": 126.9197833,
        "gas_station_type": "주유소",
        "gas_station_name": "한경석유㈜경덕주유소",
        "distance": 1173.5583912548811,
        "walking_time": "약 18분"
      },
      {
        "gas_station_lat": 37.48020575,
        "gas_station_lon": 126.9075034,
        "gas_station_type": "주유소",
        "gas_station_name": "현대오일뱅크(주)직영 금천제일주유소",
        "distance": 1212.438471831372,
        "walking_time": "약 19분"
      },
      {
        "gas_station_lat": 37.49906276,
        "gas_station_lon": 126.9087927,
        "gas_station_type": "주유소",
        "gas_station_name": "지에스칼텍스㈜신길주유소",
        "distance": 1424.081804464288,
        "walking_time": "약 22분"
      },
      {
        "gas_station_lat": 37.47341197,
        "gas_station_lon": 126.9188013,
        "gas_station_type": "주유소",
        "gas_station_name": "난곡주유소",
        "distance": 1635.5523592684267,
        "walking_time": "약 25분"
      }
    ],
    "hospital": [
      {
        "hospital_lat": 37.48559444,
        "hospital_lon": 126.9173959,
        "hospital_type": "병원",
        "hospital_name": "신사경희한의원",
        "distance": 275.3161733459356,
        "walking_time": "약 5분"
      },
      {
        "hospital_lat": 37.48577621,
        "hospital_lon": 126.9183603,
        "hospital_type": "병원",
        "hospital_name": "남산당한의원",
        "distance": 278.75929810955336,
        "walking_time": "약 5분"
      },
      {
        "hospital_lat": 37.48711721,
        "hospital_lon": 126.9139589,
        "hospital_type": "병원",
        "hospital_name": "제니스치과의원",
        "distance": 291.29396088908913,
        "walking_time": "약 5분"
      },
      {
        "hospital_lat": 37.48705007,
        "hospital_lon": 126.9138032,
        "hospital_type": "병원",
        "hospital_name": "조용진치과의원",
        "distance": 306.8002852456312,
        "walking_time": "약 5분"
      },
      {
        "hospital_lat": 37.48527979,
        "hospital_lon": 126.9172397,
        "hospital_type": "병원",
        "hospital_name": "생일체질한의원",
        "distance": 309.0191767384581,
        "walking_time": "약 5분"
      },
      {
        "hospital_lat": 37.48527979,
        "hospital_lon": 126.9172397,
        "hospital_type": "병원",
        "hospital_name": "서울최치과의원",
        "distance": 309.0191767384581,
        "walking_time": "약 5분"
      },
      {
        "hospital_lat": 37.48525479,
        "hospital_lon": 126.9169215,
        "hospital_type": "병원",
        "hospital_name": "경희호강한의원",
        "distance": 311.48668794593385,
        "walking_time": "약 5분"
      },
      {
        "hospital_lat": 37.48525479,
        "hospital_lon": 126.9169215,
        "hospital_type": "병원",
        "hospital_name": "호강한의원",
        "distance": 311.48668794593385,
        "walking_time": "약 5분"
      },
      {
        "hospital_lat": 37.48685667,
        "hospital_lon": 126.9137523,
        "hospital_type": "병원",
        "hospital_name": "신대방서울하이안치과의원",
        "distance": 319.3418975141874,
        "walking_time": "약 5분"
      },
      {
        "hospital_lat": 37.48685667,
        "hospital_lon": 126.9137523,
        "hospital_type": "병원",
        "hospital_name": "예찬한의원",
        "distance": 319.3418975141874,
        "walking_time": "약 5분"
      }
    ],
    "music_room": [
      {
        "music_room_lat": 37.48692769,
        "music_room_lon": 126.9178206,
        "music_room_type": "노래방",
        "music_room_name": "뉴월드",
        "distance": 142.89164254006766,
        "walking_time": "약 3분"
      },
      {
        "music_room_lat": 37.48685327,
        "music_room_lon": 126.9151572,
        "music_room_type": "노래방",
        "music_room_name": "하이난노래연습장",
        "distance": 213.28430516570708,
        "walking_time": "약 4분"
      },
      {
        "music_room_lat": 37.48711721,
        "music_room_lon": 126.9139589,
        "music_room_type": "노래방",
        "music_room_name": "오렌지",
        "distance": 291.29396088908913,
        "walking_time": "약 5분"
      },
      {
        "music_room_lat": 37.48705007,
        "music_room_lon": 126.9138032,
        "music_room_type": "노래방",
        "music_room_name": "뉴팡팡노래연습장",
        "distance": 306.8002852456312,
        "walking_time": "약 5분"
      },
      {
        "music_room_lat": 37.48685667,
        "music_room_lon": 126.9137523,
        "music_room_type": "노래방",
        "music_room_name": "빅토리",
        "distance": 319.3418975141874,
        "walking_time": "약 5분"
      },
      {
        "music_room_lat": 37.48665047,
        "music_room_lon": 126.913799,
        "music_room_type": "노래방",
        "music_room_name": "고고노래연습장",
        "distance": 325.94130941581017,
        "walking_time": "약 5분"
      },
      {
        "music_room_lat": 37.48670096,
        "music_room_lon": 126.9133541,
        "music_room_type": "노래방",
        "music_room_name": "특급",
        "distance": 358.4973102113929,
        "walking_time": "약 6분"
      },
      {
        "music_room_lat": 37.48609441,
        "music_room_lon": 126.9134881,
        "music_room_type": "노래방",
        "music_room_name": "가수코인노래연습장",
        "distance": 381.8595742735097,
        "walking_time": "약 6분"
      },
      {
        "music_room_lat": 37.486596,
        "music_room_lon": 126.9130076,
        "music_room_type": "노래방",
        "music_room_name": "우정 노래연습장",
        "distance": 391.15138115651087,
        "walking_time": "약 6분"
      },
      {
        "music_room_lat": 37.48565711,
        "music_room_lon": 126.9135543,
        "music_room_type": "노래방",
        "music_room_name": "좋은노래연습장",
        "distance": 407.1218685555718,
        "walking_time": "약 7분"
      }
    ],
    "outdoor_sports": [
      {
        "outdoor_sports_lat": 37.4854463023684,
        "outdoor_sports_lon": 126.900861931696,
        "outdoor_sports_type": "야외 체육시설",
        "outdoor_sports_name": "구로디지털단지역 하부",
        "distance": 1456.7549764888045,
        "walking_time": "약 22분"
      }
    ],
    "park": [
      {
        "park_lat": 37.492333,
        "park_lon": 126.918289,
        "park_type": "공원",
        "park_name": "보라매근린공원",
        "distance": 488.3140367584257,
        "walking_time": "약 8분"
      },
      {
        "park_lat": 37.4734274,
        "park_lon": 126.9090028,
        "park_type": "공원",
        "park_name": "만수천공원(관악산)",
        "distance": 1774.412677231854,
        "walking_time": "약 27분"
      }
    ],
    "park_station": [
      {
        "park_station_lat": 37.48671106,
        "park_station_lon": 126.9172636,
        "park_station_type": "주차장",
        "park_station_name": "관악신사시장 공영주차장",
        "distance": 150.65159669153346,
        "walking_time": "약 3분"
      },
      {
        "park_station_lat": 37.48823393,
        "park_station_lon": 126.914468,
        "park_station_type": "주차장",
        "park_station_name": "신대방역 공영주차장",
        "distance": 227.9690976165128,
        "walking_time": "약 4분"
      },
      {
        "park_station_lat": 37.48445914,
        "park_station_lon": 126.9154432,
        "park_station_type": "주차장",
        "park_station_name": "신사동 제1공영주차장",
        "distance": 423.9324183545016,
        "walking_time": "약 7분"
      },
      {
        "park_station_lat": 37.4848902,
        "park_station_lon": 126.9221482,
        "park_station_type": "주차장",
        "park_station_name": "남부초등학교",
        "distance": 571.6541697702514,
        "walking_time": "약 9분"
      },
      {
        "park_station_lat": 37.48736362,
        "park_station_lon": 126.9234863,
        "park_station_type": "주차장",
        "park_station_name": "신림동공영주차장",
        "distance": 573.7672403461374,
        "walking_time": "약 9분"
      },
      {
        "park_station_lat": 37.490363,
        "park_station_lon": 126.9232398,
        "park_station_type": "주차장",
        "park_station_name": "보라매상업 공영주차장",
        "distance": 604.0959593413148,
        "walking_time": "약 10분"
      },
      {
        "park_station_lat": 37.48878109,
        "park_station_lon": 126.9078473,
        "park_station_type": "주차장",
        "park_station_name": "서광주차장",
        "distance": 815.2548364496012,
        "walking_time": "약 13분"
      },
      {
        "park_station_lat": 37.48462415,
        "park_station_lon": 126.9252587,
        "park_station_type": "주차장",
        "park_station_name": "신림동제2공영",
        "distance": 819.2123024442905,
        "walking_time": "약 13분"
      },
      {
        "park_station_lat": 37.48271916,
        "park_station_lon": 126.9275934,
        "park_station_type": "주차장",
        "park_station_name": "서원동제1공영",
        "distance": 1103.9582456571145,
        "walking_time": "약 17분"
      },
      {
        "park_station_lat": 37.48343065,
        "park_station_lon": 126.9046863,
        "park_station_type": "주차장",
        "park_station_name": "조원동제2공영",
        "distance": 1205.332199870738,
        "walking_time": "약 18분"
      }
    ],
    "pc_room": [
      {
        "pc_room_lat": 37.48531038244,
        "pc_room_lon": 126.915905394653,
        "pc_room_type": "PC방",
        "pc_room_name": "신사PC",
        "distance": 321.17805643839563,
        "walking_time": "약 5분"
      },
      {
        "pc_room_lat": 37.4850367672133,
        "pc_room_lon": 126.918506808414,
        "pc_room_type": "PC방",
        "pc_room_name": "수 PC방",
        "distance": 359.5833527925488,
        "walking_time": "약 6분"
      },
      {
        "pc_room_lat": 37.4859134542249,
        "pc_room_lon": 126.91344763033,
        "pc_room_type": "PC방",
        "pc_room_name": "긱스타 PC(GEEK STAR PC CAFE)",
        "distance": 396.540673098105,
        "walking_time": "약 6분"
      },
      {
        "pc_room_lat": 37.4875450336519,
        "pc_room_lon": 126.910352130654,
        "pc_room_type": "PC방",
        "pc_room_name": "번개 PC방",
        "distance": 592.9546796007539,
        "walking_time": "약 9분"
      },
      {
        "pc_room_lat": 37.4826647658698,
        "pc_room_lon": 126.914793328054,
        "pc_room_type": "PC방",
        "pc_room_name": "뉴왕PC게임랜드",
        "distance": 631.2888929868062,
        "walking_time": "약 10분"
      },
      {
        "pc_room_lat": 37.4825193028191,
        "pc_room_lon": 126.915238397077,
        "pc_room_type": "PC방",
        "pc_room_name": "라이또PC",
        "distance": 635.715687107324,
        "walking_time": "약 10분"
      },
      {
        "pc_room_lat": 37.4828463447803,
        "pc_room_lon": 126.913958485406,
        "pc_room_type": "PC방",
        "pc_room_name": "언니PC",
        "distance": 639.8336086459676,
        "walking_time": "약 10분"
      },
      {
        "pc_room_lat": 37.4825000535711,
        "pc_room_lon": 126.91503253072,
        "pc_room_type": "PC방",
        "pc_room_name": "타임PC랜드",
        "distance": 642.5610033606334,
        "walking_time": "약 10분"
      },
      {
        "pc_room_lat": 37.4823520999904,
        "pc_room_lon": 126.915650135223,
        "pc_room_type": "PC방",
        "pc_room_name": "인터라켄PC방",
        "distance": 645.8514142403669,
        "walking_time": "약 10분"
      },
      {
        "pc_room_lat": 37.483063810931,
        "pc_room_lon": 126.913046035227,
        "pc_room_type": "PC방",
        "pc_room_name": "본PC",
        "distance": 657.4590010900878,
        "walking_time": "약 10분"
      }
    ],
    "police_office": [
      {
        "police_office_lat": 37.4872985,
        "police_office_lon": 126.9142051,
        "police_office_type": "경찰소",
        "police_office_name": "신사지구대",
        "distance": 264.0283177919258,
        "walking_time": "약 4분"
      },
      {
        "police_office_lat": 37.47992421,
        "police_office_lon": 126.9156105,
        "police_office_type": "경찰소",
        "police_office_name": "미성파출소",
        "distance": 912.8184580862988,
        "walking_time": "약 14분"
      },
      {
        "police_office_lat": 37.48664583,
        "police_office_lon": 126.9059471,
        "police_office_type": "경찰소",
        "police_office_name": "신대방지구대",
        "distance": 991.361879970898,
        "walking_time": "약 15분"
      },
      {
        "police_office_lat": 37.49856527,
        "police_office_lon": 126.920574,
        "police_office_type": "경찰소",
        "police_office_name": "대방파출소",
        "distance": 1209.582725797618,
        "walking_time": "약 19분"
      },
      {
        "police_office_lat": 37.49909994,
        "police_office_lon": 126.9128049,
        "police_office_type": "경찰소",
        "police_office_name": "신풍지구대",
        "distance": 1283.8286235012977,
        "walking_time": "약 20분"
      }
    ],
    "post_office": [
      {
        "post_office_lat": 37.48501945,
        "post_office_lon": 126.9155289,
        "post_office_type": "우체국",
        "post_office_name": "서울관악신사동우편취급국",
        "distance": 362.9174428192458,
        "walking_time": "약 6분"
      },
      {
        "post_office_lat": 37.49121134,
        "post_office_lon": 126.9249903,
        "post_office_type": "우체국",
        "post_office_name": "서울보라매우편취급국",
        "distance": 784.2341461344628,
        "walking_time": "약 12분"
      },
      {
        "post_office_lat": 37.47854878,
        "post_office_lon": 126.9149155,
        "post_office_type": "우체국",
        "post_office_name": "서울난곡우체국",
        "distance": 1073.5030107014072,
        "walking_time": "약 17분"
      },
      {
        "post_office_lat": 37.48967148,
        "post_office_lon": 126.9045668,
        "post_office_type": "우체국",
        "post_office_name": "서울대림동우체국",
        "distance": 1115.2647034827935,
        "walking_time": "약 17분"
      },
      {
        "post_office_lat": 37.49791931,
        "post_office_lon": 126.9245212,
        "post_office_type": "우체국",
        "post_office_name": "서울동작우체국",
        "distance": 1280.104405658968,
        "walking_time": "약 20분"
      },
      {
        "post_office_lat": 37.48066748,
        "post_office_lon": 126.9284834,
        "post_office_type": "우체국",
        "post_office_name": "서울신림동부우편취급국",
        "distance": 1301.4882119201618,
        "walking_time": "약 20분"
      },
      {
        "post_office_lat": 37.4984417,
        "post_office_lon": 126.9079864,
        "post_office_type": "우체국",
        "post_office_name": "서울신길5동우체국",
        "distance": 1404.392975985384,
        "walking_time": "약 21분"
      },
      {
        "post_office_lat": 37.49415933,
        "post_office_lon": 126.9007745,
        "post_office_type": "우체국",
        "post_office_name": "서울대림1동우편취급국",
        "distance": 1587.6680328147354,
        "walking_time": "약 24분"
      }
    ],
    "public_health_center": [
      {
        "public_health_center_lat": 37.49961665,
        "public_health_center_lon": 126.9242845,
        "public_health_center_type": "보건소",
        "public_health_center_name": "동작구보건지소",
        "distance": 1435.6924805347485,
        "walking_time": "약 22분"
      }
    ],
    "school": [
      {
        "school_lat": 37.4889482943857,
        "school_lon": 126.914528045959,
        "school_type": "초등학교",
        "school_name": "서울문창초등학교",
        "distance": 243.04714091509285,
        "walking_time": "약 4분"
      },
      {
        "school_lat": 37.4851194359099,
        "school_lon": 126.922183775699,
        "school_type": "초등학교",
        "school_name": "서울남부초등학교",
        "distance": 558.8728871645579,
        "walking_time": "약 9분"
      },
      {
        "school_lat": 37.4928014552579,
        "school_lon": 126.914907105304,
        "school_type": "고등학교",
        "school_name": "수도여자고등학교",
        "distance": 560.4414021202894,
        "walking_time": "약 9분"
      },
      {
        "school_lat": 37.4928014552579,
        "school_lon": 126.914907105304,
        "school_type": "고등학교",
        "school_name": "수도여자고등학교부설방송통신고등학교",
        "distance": 560.4414021202894,
        "walking_time": "약 9분"
      },
      {
        "school_lat": 37.4821362472153,
        "school_lon": 126.921037135349,
        "school_type": "중학교",
        "school_name": "남서울중학교",
        "distance": 746.5451633291008,
        "walking_time": "약 12분"
      },
      {
        "school_lat": 37.484127765974,
        "school_lon": 126.909505620969,
        "school_type": "초등학교",
        "school_name": "서울조원초등학교",
        "distance": 795.4846308973079,
        "walking_time": "약 12분"
      },
      {
        "school_lat": 37.4958518874539,
        "school_lon": 126.916144507788,
        "school_type": "초등학교",
        "school_name": "서울보라매초등학교",
        "distance": 870.6448867747084,
        "walking_time": "약 13분"
      },
      {
        "school_lat": 37.4807283676946,
        "school_lon": 126.920957326353,
        "school_type": "고등학교",
        "school_name": "성보고등학교",
        "distance": 884.8532712929585,
        "walking_time": "약 14분"
      },
      {
        "school_lat": 37.4807283676946,
        "school_lon": 126.920957326353,
        "school_type": "중학교",
        "school_name": "성보중학교",
        "distance": 884.8532712929585,
        "walking_time": "약 14분"
      },
      {
        "school_lat": 37.4954367843295,
        "school_lon": 126.91301619957,
        "school_type": "중학교",
        "school_name": "대방중학교",
        "distance": 894.42194625362,
        "walking_time": "약 14분"
      }
    ],
    "self_laundromat": [
      {
        "self_laundromat_lat": 37.49878935,
        "self_laundromat_lon": 126.917808,
        "self_laundromat_type": "셀프 빨래방",
        "self_laundromat_name": "이지셀프빨래방",
        "distance": 1195.5810133751309,
        "walking_time": "약 18분"
      },
      {
        "self_laundromat_lat": 37.49878935,
        "self_laundromat_lon": 126.917808,
        "self_laundromat_type": "셀프 빨래방",
        "self_laundromat_name": "이지셀프빨래방",
        "distance": 1195.5810133751309,
        "walking_time": "약 18분"
      }
    ],
    "subway": [
      {
        "subway_lat": 37.4875759745635,
        "subway_lon": 126.913175585996,
        "subway_type": "지하철",
        "subway_name": "2호선-신대방역",
        "distance": 345.2496727677692,
        "walking_time": "약 6분"
      },
      {
        "subway_lat": 37.4842176141092,
        "subway_lon": 126.92980331103,
        "subway_type": "지하철",
        "subway_name": "2호선-신림역",
        "distance": 1204.1004465568976,
        "walking_time": "약 18분"
      },
      {
        "subway_lat": 37.499910050321,
        "subway_lon": 126.920489390309,
        "subway_type": "지하철",
        "subway_name": "7호선-보라매역",
        "distance": 1352.9174474297515,
        "walking_time": "약 21분"
      },
      {
        "subway_lat": 37.4853149237865,
        "subway_lon": 126.901494378412,
        "subway_type": "지하철",
        "subway_name": "2호선-구로디지털단지역",
        "distance": 1405.209087807277,
        "walking_time": "약 21분"
      },
      {
        "subway_lat": 37.4997218266711,
        "subway_lon": 126.928222967016,
        "subway_type": "지하철",
        "subway_name": "7호선-신대방삼거리역",
        "distance": 1629.785702044159,
        "walking_time": "약 25분"
      }
    ],
    "supermarket": [
      {
        "supermarket_lat": 37.48314523,
        "supermarket_lon": 126.9114212,
        "supermarket_type": "마트",
        "supermarket_name": "신림중앙시장",
        "distance": 737.5172330383099,
        "walking_time": "약 12분"
      },
      {
        "supermarket_lat": 37.49049549,
        "supermarket_lon": 126.9249817,
        "supermarket_type": "마트",
        "supermarket_name": "롯데쇼핑(주) 관악점",
        "distance": 751.2766686080189,
        "walking_time": "약 12분"
      },
      {
        "supermarket_lat": 37.49732616,
        "supermarket_lon": 126.9130959,
        "supermarket_type": "마트",
        "supermarket_name": "홈플러스(주) 익스프레스 신길점",
        "distance": 1088.1614720434045,
        "walking_time": "약 17분"
      },
      {
        "supermarket_lat": 37.49637821,
        "supermarket_lon": 126.9080933,
        "supermarket_type": "마트",
        "supermarket_name": "썬프라자",
        "distance": 1216.5398979302888,
        "walking_time": "약 19분"
      },
      {
        "supermarket_lat": 37.49981392,
        "supermarket_lon": 126.9096029,
        "supermarket_type": "마트",
        "supermarket_name": "(주)이마트에브리데이 신풍역점",
        "distance": 1463.0548703918469,
        "walking_time": "약 22분"
      },
      {
        "supermarket_lat": 37.47428544,
        "supermarket_lon": 126.9180585,
        "supermarket_type": "마트",
        "supermarket_name": "(주)천성세이브마트",
        "distance": 1533.6675320094782,
        "walking_time": "약 23분"
      },
      {
        "supermarket_lat": 37.49995131,
        "supermarket_lon": 126.9295592,
        "supermarket_type": "마트",
        "supermarket_name": "(주)이마트에브리데이 대방동점",
        "distance": 1723.2342047778943,
        "walking_time": "약 26분"
      },
      {
        "supermarket_lat": 37.47806807,
        "supermarket_lon": 126.9014441,
        "supermarket_type": "마트",
        "supermarket_name": "푸른터시장",
        "distance": 1768.4044957570854,
        "walking_time": "약 27분"
      },
      {
        "supermarket_lat": 37.47029785,
        "supermarket_lon": 126.9204441,
        "supermarket_type": "마트",
        "supermarket_name": "우림시장",
        "distance": 1997.1355648512897,
        "walking_time": "약 30분"
      }
    ],
    "tax_office": [
      {
        "tax_office_lat": 37.47933644,
        "tax_office_lon": 126.9243295,
        "tax_office_type": "세무서",
        "tax_office_name": "관악세무서",
        "distance": 1163.280167652135,
        "walking_time": "약 18분"
      },
      {
        "tax_office_lat": 37.49908057,
        "tax_office_lon": 126.9198001,
        "tax_office_type": "세무서",
        "tax_office_name": "동작세무서",
        "distance": 1249.9670230534666,
        "walking_time": "약 19분"
      }
    ],
    "theater": [
      {
        "theater_lat": 37.4864917793931,
        "theater_lon": 126.905526238207,
        "theater_type": "영화관",
        "theater_name": "롯데시네마 신대방",
        "distance": 1030.7955000601848,
        "walking_time": "약 16분"
      }
    ]
  }
}