{
  "클러스터_위도": 37.542726,
  "클러스터_경도": 127.06872,
  "클러스터_level": 3.0,
  "facilities": {
    "bus": [
      {
        "bus_lat": 37.54111501,
        "bus_lon": 127.0675636,
        "bus_type": "버스정류장",
        "bus_name": "건국대입구",
        "distance": 206.116775266234,
        "walking_time": "약 4분"
      },
      {
        "bus_lat": 37.54089575,
        "bus_lon": 127.0681673,
        "bus_type": "버스정류장",
        "bus_name": "건대입구역1번출구",
        "distance": 209.26725707868297,
        "walking_time": "약 4분"
      },
      {
        "bus_lat": 37.54082688,
        "bus_lon": 127.0672789,
        "bus_type": "버스정류장",
        "bus_name": "건대입구역6번출구",
        "distance": 246.45000707490576,
        "walking_time": "약 4분"
      },
      {
        "bus_lat": 37.54210848,
        "bus_lon": 127.0714728,
        "bus_type": "버스정류장",
        "bus_name": "건대병원입구",
        "distance": 252.23162432823145,
        "walking_time": "약 4분"
      },
      {
        "bus_lat": 37.54228033,
        "bus_lon": 127.0719007,
        "bus_type": "버스정류장",
        "bus_name": "건대입구역",
        "distance": 284.77657749862954,
        "walking_time": "약 5분"
      },
      {
        "bus_lat": 37.54338045,
        "bus_lon": 127.072093,
        "bus_type": "버스정류장",
        "bus_name": "건대입구역",
        "distance": 306.15819878126274,
        "walking_time": "약 5분"
      },
      {
        "bus_lat": 37.54081986,
        "bus_lon": 127.0712485,
        "bus_type": "버스정류장",
        "bus_name": "건대입구역사거리.건대병원",
        "distance": 307.6078180618421,
        "walking_time": "약 5분"
      },
      {
        "bus_lat": 37.543765,
        "bus_lon": 127.072222,
        "bus_type": "버스정류장",
        "bus_name": "한아름공원",
        "distance": 329.66359033993166,
        "walking_time": "약 5분"
      },
      {
        "bus_lat": 37.54398276,
        "bus_lon": 127.0652402,
        "bus_type": "버스정류장",
        "bus_name": "화양동현대아파트",
        "distance": 337.126412717195,
        "walking_time": "약 6분"
      },
      {
        "bus_lat": 37.54019114,
        "bus_lon": 127.0709898,
        "bus_type": "버스정류장",
        "bus_name": "건대입구(가상)",
        "distance": 345.6825918483818,
        "walking_time": "약 6분"
      }
    ],
    "community_center": [
      {
        "community_center_lat": 37.54652678,
        "community_center_lon": 127.0712676,
        "community_center_type": "주민센터",
        "community_center_name": "화양동 자치회관",
        "distance": 478.6044559821997,
        "walking_time": "약 8분"
      },
      {
        "community_center_lat": 37.53409779,
        "community_center_lon": 127.0662584,
        "community_center_type": "주민센터",
        "community_center_name": "자양4동 자치회관",
        "distance": 983.65708328044,
        "walking_time": "약 15분"
      },
      {
        "community_center_lat": 37.53383394,
        "community_center_lon": 127.0729024,
        "community_center_type": "주민센터",
        "community_center_name": "자양3동 자치회관",
        "distance": 1055.2824287305043,
        "walking_time": "약 16분"
      },
      {
        "community_center_lat": 37.55453307,
        "community_center_lon": 127.0695685,
        "community_center_type": "주민센터",
        "community_center_name": "송정동 자치회관",
        "distance": 1315.0155569017645,
        "walking_time": "약 20분"
      },
      {
        "community_center_lat": 37.5482232,
        "community_center_lon": 127.0552456,
        "community_center_type": "주민센터",
        "community_center_name": "성수2가제3동 자치회관",
        "distance": 1335.983965483661,
        "walking_time": "약 20분"
      },
      {
        "community_center_lat": 37.53954093,
        "community_center_lon": 127.0540233,
        "community_center_type": "주민센터",
        "community_center_name": "성수2가제1동 자치회관",
        "distance": 1343.3106807601348,
        "walking_time": "약 21분"
      },
      {
        "community_center_lat": 37.55516384,
        "community_center_lon": 127.0758916,
        "community_center_type": "주민센터",
        "community_center_name": "군자동 자치회관",
        "distance": 1520.6860969198683,
        "walking_time": "약 23분"
      }
    ],
    "convenience_store": [
      {
        "convenience_store_lat": 37.54242095,
        "convenience_store_lon": 127.0700249,
        "convenience_store_type": "편의점",
        "convenience_store_name": "CU 화양공원점",
        "distance": 119.94469583057048,
        "walking_time": "약 2분"
      },
      {
        "convenience_store_lat": 37.54334395,
        "convenience_store_lon": 127.0673614,
        "convenience_store_type": "편의점",
        "convenience_store_name": "세븐일레븐 화양본점",
        "distance": 138.09152347853808,
        "walking_time": "약 3분"
      },
      {
        "convenience_store_lat": 37.54169965,
        "convenience_store_lon": 127.0676312,
        "convenience_store_type": "편의점",
        "convenience_store_name": "세븐일레븐 건대제일점",
        "distance": 149.13002972728927,
        "walking_time": "약 3분"
      },
      {
        "convenience_store_lat": 37.5427937,
        "convenience_store_lon": 127.0709136,
        "convenience_store_type": "편의점",
        "convenience_store_name": "GS25 건대수정점",
        "distance": 193.54809938882903,
        "walking_time": "약 3분"
      },
      {
        "convenience_store_lat": 37.54192797,
        "convenience_store_lon": 127.070696,
        "convenience_store_type": "편의점",
        "convenience_store_name": "세븐일레븐 건대맛거리점",
        "distance": 195.5147843457361,
        "walking_time": "약 3분"
      },
      {
        "convenience_store_lat": 37.54463313,
        "convenience_store_lon": 127.0690216,
        "convenience_store_type": "편의점",
        "convenience_store_name": "세븐일레븐 화양아름길점",
        "distance": 213.72378058416808,
        "walking_time": "약 4분"
      },
      {
        "convenience_store_lat": 37.54472483,
        "convenience_store_lon": 127.0690666,
        "convenience_store_type": "편의점",
        "convenience_store_name": "CU 화양중앙점",
        "distance": 224.35060361259377,
        "walking_time": "약 4분"
      },
      {
        "convenience_store_lat": 37.54168207,
        "convenience_store_lon": 127.0663857,
        "convenience_store_type": "편의점",
        "convenience_store_name": "GS25 건대시티점",
        "distance": 236.28692323426472,
        "walking_time": "약 4분"
      },
      {
        "convenience_store_lat": 37.542531,
        "convenience_store_lon": 127.0714646,
        "convenience_store_type": "편의점",
        "convenience_store_name": "세븐일레븐 건대중앙점",
        "distance": 242.95124063970297,
        "walking_time": "약 4분"
      },
      {
        "convenience_store_lat": 37.54231813,
        "convenience_store_lon": 127.0658113,
        "convenience_store_type": "편의점",
        "convenience_store_name": "CU 화양사랑점",
        "distance": 260.4296618160375,
        "walking_time": "약 4분"
      }
    ],
    "daycare": [
      {
        "daycare_lat": 37.54418329433606,
        "daycare_lon": 127.07004399815702,
        "daycare_type": "어린이집",
        "daycare_name": "행복한어린이집",
        "distance": 199.71051613764868,
        "walking_time": "약 3분"
      },
      {
        "daycare_lat": 37.544749850710296,
        "daycare_lon": 127.06876811416656,
        "daycare_type": "어린이집",
        "daycare_name": "젬마어린이집",
        "distance": 225.08190806714188,
        "walking_time": "약 4분"
      },
      {
        "daycare_lat": 37.54479680008442,
        "daycare_lon": 127.06859615872416,
        "daycare_type": "어린이집",
        "daycare_name": "민주어린이집",
        "distance": 230.5211820375525,
        "walking_time": "약 4분"
      },
      {
        "daycare_lat": 37.54489788042541,
        "daycare_lon": 127.0682975161844,
        "daycare_type": "어린이집",
        "daycare_name": "EQ어린이집",
        "distance": 244.3577175966837,
        "walking_time": "약 4분"
      },
      {
        "daycare_lat": 37.54066249,
        "daycare_lon": 127.06614,
        "daycare_type": "어린이집",
        "daycare_name": "물고기어린이집",
        "distance": 323.09723929734105,
        "walking_time": "약 5분"
      },
      {
        "daycare_lat": 37.54248876565109,
        "daycare_lon": 127.06477405119747,
        "daycare_type": "어린이집",
        "daycare_name": "꼬마숲청구어린이집",
        "distance": 348.8991707750714,
        "walking_time": "약 6분"
      },
      {
        "daycare_lat": 37.53946146,
        "daycare_lon": 127.0676587,
        "daycare_type": "어린이집",
        "daycare_name": "동성어린이집",
        "distance": 374.8667974584864,
        "walking_time": "약 6분"
      },
      {
        "daycare_lat": 37.54580101511274,
        "daycare_lon": 127.07083305741168,
        "daycare_type": "어린이집",
        "daycare_name": "새봄어린이집",
        "distance": 389.3840289031716,
        "walking_time": "약 6분"
      },
      {
        "daycare_lat": 37.54619184186601,
        "daycare_lon": 127.0680542481484,
        "daycare_type": "어린이집",
        "daycare_name": "구립 화송어린이집",
        "distance": 389.8281934641363,
        "walking_time": "약 6분"
      },
      {
        "daycare_lat": 37.54622000464735,
        "daycare_lon": 127.06923112132688,
        "daycare_type": "어린이집",
        "daycare_name": "건대꼬마숲어린이집",
        "distance": 391.1201947225557,
        "walking_time": "약 6분"
      }
    ],
    "education": [
      {
        "education_lat": 37.53757063,
        "education_lon": 127.070576,
        "education_type": "문화예술회관",
        "education_name": "나루아트센터",
        "distance": 596.150602546836,
        "walking_time": "약 9분"
      },
      {
        "education_lat": 37.54240517067264,
        "education_lon": 127.07559228463867,
        "education_type": "박물관/기념관",
        "education_name": "건국대학교 박물관",
        "distance": 606.9549706658141,
        "walking_time": "약 10분"
      },
      {
        "education_lat": 37.53918267,
        "education_lon": 127.0747119,
        "education_type": "공연장",
        "education_name": "건국대학교 새천년관대공연장",
        "distance": 659.0398610579336,
        "walking_time": "약 10분"
      },
      {
        "education_lat": 37.55127807,
        "education_lon": 127.0670116,
        "education_type": "공연장",
        "education_name": "더라이트스튜디오",
        "distance": 962.8004052274716,
        "walking_time": "약 15분"
      },
      {
        "education_lat": 37.534067607714206,
        "education_lon": 127.06609416533551,
        "education_type": "도서관",
        "education_name": "자양4동도서관",
        "distance": 990.2161159454804,
        "walking_time": "약 15분"
      },
      {
        "education_lat": 37.55079808,
        "education_lon": 127.0745756,
        "education_type": "미술관/갤러리",
        "education_name": "세종뮤지엄갤러리",
        "distance": 1035.4431020305549,
        "walking_time": "약 16분"
      },
      {
        "education_lat": 37.55160931,
        "education_lon": 127.0731836,
        "education_type": "공연장",
        "education_name": "세종대학교 대양홀",
        "distance": 1063.2789620052808,
        "walking_time": "약 16분"
      },
      {
        "education_lat": 37.55160931,
        "education_lon": 127.0731836,
        "education_type": "박물관/기념관",
        "education_name": "세종대학교 박물관",
        "distance": 1063.2789620052808,
        "walking_time": "약 16분"
      },
      {
        "education_lat": 37.55055,
        "education_lon": 127.077569,
        "education_type": "박물관/기념관",
        "education_name": "서울상상나라",
        "distance": 1168.548021374969,
        "walking_time": "약 18분"
      },
      {
        "education_lat": 37.54378977,
        "education_lon": 127.0544169,
        "education_type": "공연장",
        "education_name": "우란2경",
        "distance": 1266.5787774623666,
        "walking_time": "약 19분"
      }
    ],
    "electric_gas_station": [
      {
        "electric_gas_station_lat": 37.54494633,
        "electric_gas_station_lon": 127.0642049,
        "electric_gas_station_type": "전기차 충전소",
        "electric_gas_station_name": "기아차 성동서비스센터",
        "distance": 468.4200236478855,
        "walking_time": "약 7분"
      }
    ],
    "fitness": [
      {
        "fitness_lat": 37.5425668,
        "fitness_lon": 127.0695978,
        "fitness_type": "운동시설",
        "fitness_name": "피티니스",
        "distance": 79.39125083625102,
        "walking_time": "약 2분"
      },
      {
        "fitness_lat": 37.54144508,
        "fitness_lon": 127.0687917,
        "fitness_type": "운동시설",
        "fitness_name": "짐박스피트니스 건대입구점",
        "distance": 142.57202252470162,
        "walking_time": "약 3분"
      },
      {
        "fitness_lat": 37.54395902,
        "fitness_lon": 127.0697577,
        "fitness_type": "운동시설",
        "fitness_name": "역발산센터",
        "distance": 164.82797618462246,
        "walking_time": "약 3분"
      },
      {
        "fitness_lat": 37.54395902,
        "fitness_lon": 127.0697577,
        "fitness_type": "운동시설",
        "fitness_name": "휘트니스 타운케이",
        "distance": 164.82797618462246,
        "walking_time": "약 3분"
      },
      {
        "fitness_lat": 37.54151933,
        "fitness_lon": 127.0667342,
        "fitness_type": "운동시설",
        "fitness_name": "휘트니스피플우먼 건대점",
        "distance": 220.5829944963932,
        "walking_time": "약 4분"
      },
      {
        "fitness_lat": 37.5421428,
        "fitness_lon": 127.0662994,
        "fitness_type": "운동시설",
        "fitness_name": "스포츠컨디셔닝센터 FMETS & D.FLAB",
        "distance": 223.0513609454804,
        "walking_time": "약 4분"
      },
      {
        "fitness_lat": 37.54372168,
        "fitness_lon": 127.066188,
        "fitness_type": "운동시설",
        "fitness_name": "우리동네 PT샵",
        "distance": 249.182486822512,
        "walking_time": "약 4분"
      },
      {
        "fitness_lat": 37.54087805,
        "fitness_lon": 127.067114,
        "fitness_type": "운동시설",
        "fitness_name": "어게인짐 건대입구역점",
        "distance": 249.54522155674823,
        "walking_time": "약 4분"
      },
      {
        "fitness_lat": 37.54087805,
        "fitness_lon": 127.067114,
        "fitness_type": "운동시설",
        "fitness_name": "어게인짐 건대입구역점",
        "distance": 249.54522155674823,
        "walking_time": "약 4분"
      },
      {
        "fitness_lat": 37.54087805,
        "fitness_lon": 127.067114,
        "fitness_type": "운동시설",
        "fitness_name": "어게인짐 건대입구역점",
        "distance": 249.54522155674823,
        "walking_time": "약 4분"
      }
    ],
    "gas_station": [
      {
        "gas_station_lat": 37.54411438,
        "gas_station_lon": 127.0646451,
        "gas_station_type": "주유소",
        "gas_station_name": "현대오일뱅크㈜ 직영 효진주유소",
        "distance": 391.0311108716901,
        "walking_time": "약 6분"
      },
      {
        "gas_station_lat": 37.54202743,
        "gas_station_lon": 127.0634234,
        "gas_station_type": "주유소",
        "gas_station_name": "지에스칼텍스㈜ 도루코주유소",
        "distance": 473.40044597142935,
        "walking_time": "약 8분"
      },
      {
        "gas_station_lat": 37.53815181,
        "gas_station_lon": 127.075893,
        "gas_station_type": "주유소",
        "gas_station_name": "자양주유소",
        "distance": 811.5894019898583,
        "walking_time": "약 13분"
      },
      {
        "gas_station_lat": 37.5485762,
        "gas_station_lon": 127.0579115,
        "gas_station_type": "주유소",
        "gas_station_name": "협진제유산업㈜ 동일주유소",
        "distance": 1153.7771379051137,
        "walking_time": "약 18분"
      },
      {
        "gas_station_lat": 37.55401241,
        "gas_station_lon": 127.0704331,
        "gas_station_type": "주유소",
        "gas_station_name": "KLP제2주유소",
        "distance": 1264.0461653677608,
        "walking_time": "약 19분"
      },
      {
        "gas_station_lat": 37.55498384,
        "gas_station_lon": 127.0715296,
        "gas_station_type": "주유소",
        "gas_station_name": "㈜장수주유소",
        "distance": 1385.3326227306038,
        "walking_time": "약 21분"
      },
      {
        "gas_station_lat": 37.55086023,
        "gas_station_lon": 127.0504365,
        "gas_station_type": "주유소",
        "gas_station_name": "세원주유소",
        "distance": 1848.329142776628,
        "walking_time": "약 28분"
      }
    ],
    "hospital": [
      {
        "hospital_lat": 37.54246703,
        "hospital_lon": 127.0687333,
        "hospital_type": "병원",
        "hospital_name": "영재한의원",
        "distance": 28.82001542060312,
        "walking_time": "약 1분"
      },
      {
        "hospital_lat": 37.54313275,
        "hospital_lon": 127.0690897,
        "hospital_type": "병원",
        "hospital_name": "서울가정의원",
        "distance": 55.74993779958171,
        "walking_time": "약 1분"
      },
      {
        "hospital_lat": 37.54395902,
        "hospital_lon": 127.0697577,
        "hospital_type": "병원",
        "hospital_name": "광진하나치과의원",
        "distance": 164.82797618462246,
        "walking_time": "약 3분"
      },
      {
        "hospital_lat": 37.54395902,
        "hospital_lon": 127.0697577,
        "hospital_type": "병원",
        "hospital_name": "우리정형외과의원",
        "distance": 164.82797618462246,
        "walking_time": "약 3분"
      },
      {
        "hospital_lat": 37.54395902,
        "hospital_lon": 127.0697577,
        "hospital_type": "병원",
        "hospital_name": "하이비뇨의학과의원",
        "distance": 164.82797618462246,
        "walking_time": "약 3분"
      },
      {
        "hospital_lat": 37.5441737,
        "hospital_lon": 127.0695049,
        "hospital_type": "병원",
        "hospital_name": "나슬한의원",
        "distance": 175.2208722174577,
        "walking_time": "약 3분"
      },
      {
        "hospital_lat": 37.54410543,
        "hospital_lon": 127.0699155,
        "hospital_type": "병원",
        "hospital_name": "도담한의원",
        "distance": 186.10940594015972,
        "walking_time": "약 3분"
      },
      {
        "hospital_lat": 37.54112608,
        "hospital_lon": 127.0679321,
        "hospital_type": "병원",
        "hospital_name": "건대기억치과의원",
        "distance": 190.9846594843036,
        "walking_time": "약 3분"
      },
      {
        "hospital_lat": 37.54112608,
        "hospital_lon": 127.0679321,
        "hospital_type": "병원",
        "hospital_name": "비앤씨피부과의원",
        "distance": 190.9846594843036,
        "walking_time": "약 3분"
      },
      {
        "hospital_lat": 37.54112608,
        "hospital_lon": 127.0679321,
        "hospital_type": "병원",
        "hospital_name": "유앤아이의원",
        "distance": 190.9846594843036,
        "walking_time": "약 3분"
      }
    ],
    "music_room": [
      {
        "music_room_lat": 37.54306112,
        "music_room_lon": 127.0687782,
        "music_room_type": "노래방",
        "music_room_name": "탈렌트노래연습장",
        "distance": 37.61527736235183,
        "walking_time": "약 1분"
      },
      {
        "music_room_lat": 37.54238023,
        "music_room_lon": 127.0689371,
        "music_room_type": "노래방",
        "music_room_name": "돌체",
        "distance": 42.94898273272735,
        "walking_time": "약 1분"
      },
      {
        "music_room_lat": 37.54215142,
        "music_room_lon": 127.0685548,
        "music_room_type": "노래방",
        "music_room_name": "리코스타코인노래연습장 건대점",
        "distance": 65.52956634645159,
        "walking_time": "약 1분"
      },
      {
        "music_room_lat": 37.54210451,
        "music_room_lon": 127.0688097,
        "music_room_type": "노래방",
        "music_room_name": "BJ stage 코인노래연습장",
        "distance": 69.55759073825038,
        "walking_time": "약 2분"
      },
      {
        "music_room_lat": 37.54204919,
        "music_room_lon": 127.0684969,
        "music_room_type": "노래방",
        "music_room_name": "슈퍼스타코인노래연습장",
        "distance": 77.78593270220945,
        "walking_time": "약 2분"
      },
      {
        "music_room_lat": 37.54183608,
        "music_room_lon": 127.0683771,
        "music_room_type": "노래방",
        "music_room_name": "놀러와",
        "distance": 103.469852271019,
        "walking_time": "약 2분"
      },
      {
        "music_room_lat": 37.54168999,
        "music_room_lon": 127.0686064,
        "music_room_type": "노래방",
        "music_room_name": "웰빙노래연습장",
        "distance": 115.6336374588995,
        "walking_time": "약 2분"
      },
      {
        "music_room_lat": 37.54159471,
        "music_room_lon": 127.0685274,
        "music_room_type": "노래방",
        "music_room_name": "인싸노인코래방코인노래연습장",
        "distance": 126.93467010579148,
        "walking_time": "약 2분"
      },
      {
        "music_room_lat": 37.54163476,
        "music_room_lon": 127.0682879,
        "music_room_type": "노래방",
        "music_room_name": "춤추는 돌고래 노래연습장",
        "distance": 127.18042177127452,
        "walking_time": "약 2분"
      },
      {
        "music_room_lat": 37.54150741,
        "music_room_lon": 127.0682068,
        "music_room_type": "노래방",
        "music_room_name": "영해노래방",
        "distance": 142.8560479518129,
        "walking_time": "약 3분"
      }
    ],
    "park": [
      {
        "park_lat": 37.5448144,
        "park_lon": 127.0524023,
        "park_type": "공원",
        "park_name": "성수근린공원",
        "distance": 1457.2734224957587,
        "walking_time": "약 22분"
      }
    ],
    "park_station": [
      {
        "park_station_lat": 37.54530344,
        "park_station_lon": 127.0711952,
        "park_station_type": "주차장",
        "park_station_name": "화양동 공영",
        "distance": 360.2235077702211,
        "walking_time": "약 6분"
      },
      {
        "park_station_lat": 37.53867774,
        "park_station_lon": 127.0681859,
        "park_station_type": "주차장",
        "park_station_name": "자양4동 공영주차장",
        "distance": 452.6024234187356,
        "walking_time": "약 7분"
      },
      {
        "park_station_lat": 37.54369647,
        "park_station_lon": 127.0625162,
        "park_station_type": "주차장",
        "park_station_name": "공유) 18-29",
        "distance": 557.5063255614459,
        "walking_time": "약 9분"
      },
      {
        "park_station_lat": 37.54243542,
        "park_station_lon": 127.0618465,
        "park_station_type": "주차장",
        "park_station_name": "공유) 18-41",
        "distance": 606.8734424030137,
        "walking_time": "약 10분"
      },
      {
        "park_station_lat": 37.54610141,
        "park_station_lon": 127.0628628,
        "park_station_type": "주차장",
        "park_station_name": "공유) 18-21",
        "distance": 638.3859607616274,
        "walking_time": "약 10분"
      },
      {
        "park_station_lat": 37.54387262,
        "park_station_lon": 127.0612978,
        "park_station_type": "주차장",
        "park_station_name": "KT성수분국 앞",
        "distance": 666.6883814965882,
        "walking_time": "약 10분"
      },
      {
        "park_station_lat": 37.54763365,
        "park_station_lon": 127.0737742,
        "park_station_type": "주차장",
        "park_station_name": "광진광장 공영주차장",
        "distance": 704.5213908075032,
        "walking_time": "약 11분"
      },
      {
        "park_station_lat": 37.54307999,
        "park_station_lon": 127.0606405,
        "park_station_type": "주차장",
        "park_station_name": "성수역 3번출구 앞",
        "distance": 713.4251334779419,
        "walking_time": "약 11분"
      },
      {
        "park_station_lat": 37.54714508,
        "park_station_lon": 127.0627896,
        "park_station_type": "주차장",
        "park_station_name": "공유) 18-23",
        "distance": 717.5108748051816,
        "walking_time": "약 11분"
      },
      {
        "park_station_lat": 37.54714508,
        "park_station_lon": 127.0627896,
        "park_station_type": "주차장",
        "park_station_name": "공유) 18-23",
        "distance": 717.5108748051816,
        "walking_time": "약 11분"
      }
    ],
    "pc_room": [
      {
        "pc_room_lat": 37.542733357585,
        "pc_room_lon": 127.068894797657,
        "pc_room_type": "PC방",
        "pc_room_name": "PPL PC방",
        "distance": 15.43297342314284,
        "walking_time": "약 1분"
      },
      {
        "pc_room_lat": 37.540809126931,
        "pc_room_lon": 127.068990676571,
        "pc_room_type": "PC방",
        "pc_room_name": "포포PC방 건대점",
        "distance": 214.47841025583216,
        "walking_time": "약 4분"
      },
      {
        "pc_room_lat": 37.5420273403857,
        "pc_room_lon": 127.071313020717,
        "pc_room_type": "PC방",
        "pc_room_name": "e-sports center 건대점",
        "distance": 241.4573473561428,
        "walking_time": "약 4분"
      },
      {
        "pc_room_lat": 37.5406341134418,
        "pc_room_lon": 127.067657144585,
        "pc_room_type": "PC방",
        "pc_room_name": "메가 PC방",
        "distance": 250.7739032479444,
        "walking_time": "약 4분"
      },
      {
        "pc_room_lat": 37.5405050771385,
        "pc_room_lon": 127.070150304742,
        "pc_room_type": "PC방",
        "pc_room_name": "비원 건대2호점",
        "distance": 277.2901613072227,
        "walking_time": "약 5분"
      },
      {
        "pc_room_lat": 37.5397305477366,
        "pc_room_lon": 127.070200722719,
        "pc_room_type": "PC방",
        "pc_room_name": "5번 출구 피씨방",
        "distance": 357.7508273208687,
        "walking_time": "약 6분"
      },
      {
        "pc_room_lat": 37.5397607621364,
        "pc_room_lon": 127.066887730045,
        "pc_room_type": "PC방",
        "pc_room_name": "아이닉스PC (건대1호점)",
        "distance": 367.1683215555224,
        "walking_time": "약 6분"
      },
      {
        "pc_room_lat": 37.5397607621364,
        "pc_room_lon": 127.066887730045,
        "pc_room_type": "PC방",
        "pc_room_name": "아이닉스PC (건대2호점)",
        "distance": 367.1683215555224,
        "walking_time": "약 6분"
      },
      {
        "pc_room_lat": 37.5471665537169,
        "pc_room_lon": 127.070101890144,
        "pc_room_type": "PC방",
        "pc_room_name": "비원 PC방",
        "distance": 508.5755373432849,
        "walking_time": "약 8분"
      },
      {
        "pc_room_lat": 37.5471665537169,
        "pc_room_lon": 127.070101890144,
        "pc_room_type": "PC방",
        "pc_room_name": "앤탑PC방",
        "distance": 508.5755373432849,
        "walking_time": "약 8분"
      }
    ],
    "police_office": [
      {
        "police_office_lat": 37.54652678,
        "police_office_lon": 127.0712676,
        "police_office_type": "경찰소",
        "police_office_name": "화양지구대",
        "distance": 478.6044559821997,
        "walking_time": "약 8분"
      },
      {
        "police_office_lat": 37.53518701,
        "police_office_lon": 127.063636,
        "police_office_type": "경찰소",
        "police_office_name": "자양4파출소",
        "distance": 950.6208677449184,
        "walking_time": "약 15분"
      },
      {
        "police_office_lat": 37.53662079,
        "police_office_lon": 127.0769223,
        "police_office_type": "경찰소",
        "police_office_name": "자양1파출소",
        "distance": 991.905016204184,
        "walking_time": "약 15분"
      },
      {
        "police_office_lat": 37.53385103,
        "police_office_lon": 127.0716125,
        "police_office_type": "경찰소",
        "police_office_name": "자양파출소",
        "distance": 1019.2741110778736,
        "walking_time": "약 16분"
      },
      {
        "police_office_lat": 37.5482232,
        "police_office_lon": 127.0552456,
        "police_office_type": "경찰소",
        "police_office_name": "성수지구대",
        "distance": 1335.983965483661,
        "walking_time": "약 20분"
      },
      {
        "police_office_lat": 37.5380575,
        "police_office_lon": 127.0522733,
        "police_office_type": "경찰소",
        "police_office_name": "서울숲지구대",
        "distance": 1540.2087978250202,
        "walking_time": "약 23분"
      }
    ],
    "post_office": [
      {
        "post_office_lat": 37.53955017,
        "post_office_lon": 127.0674106,
        "post_office_type": "우체국",
        "post_office_name": "서울성수노룬산우편취급국",
        "distance": 371.5283147382552,
        "walking_time": "약 6분"
      },
      {
        "post_office_lat": 37.5479075,
        "post_office_lon": 127.0693931,
        "post_office_type": "우체국",
        "post_office_name": "서울화양동우체국",
        "distance": 579.2045276786957,
        "walking_time": "약 9분"
      },
      {
        "post_office_lat": 37.53918267,
        "post_office_lon": 127.0747119,
        "post_office_type": "우체국",
        "post_office_name": "건국대학교우편취급국",
        "distance": 659.0398610579336,
        "walking_time": "약 10분"
      },
      {
        "post_office_lat": 37.55160931,
        "post_office_lon": 127.0731836,
        "post_office_type": "우체국",
        "post_office_name": "세종대학교우편취급국",
        "distance": 1063.2789620052808,
        "walking_time": "약 16분"
      },
      {
        "post_office_lat": 37.54556904,
        "post_office_lon": 127.0536857,
        "post_office_type": "우체국",
        "post_office_name": "서울성수동우편취급국",
        "distance": 1362.6717572807468,
        "walking_time": "약 21분"
      },
      {
        "post_office_lat": 37.55594856,
        "post_office_lon": 127.0755462,
        "post_office_type": "우체국",
        "post_office_name": "서울능동우편취급국",
        "distance": 1588.6713239955234,
        "walking_time": "약 24분"
      }
    ],
    "public_health_center": [
      {
        "public_health_center_lat": 37.54026343,
        "public_health_center_lon": 127.0651093,
        "public_health_center_type": "보건소",
        "public_health_center_name": "자양보건지소",
        "distance": 419.91124176193824,
        "walking_time": "약 7분"
      }
    ],
    "school": [
      {
        "school_lat": 37.5443378762673,
        "school_lon": 127.062886077541,
        "school_type": "초등학교",
        "school_name": "서울성수초등학교",
        "distance": 544.6837375690606,
        "walking_time": "약 9분"
      },
      {
        "school_lat": 37.539182674872,
        "school_lon": 127.074711902268,
        "school_type": "고등학교",
        "school_name": "건국대학교사범대학부속고등학교",
        "distance": 659.0396974665915,
        "walking_time": "약 10분"
      },
      {
        "school_lat": 37.536077967735,
        "school_lon": 127.073339535384,
        "school_type": "고등학교",
        "school_name": "자양고등학교",
        "distance": 844.0114033700918,
        "walking_time": "약 13분"
      },
      {
        "school_lat": 37.549876450253,
        "school_lon": 127.072402467919,
        "school_type": "초등학교",
        "school_name": "서울장안초등학교",
        "distance": 858.8215822808411,
        "walking_time": "약 13분"
      },
      {
        "school_lat": 37.5428503028479,
        "school_lon": 127.078840375276,
        "school_type": "중학교",
        "school_name": "구의중학교",
        "distance": 892.3829937571023,
        "walking_time": "약 14분"
      },
      {
        "school_lat": 37.5346820949284,
        "school_lon": 127.0699952764,
        "school_type": "초등학교",
        "school_name": "서울신양초등학교",
        "distance": 901.4814508341838,
        "walking_time": "약 14분"
      },
      {
        "school_lat": 37.5350582094918,
        "school_lon": 127.072179165371,
        "school_type": "초등학교",
        "school_name": "서울동자초등학교",
        "distance": 905.5293771731084,
        "walking_time": "약 14분"
      },
      {
        "school_lat": 37.5395090367488,
        "school_lon": 127.059271203056,
        "school_type": "중학교",
        "school_name": "경수중학교",
        "distance": 906.634138708078,
        "walking_time": "약 14분"
      },
      {
        "school_lat": 37.5357298982053,
        "school_lon": 127.074368913785,
        "school_type": "중학교",
        "school_name": "자양중학교",
        "distance": 923.7142255657478,
        "walking_time": "약 14분"
      },
      {
        "school_lat": 37.5404366739206,
        "school_lon": 127.058066769768,
        "school_type": "초등학교",
        "school_name": "서울경수초등학교",
        "distance": 973.1554503129664,
        "walking_time": "약 15분"
      }
    ],
    "self_laundromat": [
      {
        "self_laundromat_lat": 37.55063449,
        "self_laundromat_lon": 127.0671769,
        "self_laundromat_type": "셀프 빨래방",
        "self_laundromat_name": "더화이트 송정점",
        "distance": 889.8447426209046,
        "walking_time": "약 14분"
      },
      {
        "self_laundromat_lat": 37.55063449,
        "self_laundromat_lon": 127.0671769,
        "self_laundromat_type": "셀프 빨래방",
        "self_laundromat_name": "더화이트 송정점",
        "distance": 889.8447426209046,
        "walking_time": "약 14분"
      },
      {
        "self_laundromat_lat": 37.54136841,
        "self_laundromat_lon": 127.055611,
        "self_laundromat_type": "셀프 빨래방",
        "self_laundromat_name": "우리셀프빨래방",
        "distance": 1165.5999705527108,
        "walking_time": "약 18분"
      },
      {
        "self_laundromat_lat": 37.54136841,
        "self_laundromat_lon": 127.055611,
        "self_laundromat_type": "셀프 빨래방",
        "self_laundromat_name": "우리셀프빨래방",
        "distance": 1165.5999705527108,
        "walking_time": "약 18분"
      },
      {
        "self_laundromat_lat": 37.53678979,
        "self_laundromat_lon": 127.0561894,
        "self_laundromat_type": "셀프 빨래방",
        "self_laundromat_name": "런드리24 펭귄하우스 성수성덕정길점",
        "distance": 1286.9853419902486,
        "walking_time": "약 20분"
      },
      {
        "self_laundromat_lat": 37.53678979,
        "self_laundromat_lon": 127.0561894,
        "self_laundromat_type": "셀프 빨래방",
        "self_laundromat_name": "런드리24 펭귄하우스 성수성덕정길점",
        "distance": 1286.9853419902486,
        "walking_time": "약 20분"
      },
      {
        "self_laundromat_lat": 37.53754872,
        "self_laundromat_lon": 127.0551975,
        "self_laundromat_type": "셀프 빨래방",
        "self_laundromat_name": "셀피아 서울성수동점",
        "distance": 1323.981151430735,
        "walking_time": "약 20분"
      },
      {
        "self_laundromat_lat": 37.53754872,
        "self_laundromat_lon": 127.0551975,
        "self_laundromat_type": "셀프 빨래방",
        "self_laundromat_name": "셀피아 서울성수동점",
        "distance": 1323.981151430735,
        "walking_time": "약 20분"
      },
      {
        "self_laundromat_lat": 37.54111378,
        "self_laundromat_lon": 127.0506252,
        "self_laundromat_type": "셀프 빨래방",
        "self_laundromat_name": "크린토피아 코인워시 서울숲힐스테이트점",
        "distance": 1605.4106391442822,
        "walking_time": "약 24분"
      },
      {
        "self_laundromat_lat": 37.54111378,
        "self_laundromat_lon": 127.0506252,
        "self_laundromat_type": "셀프 빨래방",
        "self_laundromat_name": "크린토피아 코인워시 서울숲힐스테이트점",
        "distance": 1605.4106391442822,
        "walking_time": "약 24분"
      }
    ],
    "subway": [
      {
        "subway_lat": 37.5404188872176,
        "subway_lon": 127.069173281554,
        "subway_type": "지하철",
        "subway_name": "2호선-건대입구역",
        "distance": 259.633521603281,
        "walking_time": "약 4분"
      },
      {
        "subway_lat": 37.540657941434,
        "subway_lon": 127.07141185507,
        "subway_type": "지하철",
        "subway_name": "7호선-건대입구역",
        "distance": 330.4665010375609,
        "walking_time": "약 5분"
      },
      {
        "subway_lat": 37.547871203305,
        "subway_lon": 127.074549925093,
        "subway_type": "지하철",
        "subway_name": "7호선-어린이대공원(세종대)역",
        "distance": 769.0923399764807,
        "walking_time": "약 12분"
      },
      {
        "subway_lat": 37.5445023983984,
        "subway_lon": 127.056090471223,
        "subway_type": "지하철",
        "subway_name": "2호선-성수역",
        "distance": 1130.8707257039111,
        "walking_time": "약 17분"
      },
      {
        "subway_lat": 37.5317034538759,
        "subway_lon": 127.066765925738,
        "subway_type": "지하철",
        "subway_name": "7호선-자양(뚝섬유원지)역",
        "distance": 1237.702273386041,
        "walking_time": "약 19분"
      },
      {
        "subway_lat": 37.5573631939521,
        "subway_lon": 127.079017279019,
        "subway_type": "지하철",
        "subway_name": "5호선-군자(능동)역",
        "distance": 1863.6241412383488,
        "walking_time": "약 28분"
      },
      {
        "subway_lat": 37.5573631939521,
        "subway_lon": 127.079017279019,
        "subway_type": "지하철",
        "subway_name": "7호선-군자(능동)역",
        "distance": 1863.6241412383488,
        "walking_time": "약 28분"
      }
    ],
    "supermarket": [
      {
        "supermarket_lat": 37.54395902,
        "supermarket_lon": 127.0697577,
        "supermarket_type": "마트",
        "supermarket_name": "한아름시장",
        "distance": 164.82797618462246,
        "walking_time": "약 3분"
      },
      {
        "supermarket_lat": 37.54395902,
        "supermarket_lon": 127.0697577,
        "supermarket_type": "마트",
        "supermarket_name": "(주)지에스리테일GS수퍼 광진화양점",
        "distance": 164.82797618462246,
        "walking_time": "약 3분"
      },
      {
        "supermarket_lat": 37.54105663,
        "supermarket_lon": 127.0656692,
        "supermarket_type": "마트",
        "supermarket_name": "커먼그라운드",
        "distance": 326.81427571273355,
        "walking_time": "약 5분"
      },
      {
        "supermarket_lat": 37.53899664,
        "supermarket_lon": 127.0674893,
        "supermarket_type": "마트",
        "supermarket_name": "조양시장",
        "distance": 428.64743199802666,
        "walking_time": "약 7분"
      },
      {
        "supermarket_lat": 37.53903739,
        "supermarket_lon": 127.0714321,
        "supermarket_type": "마트",
        "supermarket_name": "롯데백화점 건대스타시티점",
        "distance": 474.76960856021645,
        "walking_time": "약 8분"
      },
      {
        "supermarket_lat": 37.53855827,
        "supermarket_lon": 127.0729962,
        "supermarket_type": "마트",
        "supermarket_name": "(주)이마트 자양점",
        "distance": 597.425755496628,
        "walking_time": "약 9분"
      },
      {
        "supermarket_lat": 37.54846108,
        "supermarket_lon": 127.0710495,
        "supermarket_type": "마트",
        "supermarket_name": "파크에비뉴",
        "distance": 669.9667866704517,
        "walking_time": "약 10분"
      },
      {
        "supermarket_lat": 37.53644772,
        "supermarket_lon": 127.0648999,
        "supermarket_type": "마트",
        "supermarket_name": "노룬산시장",
        "distance": 775.1182528160375,
        "walking_time": "약 12분"
      },
      {
        "supermarket_lat": 37.54754415,
        "supermarket_lon": 127.0553768,
        "supermarket_type": "마트",
        "supermarket_name": "(주)인트램",
        "distance": 1292.6368798475048,
        "walking_time": "약 20분"
      },
      {
        "supermarket_lat": 37.53780064,
        "supermarket_lon": 127.054827,
        "supermarket_type": "마트",
        "supermarket_name": "뚝도시장",
        "distance": 1341.7956446221442,
        "walking_time": "약 21분"
      }
    ],
    "tax_office": [
      {
        "tax_office_lat": 37.54850152,
        "tax_office_lon": 127.0628187,
        "tax_office_type": "세무서",
        "tax_office_name": "성동세무서",
        "distance": 826.5100802559929,
        "walking_time": "약 13분"
      }
    ],
    "theater": [
      {
        "theater_lat": 37.5397607621364,
        "theater_lon": 127.066887730045,
        "theater_type": "영화관",
        "theater_name": "CGV 건대입구",
        "distance": 367.1683215555224,
        "walking_time": "약 6분"
      },
      {
        "theater_lat": 37.5385582736952,
        "theater_lon": 127.072996184863,
        "theater_type": "영화관",
        "theater_name": "롯데시네마 건대입구관",
        "distance": 597.42459450369,
        "walking_time": "약 9분"
      },
      {
        "theater_lat": 37.5557904109818,
        "theater_lon": 127.078344497368,
        "theater_type": "영화관",
        "theater_name": "메가박스 군자",
        "distance": 1682.334389270978,
        "walking_time": "약 26분"
      }
    ],
    "university": [
      {
        "university_lat": 37.5464762611364,
        "university_lon": 127.071367614735,
        "university_type": "대학교",
        "university_name": "건국대학교",
        "distance": 477.8958437203297,
        "walking_time": "약 8분"
      },
      {
        "university_lat": 37.5516093089619,
        "university_lon": 127.07318364213,
        "university_type": "대학교",
        "university_name": "세종대학교",
        "distance": 1063.2802293995233,
        "walking_time": "약 16분"
      }
    ]
  }
}