{
  "클러스터_위도": 37.634799,
  "클러스터_경도": 127.038693,
  "클러스터_level": 3.0,
  "facilities": {
    "bus": [
      {
        "bus_lat": 37.63548391,
        "bus_lon": 127.0384278,
        "bus_type": "버스정류장",
        "bus_name": "창번교",
        "distance": 79.6584497562602,
        "walking_time": "약 2분"
      },
      {
        "bus_lat": 37.63546864,
        "bus_lon": 127.038224,
        "bus_type": "버스정류장",
        "bus_name": "창번교앞",
        "distance": 85.14670137096243,
        "walking_time": "약 2분"
      },
      {
        "bus_lat": 37.6332852,
        "bus_lon": 127.0385729,
        "bus_type": "버스정류장",
        "bus_name": "신창교",
        "distance": 168.658785737021,
        "walking_time": "약 3분"
      },
      {
        "bus_lat": 37.63438127,
        "bus_lon": 127.0367038,
        "bus_type": "버스정류장",
        "bus_name": "한성운수차고지",
        "distance": 181.21824113268065,
        "walking_time": "약 3분"
      },
      {
        "bus_lat": 37.63370446,
        "bus_lon": 127.0402309,
        "bus_type": "버스정류장",
        "bus_name": "신화초교입구",
        "distance": 182.078113700684,
        "walking_time": "약 3분"
      },
      {
        "bus_lat": 37.63340725,
        "bus_lon": 127.0400822,
        "bus_type": "버스정류장",
        "bus_name": "신화초교입구",
        "distance": 197.2663508739817,
        "walking_time": "약 3분"
      },
      {
        "bus_lat": 37.633019,
        "bus_lon": 127.039682,
        "bus_type": "버스정류장",
        "bus_name": "신창교",
        "distance": 216.23994711534607,
        "walking_time": "약 4분"
      },
      {
        "bus_lat": 37.63423504,
        "bus_lon": 127.0361604,
        "bus_type": "버스정류장",
        "bus_name": "북부수도사업소",
        "distance": 231.66385189727148,
        "walking_time": "약 4분"
      },
      {
        "bus_lat": 37.63385199,
        "bus_lon": 127.0412155,
        "bus_type": "버스정류장",
        "bus_name": "북서울농협창동지점",
        "distance": 245.82244466935933,
        "walking_time": "약 4분"
      },
      {
        "bus_lat": 37.63410933,
        "bus_lon": 127.0414906,
        "bus_type": "버스정류장",
        "bus_name": "북서울농협창동지점",
        "distance": 258.010764235473,
        "walking_time": "약 4분"
      }
    ],
    "community_center": [
      {
        "community_center_lat": 37.6318813,
        "community_center_lon": 127.0390622,
        "community_center_type": "주민센터",
        "community_center_name": "번2동 자치회관",
        "distance": 326.05835006024324,
        "walking_time": "약 5분"
      },
      {
        "community_center_lat": 37.63799988,
        "community_center_lon": 127.0429904,
        "community_center_type": "주민센터",
        "community_center_name": "창3동 자치회관",
        "distance": 519.4939884567889,
        "walking_time": "약 8분"
      },
      {
        "community_center_lat": 37.64141508,
        "community_center_lon": 127.035653,
        "community_center_type": "주민센터",
        "community_center_name": "창2동 자치회관",
        "distance": 782.8607297267133,
        "walking_time": "약 12분"
      },
      {
        "community_center_lat": 37.63789129,
        "community_center_lon": 127.0288472,
        "community_center_type": "주민센터",
        "community_center_name": "번1동 자치회관",
        "distance": 932.6736601616468,
        "walking_time": "약 14분"
      },
      {
        "community_center_lat": 37.62586737,
        "community_center_lon": 127.0465907,
        "community_center_type": "주민센터",
        "community_center_name": "번3동 자치회관",
        "distance": 1212.460529405297,
        "walking_time": "약 19분"
      },
      {
        "community_center_lat": 37.62709135,
        "community_center_lon": 127.0269751,
        "community_center_type": "주민센터",
        "community_center_name": "미아동 자치회관",
        "distance": 1341.4011035229908,
        "walking_time": "약 21분"
      },
      {
        "community_center_lat": 37.6387147,
        "community_center_lon": 127.0231464,
        "community_center_type": "주민센터",
        "community_center_name": "수유3동 자치회관",
        "distance": 1436.5307080680163,
        "walking_time": "약 22분"
      },
      {
        "community_center_lat": 37.64837711,
        "community_center_lon": 127.0438238,
        "community_center_type": "주민센터",
        "community_center_name": "창1동 자치회관",
        "distance": 1575.9560346930082,
        "walking_time": "약 24분"
      },
      {
        "community_center_lat": 37.64898155,
        "community_center_lon": 127.0279211,
        "community_center_type": "주민센터",
        "community_center_name": "쌍문3동 자치회관",
        "distance": 1840.2668872734985,
        "walking_time": "약 28분"
      },
      {
        "community_center_lat": 37.64803784,
        "community_center_lon": 127.0260513,
        "community_center_type": "주민센터",
        "community_center_name": "쌍문1동 자치회관",
        "distance": 1845.5449786001727,
        "walking_time": "약 28분"
      }
    ],
    "convenience_store": [
      {
        "convenience_store_lat": 37.63461514,
        "convenience_store_lon": 127.0409998,
        "convenience_store_type": "편의점",
        "convenience_store_name": "GS25 창동소망점",
        "distance": 204.1572091174276,
        "walking_time": "약 4분"
      },
      {
        "convenience_store_lat": 37.63464015,
        "convenience_store_lon": 127.0361299,
        "convenience_store_type": "편의점",
        "convenience_store_name": "CU 센트로힐점",
        "distance": 226.3901883857189,
        "walking_time": "약 4분"
      },
      {
        "convenience_store_lat": 37.63432152,
        "convenience_store_lon": 127.0412037,
        "convenience_store_type": "편의점",
        "convenience_store_name": "GS25 신창동점",
        "distance": 227.3721045733768,
        "walking_time": "약 4분"
      },
      {
        "convenience_store_lat": 37.63720983,
        "convenience_store_lon": 127.0390246,
        "convenience_store_type": "편의점",
        "convenience_store_name": "GS25 신창동점",
        "distance": 269.6576236939215,
        "walking_time": "약 5분"
      },
      {
        "convenience_store_lat": 37.63674149,
        "convenience_store_lon": 127.0411835,
        "convenience_store_type": "편의점",
        "convenience_store_name": "GS25 신창초교점",
        "distance": 307.8117941555915,
        "walking_time": "약 5분"
      },
      {
        "convenience_store_lat": 37.63198031,
        "convenience_store_lon": 127.0382705,
        "convenience_store_type": "편의점",
        "convenience_store_name": "GS25 강북번동점",
        "distance": 315.6245062857021,
        "walking_time": "약 5분"
      },
      {
        "convenience_store_lat": 37.63653953,
        "convenience_store_lon": 127.0420843,
        "convenience_store_type": "편의점",
        "convenience_store_name": "GS25 신창초교점",
        "distance": 355.8569334865091,
        "walking_time": "약 6분"
      },
      {
        "convenience_store_lat": 37.63470155,
        "convenience_store_lon": 127.04275,
        "convenience_store_type": "편의점",
        "convenience_store_name": "CU 도봉초안점",
        "distance": 357.4132677281158,
        "walking_time": "약 6분"
      },
      {
        "convenience_store_lat": 37.63819101,
        "convenience_store_lon": 127.0406025,
        "convenience_store_type": "편의점",
        "convenience_store_name": "CU 사랑점",
        "distance": 412.9553090320359,
        "walking_time": "약 7분"
      },
      {
        "convenience_store_lat": 37.63858829,
        "convenience_store_lon": 127.039185,
        "convenience_store_type": "편의점",
        "convenience_store_name": "GS25 강북번동점",
        "distance": 423.5712059633833,
        "walking_time": "약 7분"
      }
    ],
    "daycare": [
      {
        "daycare_lat": 37.63425696,
        "daycare_lon": 127.0401983,
        "daycare_type": "어린이집",
        "daycare_name": "한우리어린이집",
        "distance": 145.61279631024772,
        "walking_time": "약 3분"
      },
      {
        "daycare_lat": 37.63603776,
        "daycare_lon": 127.0396893,
        "daycare_type": "어린이집",
        "daycare_name": "예일어린이집",
        "distance": 163.30970344035623,
        "walking_time": "약 3분"
      },
      {
        "daycare_lat": 37.63603776,
        "daycare_lon": 127.0396893,
        "daycare_type": "어린이집",
        "daycare_name": "예일키즈어린이집",
        "distance": 163.30970344035623,
        "walking_time": "약 3분"
      },
      {
        "daycare_lat": 37.63635645,
        "daycare_lon": 127.0383279,
        "daycare_type": "어린이집",
        "daycare_name": "본향선교어린이집",
        "distance": 176.13938605665624,
        "walking_time": "약 3분"
      },
      {
        "daycare_lat": 37.63405384,
        "daycare_lon": 127.040704,
        "daycare_type": "어린이집",
        "daycare_name": "한우리예체능어린이집",
        "distance": 195.5103123998392,
        "walking_time": "약 3분"
      },
      {
        "daycare_lat": 37.63462305,
        "daycare_lon": 127.0364729,
        "daycare_type": "어린이집",
        "daycare_name": "어린왕자어린이집",
        "distance": 196.47294479293973,
        "walking_time": "약 3분"
      },
      {
        "daycare_lat": 37.63651808,
        "daycare_lon": 127.0393659,
        "daycare_type": "어린이집",
        "daycare_name": "딩동댕어린이집",
        "distance": 200.12593900067435,
        "walking_time": "약 3분"
      },
      {
        "daycare_lat": 37.6348967,
        "daycare_lon": 127.0356683,
        "daycare_type": "어린이집",
        "daycare_name": "예닮어린이집",
        "distance": 266.56840373465127,
        "walking_time": "약 4분"
      },
      {
        "daycare_lat": 37.63712707,
        "daycare_lon": 127.0396855,
        "daycare_type": "어린이집",
        "daycare_name": "신도아이숲어린이집",
        "distance": 273.2241586801237,
        "walking_time": "약 5분"
      },
      {
        "daycare_lat": 37.6349234,
        "daycare_lon": 127.0428644,
        "daycare_type": "어린이집",
        "daycare_name": "무지개어린이집",
        "distance": 367.5825537396791,
        "walking_time": "약 6분"
      }
    ],
    "education": [
      {
        "education_lat": 37.62511539,
        "education_lon": 127.0360797,
        "education_type": "도서관",
        "education_name": "강북문화정보도서관",
        "distance": 1101.0868448307542,
        "walking_time": "약 17분"
      },
      {
        "education_lat": 37.64469094,
        "education_lon": 127.0437683,
        "education_type": "도서관",
        "education_name": "도봉문화정보도서관",
        "distance": 1187.249975646606,
        "walking_time": "약 18분"
      },
      {
        "education_lat": 37.62254520644527,
        "education_lon": 127.04139068396869,
        "education_type": "미술관/갤러리",
        "education_name": "북서울꿈의숲 상상톡톡미술관",
        "distance": 1383.115550429381,
        "walking_time": "약 21분"
      },
      {
        "education_lat": 37.64856049,
        "education_lon": 127.0338822,
        "education_type": "공연장",
        "education_name": "극단 대학로극장",
        "distance": 1587.7538215291202,
        "walking_time": "약 24분"
      },
      {
        "education_lat": 37.62025446,
        "education_lon": 127.0443247,
        "education_type": "공연장",
        "education_name": "북서울꿈의숲아트센터 퍼포먼스홀",
        "distance": 1691.617291549454,
        "walking_time": "약 26분"
      },
      {
        "education_lat": 37.62025446,
        "education_lon": 127.0443247,
        "education_type": "공연장",
        "education_name": "북서울꿈의숲아트센터",
        "distance": 1691.617291549454,
        "walking_time": "약 26분"
      },
      {
        "education_lat": 37.62025446,
        "education_lon": 127.0443247,
        "education_type": "미술관/갤러리",
        "education_name": "북서울꿈의숲아트센터 드림갤러리",
        "distance": 1691.617291549454,
        "walking_time": "약 26분"
      },
      {
        "education_lat": 37.64704212,
        "education_lon": 127.0262302,
        "education_type": "도서관",
        "education_name": "쌍문채움도서관",
        "distance": 1748.5751429859415,
        "walking_time": "약 27분"
      },
      {
        "education_lat": 37.62308136,
        "education_lon": 127.0215555,
        "education_type": "도서관",
        "education_name": "강북청소년문화정보도서관",
        "distance": 1993.827750967085,
        "walking_time": "약 30분"
      }
    ],
    "electric_gas_station": [
      {
        "electric_gas_station_lat": 37.6446776,
        "electric_gas_station_lon": 127.0351607,
        "electric_gas_station_type": "전기차 충전소",
        "electric_gas_station_name": "빅마켓 도봉점",
        "distance": 1141.6343538177955,
        "walking_time": "약 18분"
      }
    ],
    "fitness": [
      {
        "fitness_lat": 37.63409604,
        "fitness_lon": 127.0411072,
        "fitness_type": "운동시설",
        "fitness_name": "스마일보이짐 창동점",
        "distance": 226.5038277050178,
        "walking_time": "약 4분"
      },
      {
        "fitness_lat": 37.63804247,
        "fitness_lon": 127.0372381,
        "fitness_type": "운동시설",
        "fitness_name": "슈퍼스타S 휘트니스",
        "distance": 382.73543957801166,
        "walking_time": "약 6분"
      },
      {
        "fitness_lat": 37.63997921,
        "fitness_lon": 127.0389752,
        "fitness_type": "운동시설",
        "fitness_name": "주식회사 바디크러쉬",
        "distance": 576.5488070070222,
        "walking_time": "약 9분"
      },
      {
        "fitness_lat": 37.64016493,
        "fitness_lon": 127.0391511,
        "fitness_type": "운동시설",
        "fitness_name": "라이프플러스휘트니스",
        "distance": 598.0261555394206,
        "walking_time": "약 9분"
      },
      {
        "fitness_lat": 37.62883597,
        "fitness_lon": 127.0398738,
        "fitness_type": "운동시설",
        "fitness_name": "라이프 플러스 휘트니스",
        "distance": 671.1625276048079,
        "walking_time": "약 11분"
      },
      {
        "fitness_lat": 37.62823008,
        "fitness_lon": 127.0395375,
        "fitness_type": "운동시설",
        "fitness_name": "라인짐2호점",
        "distance": 734.2066386638235,
        "walking_time": "약 11분"
      },
      {
        "fitness_lat": 37.640693,
        "fitness_lon": 127.0345239,
        "fitness_type": "운동시설",
        "fitness_name": "벙커짐",
        "distance": 751.1944628443749,
        "walking_time": "약 12분"
      },
      {
        "fitness_lat": 37.62746252,
        "fitness_lon": 127.041411,
        "fitness_type": "운동시설",
        "fitness_name": "라인짐",
        "distance": 850.1677542231115,
        "walking_time": "약 13분"
      },
      {
        "fitness_lat": 37.62770179,
        "fitness_lon": 127.0439903,
        "fitness_type": "운동시설",
        "fitness_name": "번 휘트니스",
        "distance": 916.737027987186,
        "walking_time": "약 14분"
      },
      {
        "fitness_lat": 37.64291383,
        "fitness_lon": 127.036641,
        "fitness_type": "운동시설",
        "fitness_name": "U&I Gym",
        "distance": 920.2403708516968,
        "walking_time": "약 14분"
      }
    ],
    "gas_station": [
      {
        "gas_station_lat": 37.63426997,
        "gas_station_lon": 127.0377638,
        "gas_station_type": "주유소",
        "gas_station_name": "세원주유소",
        "distance": 100.77434805484862,
        "walking_time": "약 2분"
      },
      {
        "gas_station_lat": 37.63556362,
        "gas_station_lon": 127.0328871,
        "gas_station_type": "주유소",
        "gas_station_name": "현대오일뱅크㈜ 번동셀프주유소",
        "distance": 518.2710724559557,
        "walking_time": "약 8분"
      },
      {
        "gas_station_lat": 37.63501625,
        "gas_station_lon": 127.0313097,
        "gas_station_type": "주유소",
        "gas_station_name": "㈜미래아스팔트 덕릉로주유소",
        "distance": 650.6016384255447,
        "walking_time": "약 10분"
      },
      {
        "gas_station_lat": 37.6414534,
        "gas_station_lon": 127.0402982,
        "gas_station_type": "주유소",
        "gas_station_name": "대성산업㈜ 신창주유소",
        "distance": 753.3143550455005,
        "walking_time": "약 12분"
      },
      {
        "gas_station_lat": 37.64222693,
        "gas_station_lon": 127.029534,
        "gas_station_type": "주유소",
        "gas_station_name": "수유동주유소",
        "distance": 1154.3810613975495,
        "walking_time": "약 18분"
      },
      {
        "gas_station_lat": 37.64463064,
        "gas_station_lon": 127.032708,
        "gas_station_type": "주유소",
        "gas_station_name": "동일석유㈜ 창동주유소",
        "distance": 1213.616650278122,
        "walking_time": "약 19분"
      },
      {
        "gas_station_lat": 37.64497226,
        "gas_station_lon": 127.0321589,
        "gas_station_type": "주유소",
        "gas_station_name": "삼미상사㈜ 북부주유소",
        "distance": 1269.117388028527,
        "walking_time": "약 19분"
      },
      {
        "gas_station_lat": 37.64684419,
        "gas_station_lon": 127.0394451,
        "gas_station_type": "주유소",
        "gas_station_name": "구도일주유소 파크빌",
        "distance": 1341.000150499391,
        "walking_time": "약 21분"
      },
      {
        "gas_station_lat": 37.62652601,
        "gas_station_lon": 127.0264596,
        "gas_station_type": "주유소",
        "gas_station_name": "씨앤에스에너지㈜ 미아셀프주유소",
        "distance": 1416.6227612602404,
        "walking_time": "약 22분"
      },
      {
        "gas_station_lat": 37.62163476,
        "gas_station_lon": 127.0455418,
        "gas_station_type": "주유소",
        "gas_station_name": "에덴주유소",
        "distance": 1583.186499382835,
        "walking_time": "약 24분"
      }
    ],
    "hospital": [
      {
        "hospital_lat": 37.63385589,
        "hospital_lon": 127.0412147,
        "hospital_type": "병원",
        "hospital_name": "고려가정의학과의원",
        "distance": 245.5732835691284,
        "walking_time": "약 4분"
      },
      {
        "hospital_lat": 37.63403782,
        "hospital_lon": 127.0416775,
        "hospital_type": "병원",
        "hospital_name": "신창기독의원",
        "distance": 276.10171560704026,
        "walking_time": "약 5분"
      },
      {
        "hospital_lat": 37.63747546,
        "hospital_lon": 127.0373003,
        "hospital_type": "병원",
        "hospital_name": "연세외과의원",
        "distance": 321.885686561649,
        "walking_time": "약 5분"
      },
      {
        "hospital_lat": 37.6318813,
        "hospital_lon": 127.0390622,
        "hospital_type": "병원",
        "hospital_name": "강북구보건소",
        "distance": 326.05835006024324,
        "walking_time": "약 5분"
      },
      {
        "hospital_lat": 37.63780395,
        "hospital_lon": 127.0376253,
        "hospital_type": "병원",
        "hospital_name": "서현내과의원",
        "distance": 347.11023480455566,
        "walking_time": "약 6분"
      },
      {
        "hospital_lat": 37.63827012,
        "hospital_lon": 127.0373344,
        "hospital_type": "병원",
        "hospital_name": "양시영내과의원",
        "distance": 404.085836965349,
        "walking_time": "약 7분"
      },
      {
        "hospital_lat": 37.63842158,
        "hospital_lon": 127.0381475,
        "hospital_type": "병원",
        "hospital_name": "임안과의원",
        "distance": 405.6663666854993,
        "walking_time": "약 7분"
      },
      {
        "hospital_lat": 37.63848635,
        "hospital_lon": 127.0376405,
        "hospital_type": "병원",
        "hospital_name": "남강한의원",
        "distance": 420.3584290845142,
        "walking_time": "약 7분"
      },
      {
        "hospital_lat": 37.63151929,
        "hospital_lon": 127.0362355,
        "hospital_type": "병원",
        "hospital_name": "건강의집 의원",
        "distance": 424.061481825599,
        "walking_time": "약 7분"
      },
      {
        "hospital_lat": 37.638746,
        "hospital_lon": 127.038511,
        "hospital_type": "병원",
        "hospital_name": "강준구내과의원",
        "distance": 439.1788744084224,
        "walking_time": "약 7분"
      }
    ],
    "music_room": [
      {
        "music_room_lat": 37.63409604,
        "music_room_lon": 127.0411072,
        "music_room_type": "노래방",
        "music_room_name": "네박자 노래연습장",
        "distance": 226.5038277050178,
        "walking_time": "약 4분"
      },
      {
        "music_room_lat": 37.63709607,
        "music_room_lon": 127.0389292,
        "music_room_type": "노래방",
        "music_room_name": "따봉노래연습장",
        "distance": 256.26794604726587,
        "walking_time": "약 4분"
      },
      {
        "music_room_lat": 37.63724541,
        "music_room_lon": 127.0385288,
        "music_room_type": "노래방",
        "music_room_name": "애니 노래연습장",
        "distance": 272.41236417763054,
        "walking_time": "약 5분"
      },
      {
        "music_room_lat": 37.63419535,
        "music_room_lon": 127.0420754,
        "music_room_type": "노래방",
        "music_room_name": "신창노래연습장",
        "distance": 305.3161932647164,
        "walking_time": "약 5분"
      },
      {
        "music_room_lat": 37.63749128,
        "music_room_lon": 127.0377117,
        "music_room_type": "노래방",
        "music_room_name": "세븐 노래연습장",
        "distance": 311.58893316285,
        "walking_time": "약 5분"
      },
      {
        "music_room_lat": 37.63749128,
        "music_room_lon": 127.0377117,
        "music_room_type": "노래방",
        "music_room_name": "OK노래연습장",
        "distance": 311.58893316285,
        "walking_time": "약 5분"
      },
      {
        "music_room_lat": 37.63761967,
        "music_room_lon": 127.0379884,
        "music_room_type": "노래방",
        "music_room_name": "송송 노래연습장",
        "distance": 319.7219784413127,
        "walking_time": "약 5분"
      },
      {
        "music_room_lat": 37.6376672,
        "music_room_lon": 127.0378368,
        "music_room_type": "노래방",
        "music_room_name": "하모니 노래연습장",
        "distance": 327.7194456736903,
        "walking_time": "약 5분"
      },
      {
        "music_room_lat": 37.63761211,
        "music_room_lon": 127.0373899,
        "music_room_type": "노래방",
        "music_room_name": "소리샘 노래연습장",
        "distance": 333.1854887147623,
        "walking_time": "약 5분"
      },
      {
        "music_room_lat": 37.63780395,
        "music_room_lon": 127.0376253,
        "music_room_type": "노래방",
        "music_room_name": "용궁노래방",
        "distance": 347.11023480455566,
        "walking_time": "약 6분"
      }
    ],
    "park": [
      {
        "park_lat": 37.6327957,
        "park_lon": 127.0317269,
        "park_type": "공원",
        "park_name": "오동근린공원",
        "distance": 652.6181414732307,
        "walking_time": "약 10분"
      },
      {
        "park_lat": 37.6233355,
        "park_lon": 127.0407344,
        "park_type": "공원",
        "park_name": "북서울꿈의숲",
        "distance": 1287.2977936107754,
        "walking_time": "약 20분"
      },
      {
        "park_lat": 37.6479483,
        "park_lon": 127.0405382,
        "park_type": "공원",
        "park_name": "초안산생태공원",
        "distance": 1471.1343483701323,
        "walking_time": "약 22분"
      },
      {
        "park_lat": 37.648316,
        "park_lon": 127.0455446,
        "park_type": "공원",
        "park_name": "초안산근린공원",
        "distance": 1619.5740533449728,
        "walking_time": "약 25분"
      }
    ],
    "park_station": [
      {
        "park_station_lat": 37.63306872,
        "park_station_lon": 127.0414081,
        "park_station_type": "주차장",
        "park_station_name": "창3동 1공영주차장",
        "distance": 306.88741206171244,
        "walking_time": "약 5분"
      },
      {
        "park_station_lat": 37.63709454,
        "park_station_lon": 127.0329989,
        "park_station_type": "주차장",
        "park_station_name": "수송초등학교 공영주차장",
        "distance": 562.6326087343581,
        "walking_time": "약 9분"
      },
      {
        "park_station_lat": 37.64126334,
        "park_station_lon": 127.036287,
        "park_station_type": "주차장",
        "park_station_name": "창2동4공영주차장",
        "distance": 749.3726388153949,
        "walking_time": "약 12분"
      },
      {
        "park_station_lat": 37.64222734,
        "park_station_lon": 127.0421345,
        "park_station_type": "주차장",
        "park_station_name": "초안산꽃동산공영주차장",
        "distance": 879.8269153770863,
        "walking_time": "약 14분"
      },
      {
        "park_station_lat": 37.62682004,
        "park_station_lon": 127.0367329,
        "park_station_type": "주차장",
        "park_station_name": "번2동 공영주차장",
        "distance": 903.8547943118924,
        "walking_time": "약 14분"
      },
      {
        "park_station_lat": 37.63963922,
        "park_station_lon": 127.0268633,
        "park_station_type": "주차장",
        "park_station_name": "구청앞",
        "distance": 1172.4844392075695,
        "walking_time": "약 18분"
      },
      {
        "park_station_lat": 37.62509068,
        "park_station_lon": 127.0334033,
        "park_station_type": "주차장",
        "park_station_name": "번동 햇살 주차장",
        "distance": 1175.7337628993896,
        "walking_time": "약 18분"
      },
      {
        "park_station_lat": 37.64006723,
        "park_station_lon": 127.025884,
        "park_station_type": "주차장",
        "park_station_name": "시범 공영주차장",
        "distance": 1270.9409271475454,
        "walking_time": "약 19분"
      },
      {
        "park_station_lat": 37.63204805,
        "park_station_lon": 127.023555,
        "park_station_type": "주차장",
        "park_station_name": "수유동쌈지마당공영주차장",
        "distance": 1367.6832935528969,
        "walking_time": "약 21분"
      },
      {
        "park_station_lat": 37.63218834,
        "park_station_lon": 127.0234911,
        "park_station_type": "주차장",
        "park_station_name": "쌈지유료주차장",
        "distance": 1369.7764777075372,
        "walking_time": "약 21분"
      }
    ],
    "pc_room": [
      {
        "pc_room_lat": 37.6348400645376,
        "pc_room_lon": 127.035597434114,
        "pc_room_type": "PC방",
        "pc_room_name": "종점PC",
        "distance": 272.6255457160575,
        "walking_time": "약 5분"
      },
      {
        "pc_room_lat": 37.6374041482732,
        "pc_room_lon": 127.037156498664,
        "pc_room_type": "PC방",
        "pc_room_name": "골든PC",
        "distance": 319.7179991020437,
        "walking_time": "약 5분"
      },
      {
        "pc_room_lat": 37.6376121119885,
        "pc_room_lon": 127.037389882528,
        "pc_room_type": "PC방",
        "pc_room_name": "귀족PC방",
        "distance": 333.1862261472901,
        "walking_time": "약 5분"
      },
      {
        "pc_room_lat": 37.6384863481039,
        "pc_room_lon": 127.037640485246,
        "pc_room_type": "PC방",
        "pc_room_name": "수작PC",
        "distance": 420.3585098706027,
        "walking_time": "약 7분"
      },
      {
        "pc_room_lat": 37.6329712952548,
        "pc_room_lon": 127.034502266654,
        "pc_room_type": "PC방",
        "pc_room_name": "우주인터넷프라자",
        "distance": 421.2906331450973,
        "walking_time": "약 7분"
      },
      {
        "pc_room_lat": 37.6343855765606,
        "pc_room_lon": 127.033550579883,
        "pc_room_type": "PC방",
        "pc_room_name": "게임팩토리",
        "distance": 455.15668540049535,
        "walking_time": "약 7분"
      },
      {
        "pc_room_lat": 37.6343855765606,
        "pc_room_lon": 127.033550579883,
        "pc_room_type": "PC방",
        "pc_room_name": "Njoy",
        "distance": 455.15668540049535,
        "walking_time": "약 7분"
      },
      {
        "pc_room_lat": 37.6392659811392,
        "pc_room_lon": 127.038994138248,
        "pc_room_type": "PC방",
        "pc_room_name": "비원PC방",
        "distance": 497.4129323891861,
        "walking_time": "약 8분"
      },
      {
        "pc_room_lat": 37.6337330474474,
        "pc_room_lon": 127.033037300442,
        "pc_room_type": "PC방",
        "pc_room_name": "게임팩토리PC",
        "distance": 511.93991020463926,
        "walking_time": "약 8분"
      },
      {
        "pc_room_lat": 37.6395039823435,
        "pc_room_lon": 127.037728466815,
        "pc_room_type": "PC방",
        "pc_room_name": "리치PC",
        "distance": 530.0192388499511,
        "walking_time": "약 8분"
      }
    ],
    "police_office": [
      {
        "police_office_lat": 37.6359778,
        "police_office_lon": 127.0325802,
        "police_office_type": "경찰소",
        "police_office_name": "번동파출소",
        "distance": 554.0024153038946,
        "walking_time": "약 9분"
      },
      {
        "police_office_lat": 37.64351954,
        "police_office_lon": 127.0346164,
        "police_office_type": "경찰소",
        "police_office_name": "신창파출소",
        "distance": 1033.985786890125,
        "walking_time": "약 16분"
      },
      {
        "police_office_lat": 37.62362546,
        "police_office_lon": 127.04813,
        "police_office_type": "경찰소",
        "police_office_name": "번3파출소",
        "distance": 1494.7641933028674,
        "walking_time": "약 23분"
      },
      {
        "police_office_lat": 37.64433521,
        "police_office_lon": 127.0265847,
        "police_office_type": "경찰소",
        "police_office_name": "수유3파출소",
        "distance": 1503.692697154367,
        "walking_time": "약 23분"
      },
      {
        "police_office_lat": 37.64751276,
        "police_office_lon": 127.0255828,
        "police_office_type": "경찰소",
        "police_office_name": "숭미파출소",
        "distance": 1825.1272752689,
        "walking_time": "약 28분"
      },
      {
        "police_office_lat": 37.62015534,
        "police_office_lon": 127.0282649,
        "police_office_type": "경찰소",
        "police_office_name": "미아지구대",
        "distance": 1869.4253108822288,
        "walking_time": "약 28분"
      }
    ],
    "post_office": [
      {
        "post_office_lat": 37.63180799,
        "post_office_lon": 127.037878,
        "post_office_type": "우체국",
        "post_office_name": "서울번2동우체국",
        "distance": 340.2404266794914,
        "walking_time": "약 6분"
      },
      {
        "post_office_lat": 37.63895292,
        "post_office_lon": 127.0377962,
        "post_office_type": "우체국",
        "post_office_name": "서울창2동우편취급국",
        "distance": 468.59654465335547,
        "walking_time": "약 7분"
      },
      {
        "post_office_lat": 37.64122994,
        "post_office_lon": 127.0286569,
        "post_office_type": "우체국",
        "post_office_name": "서울수유3동우체국",
        "distance": 1136.7944630212703,
        "walking_time": "약 17분"
      },
      {
        "post_office_lat": 37.62571443,
        "post_office_lon": 127.0462356,
        "post_office_type": "우체국",
        "post_office_name": "서울번3동우체국",
        "distance": 1208.9707847975449,
        "walking_time": "약 19분"
      },
      {
        "post_office_lat": 37.64492915,
        "post_office_lon": 127.0316588,
        "post_office_type": "우체국",
        "post_office_name": "서울쌍문한양우편취급국",
        "distance": 1285.4747081178498,
        "walking_time": "약 20분"
      },
      {
        "post_office_lat": 37.62402918,
        "post_office_lon": 127.0284335,
        "post_office_type": "우체국",
        "post_office_name": "서울강북우체국",
        "distance": 1500.1395385710937,
        "walking_time": "약 23분"
      },
      {
        "post_office_lat": 37.63560227,
        "post_office_lon": 127.0200628,
        "post_office_type": "우체국",
        "post_office_name": "서울인수동우편취급국",
        "distance": 1642.947221641254,
        "walking_time": "약 25분"
      },
      {
        "post_office_lat": 37.6479235,
        "post_office_lon": 127.0272422,
        "post_office_type": "우체국",
        "post_office_name": "서울도봉우체국",
        "distance": 1773.7891453687994,
        "walking_time": "약 27분"
      }
    ],
    "public_health_center": [
      {
        "public_health_center_lat": 37.6318813,
        "public_health_center_lon": 127.0390622,
        "public_health_center_type": "보건소",
        "public_health_center_name": "강북구보건소",
        "distance": 326.05835006024324,
        "walking_time": "약 5분"
      },
      {
        "public_health_center_lat": 37.64141508,
        "public_health_center_lon": 127.035653,
        "public_health_center_type": "보건소",
        "public_health_center_name": "창동 보건지소",
        "distance": 782.8607297267133,
        "walking_time": "약 12분"
      }
    ],
    "school": [
      {
        "school_lat": 37.6331950434853,
        "school_lon": 127.04088417427,
        "school_type": "초등학교",
        "school_name": "서울신화초등학교",
        "distance": 262.7537023083707,
        "walking_time": "약 4분"
      },
      {
        "school_lat": 37.6324556910711,
        "school_lon": 127.036206363566,
        "school_type": "중학교",
        "school_name": "번동중학교",
        "distance": 340.3550203536892,
        "walking_time": "약 6분"
      },
      {
        "school_lat": 37.6365395299158,
        "school_lon": 127.042084340998,
        "school_type": "초등학교",
        "school_name": "서울신창초등학교",
        "distance": 355.8599579266712,
        "walking_time": "약 6분"
      },
      {
        "school_lat": 37.6367599332935,
        "school_lon": 127.03358552315,
        "school_type": "중학교",
        "school_name": "수송중학교",
        "distance": 499.8145392127634,
        "walking_time": "약 8분"
      },
      {
        "school_lat": 37.6373144075316,
        "school_lon": 127.032917771185,
        "school_type": "초등학교",
        "school_name": "서울수송초등학교",
        "distance": 580.3862615018995,
        "walking_time": "약 9분"
      },
      {
        "school_lat": 37.6290238580608,
        "school_lon": 127.040039390037,
        "school_type": "초등학교",
        "school_name": "서울번동초등학교",
        "distance": 653.0201033732582,
        "walking_time": "약 10분"
      },
      {
        "school_lat": 37.6316734128872,
        "school_lon": 127.048388273455,
        "school_type": "고등학교",
        "school_name": "월계고등학교",
        "distance": 921.788301129456,
        "walking_time": "약 14분"
      },
      {
        "school_lat": 37.6432370796248,
        "school_lon": 127.041604074164,
        "school_type": "초등학교",
        "school_name": "서울창림초등학교",
        "distance": 972.6547147742564,
        "walking_time": "약 15분"
      },
      {
        "school_lat": 37.6285588034653,
        "school_lon": 127.047477602261,
        "school_type": "중학교",
        "school_name": "신창중학교",
        "distance": 1039.180042651028,
        "walking_time": "약 16분"
      },
      {
        "school_lat": 37.6302844506448,
        "school_lon": 127.049264552091,
        "school_type": "고등학교",
        "school_name": "염광고등학교",
        "distance": 1057.654042033864,
        "walking_time": "약 16분"
      }
    ],
    "self_laundromat": [
      {
        "self_laundromat_lat": 37.62144228,
        "self_laundromat_lon": 127.0463268,
        "self_laundromat_type": "셀프 빨래방",
        "self_laundromat_name": "크린토피아 코인워시 성북장위루첸점",
        "distance": 1630.266291085418,
        "walking_time": "약 25분"
      },
      {
        "self_laundromat_lat": 37.62144228,
        "self_laundromat_lon": 127.0463268,
        "self_laundromat_type": "셀프 빨래방",
        "self_laundromat_name": "크린토피아 코인워시 성북장위루첸점",
        "distance": 1630.266291085418,
        "walking_time": "약 25분"
      }
    ],
    "subway": [
      {
        "subway_lat": 37.6377452337445,
        "subway_lon": 127.025356901379,
        "subway_type": "지하철",
        "subway_name": "4호선-수유(강북구청)역",
        "distance": 1219.1594023679204,
        "walking_time": "약 19분"
      },
      {
        "subway_lat": 37.6264436445109,
        "subway_lon": 127.026103434413,
        "subway_type": "지하철",
        "subway_name": "4호선-미아(서울사이버대학)역",
        "distance": 1446.4846660775638,
        "walking_time": "약 22분"
      },
      {
        "subway_lat": 37.6488498649136,
        "subway_lon": 127.034880717215,
        "subway_type": "지하철",
        "subway_name": "4호선-쌍문역",
        "distance": 1598.036123592318,
        "walking_time": "약 24분"
      }
    ],
    "supermarket": [
      {
        "supermarket_lat": 37.64003977,
        "supermarket_lon": 127.0372354,
        "supermarket_type": "마트",
        "supermarket_name": "삼익쇼핑",
        "distance": 596.7137409737024,
        "walking_time": "약 9분"
      },
      {
        "supermarket_lat": 37.63623599,
        "supermarket_lon": 127.0303422,
        "supermarket_type": "마트",
        "supermarket_name": "북부시장",
        "distance": 752.5024440658422,
        "walking_time": "약 12분"
      },
      {
        "supermarket_lat": 37.63623599,
        "supermarket_lon": 127.0303422,
        "supermarket_type": "마트",
        "supermarket_name": "강북 북부시장",
        "distance": 752.5024440658422,
        "walking_time": "약 12분"
      },
      {
        "supermarket_lat": 37.64260638,
        "supermarket_lon": 127.0373306,
        "supermarket_type": "마트",
        "supermarket_name": "대우상가",
        "distance": 876.390329967028,
        "walking_time": "약 14분"
      },
      {
        "supermarket_lat": 37.64333589,
        "supermarket_lon": 127.0350214,
        "supermarket_type": "마트",
        "supermarket_name": "(주)에브리데이리테일 창동점",
        "distance": 1002.8013993837752,
        "walking_time": "약 15분"
      },
      {
        "supermarket_lat": 37.64333589,
        "supermarket_lon": 127.0350214,
        "supermarket_type": "마트",
        "supermarket_name": "(주)이마트에브리데이 창동점",
        "distance": 1002.8013993837752,
        "walking_time": "약 15분"
      },
      {
        "supermarket_lat": 37.64333589,
        "supermarket_lon": 127.0350214,
        "supermarket_type": "마트",
        "supermarket_name": "(주)에브리데이리테일 창동점",
        "distance": 1002.8013993837752,
        "walking_time": "약 15분"
      },
      {
        "supermarket_lat": 37.64641958,
        "supermarket_lon": 127.0371393,
        "supermarket_type": "마트",
        "supermarket_name": "롯데프레쉬 창동점",
        "distance": 1299.3713011587051,
        "walking_time": "약 20분"
      },
      {
        "supermarket_lat": 37.63169253,
        "supermarket_lon": 127.0234675,
        "supermarket_type": "마트",
        "supermarket_name": "수유프라자",
        "distance": 1384.527322865139,
        "walking_time": "약 21분"
      },
      {
        "supermarket_lat": 37.63169253,
        "supermarket_lon": 127.0234675,
        "supermarket_type": "마트",
        "supermarket_name": "수유프라자",
        "distance": 1384.527322865139,
        "walking_time": "약 21분"
      }
    ],
    "theater": [
      {
        "theater_lat": 37.6424075100379,
        "theater_lon": 127.029806166339,
        "theater_type": "영화관",
        "theater_name": "CGV 수유",
        "distance": 1152.4263606633244,
        "walking_time": "약 18분"
      },
      {
        "theater_lat": 37.6356640949861,
        "theater_lon": 127.02383520999,
        "theater_type": "영화관",
        "theater_name": "(주)써니트 롯데시네마 수유",
        "distance": 1311.8617830378496,
        "walking_time": "약 20분"
      }
    ],
    "university": [
      {
        "university_lat": 37.629843917766,
        "university_lon": 127.027123065417,
        "university_type": "대학교",
        "university_name": "서울사이버대학교",
        "distance": 1158.291082854554,
        "walking_time": "약 18분"
      }
    ]
  }
}