{
  "클러스터_위도": 37.537564,
  "클러스터_경도": 127.094336,
  "클러스터_level": 3.0,
  "facilities": {
    "bus": [
      {
        "bus_lat": 37.53690502,
        "bus_lon": 127.0938031,
        "bus_type": "버스정류장",
        "bus_name": "테크노마트앞.강변역",
        "distance": 87.04635311312504,
        "walking_time": "약 2분"
      },
      {
        "bus_lat": 37.53686451,
        "bus_lon": 127.093755,
        "bus_type": "버스정류장",
        "bus_name": "테크노마트앞.강변역",
        "distance": 93.13453353779322,
        "walking_time": "약 2분"
      },
      {
        "bus_lat": 37.53639347,
        "bus_lon": 127.094859,
        "bus_type": "버스정류장",
        "bus_name": "강변역.테크노마트앞",
        "distance": 138.08474533370708,
        "walking_time": "약 3분"
      },
      {
        "bus_lat": 37.53634111,
        "bus_lon": 127.0947896,
        "bus_type": "버스정류장",
        "bus_name": "강변역.테크노마트앞",
        "distance": 141.7390622971366,
        "walking_time": "약 3분"
      },
      {
        "bus_lat": 37.53702053,
        "bus_lon": 127.0961012,
        "bus_type": "버스정류장",
        "bus_name": "테크노마트.광진문화원",
        "distance": 166.96269064719044,
        "walking_time": "약 3분"
      },
      {
        "bus_lat": 37.5361137,
        "bus_lon": 127.0937169,
        "bus_type": "버스정류장",
        "bus_name": "강변역A",
        "distance": 170.25447053987736,
        "walking_time": "약 3분"
      },
      {
        "bus_lat": 37.53605415,
        "bus_lon": 127.0937384,
        "bus_type": "버스정류장",
        "bus_name": "강변역B",
        "distance": 175.96236938191345,
        "walking_time": "약 3분"
      },
      {
        "bus_lat": 37.535988,
        "bus_lon": 127.093833,
        "bus_type": "버스정류장",
        "bus_name": "강변역A",
        "distance": 180.7683916326588,
        "walking_time": "약 3분"
      },
      {
        "bus_lat": 37.53785337,
        "bus_lon": 127.0965425,
        "bus_type": "버스정류장",
        "bus_name": "구의현대2단지아파트",
        "distance": 197.1950146256877,
        "walking_time": "약 3분"
      },
      {
        "bus_lat": 37.5395525,
        "bus_lon": 127.0940087,
        "bus_type": "버스정류장",
        "bus_name": "현대아파트앞",
        "distance": 222.9864001074643,
        "walking_time": "약 4분"
      }
    ],
    "community_center": [
      {
        "community_center_lat": 37.53799342,
        "community_center_lon": 127.0919847,
        "community_center_type": "주민센터",
        "community_center_name": "구의3동 자치회관",
        "distance": 212.7470365802212,
        "walking_time": "약 4분"
      },
      {
        "community_center_lat": 37.54241324,
        "community_center_lon": 127.0856773,
        "community_center_type": "주민센터",
        "community_center_name": "구의1동 자치회관",
        "distance": 934.6550386658406,
        "walking_time": "약 14분"
      },
      {
        "community_center_lat": 37.53449795,
        "community_center_lon": 127.0823949,
        "community_center_type": "주민센터",
        "community_center_name": "자양1동 자치회관",
        "distance": 1106.7188975267031,
        "walking_time": "약 17분"
      },
      {
        "community_center_lat": 37.5471696,
        "community_center_lon": 127.089934,
        "community_center_type": "주민센터",
        "community_center_name": "구의2동 자치회관",
        "distance": 1136.42170671574,
        "walking_time": "약 17분"
      },
      {
        "community_center_lat": 37.54688276,
        "community_center_lon": 127.1030098,
        "community_center_type": "주민센터",
        "community_center_name": "광장동 자치회관",
        "distance": 1287.8428512772753,
        "walking_time": "약 20분"
      },
      {
        "community_center_lat": 37.52879933,
        "community_center_lon": 127.0843875,
        "community_center_type": "주민센터",
        "community_center_name": "자양2동 자치회관",
        "distance": 1311.2442014683654,
        "walking_time": "약 20분"
      }
    ],
    "convenience_store": [
      {
        "convenience_store_lat": 37.53813937,
        "convenience_store_lon": 127.095065,
        "convenience_store_type": "편의점",
        "convenience_store_name": "GS25 구의타운점",
        "distance": 90.69072646666852,
        "walking_time": "약 2분"
      },
      {
        "convenience_store_lat": 37.53695769,
        "convenience_store_lon": 127.0965367,
        "convenience_store_type": "편의점",
        "convenience_store_name": "세븐일레븐 강변프라임점",
        "distance": 205.42040152282445,
        "walking_time": "약 4분"
      },
      {
        "convenience_store_lat": 37.53572518,
        "convenience_store_lon": 127.0956922,
        "convenience_store_type": "편의점",
        "convenience_store_name": "세븐일레븐 강변테크노마트점",
        "distance": 236.86821208360453,
        "walking_time": "약 4분"
      },
      {
        "convenience_store_lat": 37.53582857,
        "convenience_store_lon": 127.0925837,
        "convenience_store_type": "편의점",
        "convenience_store_name": "GS25 구의강변점",
        "distance": 247.20445626125385,
        "walking_time": "약 4분"
      },
      {
        "convenience_store_lat": 37.53534922,
        "convenience_store_lon": 127.0934051,
        "convenience_store_type": "편의점",
        "convenience_store_name": "CU 구의지너스점",
        "distance": 259.5906992190338,
        "walking_time": "약 4분"
      },
      {
        "convenience_store_lat": 37.53952453,
        "convenience_store_lon": 127.092731,
        "convenience_store_type": "편의점",
        "convenience_store_name": "세븐일레븐 구의파크점",
        "distance": 259.9055843552884,
        "walking_time": "약 4분"
      },
      {
        "convenience_store_lat": 37.53516928,
        "convenience_store_lon": 127.0946646,
        "convenience_store_type": "편의점",
        "convenience_store_name": "세븐일레븐 M강변역점",
        "distance": 267.8523999102192,
        "walking_time": "약 4분"
      },
      {
        "convenience_store_lat": 37.54041878,
        "convenience_store_lon": 127.0939741,
        "convenience_store_type": "편의점",
        "convenience_store_name": "세븐일레븐 구의희망점",
        "distance": 319.0367800781651,
        "walking_time": "약 5분"
      },
      {
        "convenience_store_lat": 37.53775396,
        "convenience_store_lon": 127.0899611,
        "convenience_store_type": "편의점",
        "convenience_store_name": "CU 광진우체국점",
        "distance": 386.32312059263313,
        "walking_time": "약 6분"
      },
      {
        "convenience_store_lat": 37.53488531,
        "convenience_store_lon": 127.0913073,
        "convenience_store_type": "편의점",
        "convenience_store_name": "GS25 구의성진점",
        "distance": 400.04475752859867,
        "walking_time": "약 6분"
      }
    ],
    "daycare": [
      {
        "daycare_lat": 37.53745566,
        "daycare_lon": 127.09490716161916,
        "daycare_type": "어린이집",
        "daycare_name": "아띠어린이집",
        "distance": 51.78159492947128,
        "walking_time": "약 1분"
      },
      {
        "daycare_lat": 37.53745566,
        "daycare_lon": 127.09490716161916,
        "daycare_type": "어린이집",
        "daycare_name": "바니스쿨어린이집",
        "distance": 51.78159492947128,
        "walking_time": "약 1분"
      },
      {
        "daycare_lat": 37.53745566,
        "daycare_lon": 127.09490716161916,
        "daycare_type": "어린이집",
        "daycare_name": "현대아이자람어린이집",
        "distance": 51.78159492947128,
        "walking_time": "약 1분"
      },
      {
        "daycare_lat": 37.53745566,
        "daycare_lon": 127.09490716161916,
        "daycare_type": "어린이집",
        "daycare_name": "현대몬테소리어린이집",
        "distance": 51.78159492947128,
        "walking_time": "약 1분"
      },
      {
        "daycare_lat": 37.53814028736765,
        "daycare_lon": 127.09506642013208,
        "daycare_type": "어린이집",
        "daycare_name": "새롬어린이집",
        "distance": 90.8514361651373,
        "walking_time": "약 2분"
      },
      {
        "daycare_lat": 37.537338245740834,
        "daycare_lon": 127.09568189059078,
        "daycare_type": "어린이집",
        "daycare_name": "구립 바니스쿨어린이집",
        "distance": 121.29664480071442,
        "walking_time": "약 2분"
      },
      {
        "daycare_lat": 37.53842803,
        "daycare_lon": 127.09282630638396,
        "daycare_type": "어린이집",
        "daycare_name": "나무어린이집",
        "distance": 164.1631061397671,
        "walking_time": "약 3분"
      },
      {
        "daycare_lat": 37.53782345,
        "daycare_lon": 127.09622,
        "daycare_type": "어린이집",
        "daycare_name": "광장아이자람어린이집",
        "distance": 168.60318331934877,
        "walking_time": "약 3분"
      },
      {
        "daycare_lat": 37.53782582239961,
        "daycare_lon": 127.09622011418512,
        "daycare_type": "어린이집",
        "daycare_name": "현대아이사랑어린이집",
        "distance": 168.6584361706382,
        "walking_time": "약 3분"
      },
      {
        "daycare_lat": 37.53781082437571,
        "daycare_lon": 127.09623125571322,
        "daycare_type": "어린이집",
        "daycare_name": "구립 아띠어린이집",
        "distance": 169.34790344826314,
        "walking_time": "약 3분"
      }
    ],
    "education": [
      {
        "education_lat": 37.53799342,
        "education_lon": 127.0919847,
        "education_type": "도서관",
        "education_name": "구의제3동도서관",
        "distance": 212.7470365802212,
        "walking_time": "약 4분"
      },
      {
        "education_lat": 37.54554942,
        "education_lon": 127.0982047,
        "education_type": "문화원",
        "education_name": "몽골 울란바타르 문화진흥원",
        "distance": 951.19910160267,
        "walking_time": "약 15분"
      },
      {
        "education_lat": 37.54572677,
        "education_lon": 127.1079679,
        "education_type": "공연장",
        "education_name": "예스24 라이브홀",
        "distance": 1506.1174168622883,
        "walking_time": "약 23분"
      },
      {
        "education_lat": 37.52239197,
        "education_lon": 127.1029818,
        "education_type": "도서관",
        "education_name": "송파어린이영어도서관",
        "distance": 1851.3236775543749,
        "walking_time": "약 28분"
      }
    ],
    "fitness": [
      {
        "fitness_lat": 37.5381147,
        "fitness_lon": 127.0940398,
        "fitness_type": "운동시설",
        "fitness_name": "웨스트짐 헬스&PT 강변역점",
        "distance": 66.57181890598885,
        "walking_time": "약 1분"
      },
      {
        "fitness_lat": 37.5381147,
        "fitness_lon": 127.0940398,
        "fitness_type": "운동시설",
        "fitness_name": "바디랩 그룹트레이닝 & PT 강변점",
        "distance": 66.57181890598885,
        "walking_time": "약 1분"
      },
      {
        "fitness_lat": 37.53837066,
        "fitness_lon": 127.0941625,
        "fitness_type": "운동시설",
        "fitness_name": "정스짐 여성전문 PT & 헬스",
        "distance": 90.99168066663076,
        "walking_time": "약 2분"
      },
      {
        "fitness_lat": 37.53837066,
        "fitness_lon": 127.0941625,
        "fitness_type": "운동시설",
        "fitness_name": "블라썸 크로스핏",
        "distance": 90.99168066663076,
        "walking_time": "약 2분"
      },
      {
        "fitness_lat": 37.53709653,
        "fitness_lon": 127.0953257,
        "fitness_type": "운동시설",
        "fitness_name": "퍼스트 핏(FIRST FIT)",
        "distance": 101.57290554400336,
        "walking_time": "약 2분"
      },
      {
        "fitness_lat": 37.53678879,
        "fitness_lon": 127.0961606,
        "fitness_type": "운동시설",
        "fitness_name": "더프라임PT",
        "distance": 182.5179928895229,
        "walking_time": "약 3분"
      },
      {
        "fitness_lat": 37.53911188,
        "fitness_lon": 127.0930637,
        "fitness_type": "운동시설",
        "fitness_name": "빌리버짐 구의점",
        "distance": 205.44721515788376,
        "walking_time": "약 4분"
      },
      {
        "fitness_lat": 37.53814044,
        "fitness_lon": 127.0966352,
        "fitness_type": "운동시설",
        "fitness_name": "드바디샵",
        "distance": 212.61707626157752,
        "walking_time": "약 4분"
      },
      {
        "fitness_lat": 37.53572518,
        "fitness_lon": 127.0956922,
        "fitness_type": "운동시설",
        "fitness_name": "버핏그라운드 강변테크노마트",
        "distance": 236.86821208360453,
        "walking_time": "약 4분"
      },
      {
        "fitness_lat": 37.53534922,
        "fitness_lon": 127.0934051,
        "fitness_type": "운동시설",
        "fitness_name": "리몸델링짐 PT&필라테스 구의점",
        "distance": 259.5906992190338,
        "walking_time": "약 4분"
      }
    ],
    "gas_station": [
      {
        "gas_station_lat": 37.53757602,
        "gas_station_lon": 127.0912437,
        "gas_station_type": "주유소",
        "gas_station_name": "동서울주유소",
        "distance": 272.658977130967,
        "walking_time": "약 5분"
      },
      {
        "gas_station_lat": 37.53132018,
        "gas_station_lon": 127.0858548,
        "gas_station_type": "주유소",
        "gas_station_name": "현대오일뱅크㈜직영 장호셀프주유소",
        "distance": 1020.4363705414568,
        "walking_time": "약 16분"
      },
      {
        "gas_station_lat": 37.5457222,
        "gas_station_lon": 127.1037172,
        "gas_station_type": "주유소",
        "gas_station_name": "삼호주유소",
        "distance": 1227.6182757281806,
        "walking_time": "약 19분"
      },
      {
        "gas_station_lat": 37.54511911,
        "gas_station_lon": 127.0804396,
        "gas_station_type": "주유소",
        "gas_station_name": "㈜창원씨더블유",
        "distance": 1485.5671380171084,
        "walking_time": "약 23분"
      },
      {
        "gas_station_lat": 37.54764633,
        "gas_station_lon": 127.1072956,
        "gas_station_type": "주유소",
        "gas_station_name": "강평주유소",
        "distance": 1600.7544748238004,
        "walking_time": "약 24분"
      }
    ],
    "hospital": [
      {
        "hospital_lat": 37.53709653,
        "hospital_lon": 127.0953257,
        "hospital_type": "병원",
        "hospital_name": "사랑가득한치과의원",
        "distance": 101.57290554400336,
        "walking_time": "약 2분"
      },
      {
        "hospital_lat": 37.53782408,
        "hospital_lon": 127.0962194,
        "hospital_type": "병원",
        "hospital_name": "최종명치과의원",
        "distance": 168.56306420000212,
        "walking_time": "약 3분"
      },
      {
        "hospital_lat": 37.53678879,
        "hospital_lon": 127.0961606,
        "hospital_type": "병원",
        "hospital_name": "365류마고내과의원",
        "distance": 182.5179928895229,
        "walking_time": "약 3분"
      },
      {
        "hospital_lat": 37.53678879,
        "hospital_lon": 127.0961606,
        "hospital_type": "병원",
        "hospital_name": "우리아이치과의원",
        "distance": 182.5179928895229,
        "walking_time": "약 3분"
      },
      {
        "hospital_lat": 37.53678879,
        "hospital_lon": 127.0961606,
        "hospital_type": "병원",
        "hospital_name": "길치과의원",
        "distance": 182.5179928895229,
        "walking_time": "약 3분"
      },
      {
        "hospital_lat": 37.53678879,
        "hospital_lon": 127.0961606,
        "hospital_type": "병원",
        "hospital_name": "류의원",
        "distance": 182.5179928895229,
        "walking_time": "약 3분"
      },
      {
        "hospital_lat": 37.53678879,
        "hospital_lon": 127.0961606,
        "hospital_type": "병원",
        "hospital_name": "민안과의원",
        "distance": 182.5179928895229,
        "walking_time": "약 3분"
      },
      {
        "hospital_lat": 37.53678879,
        "hospital_lon": 127.0961606,
        "hospital_type": "병원",
        "hospital_name": "세명한의원",
        "distance": 182.5179928895229,
        "walking_time": "약 3분"
      },
      {
        "hospital_lat": 37.53678879,
        "hospital_lon": 127.0961606,
        "hospital_type": "병원",
        "hospital_name": "에스티엠(STM)치과의원",
        "distance": 182.5179928895229,
        "walking_time": "약 3분"
      },
      {
        "hospital_lat": 37.53678879,
        "hospital_lon": 127.0961606,
        "hospital_type": "병원",
        "hospital_name": "화인정신건강의학과의원",
        "distance": 182.5179928895229,
        "walking_time": "약 3분"
      }
    ],
    "music_room": [
      {
        "music_room_lat": 37.53839093,
        "music_room_lon": 127.0936005,
        "music_room_type": "노래방",
        "music_room_name": "핑크 노래연습장",
        "distance": 112.51873627100976,
        "walking_time": "약 2분"
      },
      {
        "music_room_lat": 37.53534922,
        "music_room_lon": 127.0934051,
        "music_room_type": "노래방",
        "music_room_name": "나루 코인노래연습장",
        "distance": 259.5906992190338,
        "walking_time": "약 4분"
      },
      {
        "music_room_lat": 37.53892729,
        "music_room_lon": 127.0916546,
        "music_room_type": "노래방",
        "music_room_name": "틴틴",
        "distance": 280.8484990428306,
        "walking_time": "약 5분"
      },
      {
        "music_room_lat": 37.54000621,
        "music_room_lon": 127.0934154,
        "music_room_type": "노래방",
        "music_room_name": "강변코인 노래연습장",
        "distance": 283.4328525025316,
        "walking_time": "약 5분"
      },
      {
        "music_room_lat": 37.54051873,
        "music_room_lon": 127.0942835,
        "music_room_type": "노래방",
        "music_room_name": "탑",
        "distance": 328.5835927713403,
        "walking_time": "약 5분"
      },
      {
        "music_room_lat": 37.53511759,
        "music_room_lon": 127.0921239,
        "music_room_type": "노래방",
        "music_room_name": "럭셔리",
        "distance": 334.72937361018,
        "walking_time": "약 5분"
      },
      {
        "music_room_lat": 37.5408394,
        "music_room_lon": 127.0942774,
        "music_room_type": "노래방",
        "music_room_name": "갈채노래연습장",
        "distance": 364.2445099471653,
        "walking_time": "약 6분"
      },
      {
        "music_room_lat": 37.53878008,
        "music_room_lon": 127.0983572,
        "music_room_type": "노래방",
        "music_room_name": "테크노노래연습장(광나루로56길 63 수정 필요)",
        "distance": 379.4668563148818,
        "walking_time": "약 6분"
      },
      {
        "music_room_lat": 37.54097121,
        "music_room_lon": 127.0949557,
        "music_room_type": "노래방",
        "music_room_name": "렛츠코인노래연습장",
        "distance": 382.7841808054137,
        "walking_time": "약 6분"
      },
      {
        "music_room_lat": 37.53464013,
        "music_room_lon": 127.091335,
        "music_room_type": "노래방",
        "music_room_name": "발리",
        "distance": 419.191546338684,
        "walking_time": "약 7분"
      }
    ],
    "park": [
      {
        "park_lat": 37.5498987,
        "park_lon": 127.0809212,
        "park_type": "공원",
        "park_name": "어린이대공원",
        "distance": 1811.0738062202377,
        "walking_time": "약 28분"
      }
    ],
    "park_station": [
      {
        "park_station_lat": 37.53911547,
        "park_station_lon": 127.091361,
        "park_station_type": "주차장",
        "park_station_name": "구의3동 공영주차장",
        "distance": 313.95597895429046,
        "walking_time": "약 5분"
      },
      {
        "park_station_lat": 37.53351479,
        "park_station_lon": 127.0913148,
        "park_station_type": "주차장",
        "park_station_name": "동서울 노외주차장",
        "distance": 523.1560165076793,
        "walking_time": "약 8분"
      },
      {
        "park_station_lat": 37.53827595,
        "park_station_lon": 127.087868,
        "park_station_type": "주차장",
        "park_station_name": "구의1동 공영주차장",
        "distance": 575.7652080817392,
        "walking_time": "약 9분"
      },
      {
        "park_station_lat": 37.53181536,
        "park_station_lon": 127.0918511,
        "park_station_type": "주차장",
        "park_station_name": "동서울 호텔길 공영주차장",
        "distance": 675.7293164626294,
        "walking_time": "약 11분"
      },
      {
        "park_station_lat": 37.53379726,
        "park_station_lon": 127.0815891,
        "park_station_type": "주차장",
        "park_station_name": "자양전통시장 공영주차장",
        "distance": 1199.4588674204056,
        "walking_time": "약 18분"
      },
      {
        "park_station_lat": 37.52529597,
        "park_station_lon": 127.1060433,
        "park_station_type": "주차장",
        "park_station_name": "풍납유수지",
        "distance": 1710.7379881825898,
        "walking_time": "약 26분"
      },
      {
        "park_station_lat": 37.52510587,
        "park_station_lon": 127.1061505,
        "park_station_type": "주차장",
        "park_station_name": "풍납유수지",
        "distance": 1733.3065495066123,
        "walking_time": "약 26분"
      },
      {
        "park_station_lat": 37.52239197,
        "park_station_lon": 127.1029818,
        "park_station_type": "주차장",
        "park_station_name": "신천유수지 공영주차장",
        "distance": 1851.3236775543749,
        "walking_time": "약 28분"
      }
    ],
    "pc_room": [
      {
        "pc_room_lat": 37.5367887874337,
        "pc_room_lon": 127.096160584389,
        "pc_room_type": "PC방",
        "pc_room_name": "사이버리아PC방",
        "distance": 182.5169143772876,
        "walking_time": "약 3분"
      },
      {
        "pc_room_lat": 37.5353492183772,
        "pc_room_lon": 127.093405063055,
        "pc_room_type": "PC방",
        "pc_room_name": "맥스피드 PC 동서울터미널점",
        "distance": 259.59190045288835,
        "walking_time": "약 4분"
      },
      {
        "pc_room_lat": 37.5404187841405,
        "pc_room_lon": 127.093974084703,
        "pc_room_type": "PC방",
        "pc_room_name": "제로백 PC방 구의점",
        "distance": 319.0373730716937,
        "walking_time": "약 5분"
      },
      {
        "pc_room_lat": 37.5407914746361,
        "pc_room_lon": 127.09583385236,
        "pc_room_type": "PC방",
        "pc_room_name": "PPL PC방",
        "distance": 382.407573722126,
        "walking_time": "약 6분"
      },
      {
        "pc_room_lat": 37.5384927045864,
        "pc_room_lon": 127.089346755579,
        "pc_room_type": "PC방",
        "pc_room_name": "엔탑 PC방",
        "distance": 451.869488866039,
        "walking_time": "약 7분"
      },
      {
        "pc_room_lat": 37.538350750252,
        "pc_room_lon": 127.089289559874,
        "pc_room_type": "PC방",
        "pc_room_name": "리그 PC 카페",
        "distance": 453.4731820459443,
        "walking_time": "약 7분"
      },
      {
        "pc_room_lat": 37.5383492759492,
        "pc_room_lon": 127.08679556141,
        "pc_room_type": "PC방",
        "pc_room_name": "고스트",
        "distance": 670.5650589303486,
        "walking_time": "약 11분"
      },
      {
        "pc_room_lat": 37.5388588365985,
        "pc_room_lon": 127.085124386664,
        "pc_room_type": "PC방",
        "pc_room_name": "마카오PC",
        "distance": 824.8665139471098,
        "walking_time": "약 13분"
      },
      {
        "pc_room_lat": 37.537235766975,
        "pc_room_lon": 127.084759909345,
        "pc_room_type": "PC방",
        "pc_room_name": "에코스PC방 구의점",
        "distance": 845.1378659028987,
        "walking_time": "약 13분"
      },
      {
        "pc_room_lat": 37.5397413502913,
        "pc_room_lon": 127.085021066015,
        "pc_room_type": "PC방",
        "pc_room_name": "아이넷 폴리스",
        "distance": 856.2507969899453,
        "walking_time": "약 13분"
      }
    ],
    "police_office": [
      {
        "police_office_lat": 37.54589543,
        "police_office_lon": 127.0916677,
        "police_office_type": "경찰소",
        "police_office_name": "구의파출소",
        "distance": 955.8172670092392,
        "walking_time": "약 15분"
      },
      {
        "police_office_lat": 37.54445466,
        "police_office_lon": 127.1033165,
        "police_office_type": "경찰소",
        "police_office_name": "광나루지구대",
        "distance": 1101.8228613228073,
        "walking_time": "약 17분"
      }
    ],
    "post_office": [
      {
        "post_office_lat": 37.53572518,
        "post_office_lon": 127.0956922,
        "post_office_type": "우체국",
        "post_office_name": "서울테크노마트우편취급국",
        "distance": 236.86821208360453,
        "walking_time": "약 4분"
      },
      {
        "post_office_lat": 37.53775396,
        "post_office_lon": 127.0899611,
        "post_office_type": "우체국",
        "post_office_name": "서울광진우체국",
        "distance": 386.32312059263313,
        "walking_time": "약 6분"
      },
      {
        "post_office_lat": 37.53775396,
        "post_office_lon": 127.0899611,
        "post_office_type": "우체국",
        "post_office_name": "동서울물류센터",
        "distance": 386.32312059263313,
        "walking_time": "약 6분"
      },
      {
        "post_office_lat": 37.53560103,
        "post_office_lon": 127.0873067,
        "post_office_type": "우체국",
        "post_office_name": "동서울우편집중국",
        "distance": 657.1099303034176,
        "walking_time": "약 10분"
      },
      {
        "post_office_lat": 37.54793719,
        "post_office_lon": 127.0889468,
        "post_office_type": "우체국",
        "post_office_name": "서울경안우편취급국",
        "distance": 1247.4781117408556,
        "walking_time": "약 19분"
      },
      {
        "post_office_lat": 37.53150528,
        "post_office_lon": 127.0805542,
        "post_office_type": "우체국",
        "post_office_name": "서울자양동우체국",
        "distance": 1389.4751798710038,
        "walking_time": "약 21분"
      },
      {
        "post_office_lat": 37.54770571,
        "post_office_lon": 127.1059901,
        "post_office_type": "우체국",
        "post_office_name": "서울광나루우편취급국",
        "distance": 1525.608222065037,
        "walking_time": "약 23분"
      },
      {
        "post_office_lat": 37.54986363,
        "post_office_lon": 127.103315,
        "post_office_type": "우체국",
        "post_office_name": "서울장로회신학대학교우편취급국",
        "distance": 1580.2438454052958,
        "walking_time": "약 24분"
      },
      {
        "post_office_lat": 37.52517113,
        "post_office_lon": 127.1093805,
        "post_office_type": "우체국",
        "post_office_name": "서울아산병원우편취급국",
        "distance": 1912.818321363765,
        "walking_time": "약 29분"
      }
    ],
    "public_health_center": [
      {
        "public_health_center_lat": 37.53853161,
        "public_health_center_lon": 127.0819098,
        "public_health_center_type": "보건소",
        "public_health_center_name": "광진구청",
        "distance": 1100.9118354406307,
        "walking_time": "약 17분"
      }
    ],
    "school": [
      {
        "school_lat": 37.5370965949427,
        "school_lon": 127.092288798461,
        "school_type": "초등학교",
        "school_name": "서울구남초등학교",
        "distance": 187.8406603806575,
        "walking_time": "약 3분"
      },
      {
        "school_lat": 37.5332813682573,
        "school_lon": 127.089281026795,
        "school_type": "초등학교",
        "school_name": "성동초등학교",
        "distance": 652.25866657216,
        "walking_time": "약 10분"
      },
      {
        "school_lat": 37.5409675314785,
        "school_lon": 127.100704228215,
        "school_type": "초등학교",
        "school_name": "서울광남초등학교",
        "distance": 677.1255926152494,
        "walking_time": "약 11분"
      },
      {
        "school_lat": 37.5322195901849,
        "school_lon": 127.090162126057,
        "school_type": "중학교",
        "school_name": "광진중학교",
        "distance": 699.0045201290044,
        "walking_time": "약 11분"
      },
      {
        "school_lat": 37.5408304051926,
        "school_lon": 127.101643877784,
        "school_type": "중학교",
        "school_name": "광남중학교",
        "distance": 739.6575045868467,
        "walking_time": "약 12분"
      },
      {
        "school_lat": 37.541514723184,
        "school_lon": 127.101213923003,
        "school_type": "고등학교",
        "school_name": "광남고등학교",
        "distance": 748.8250712967061,
        "walking_time": "약 12분"
      },
      {
        "school_lat": 37.5419293578309,
        "school_lon": 127.086973061678,
        "school_type": "고등학교",
        "school_name": "동국대학교사범대학부속여자고등학교",
        "distance": 810.5958109428699,
        "walking_time": "약 13분"
      },
      {
        "school_lat": 37.5419293578309,
        "school_lon": 127.086973061678,
        "school_type": "중학교",
        "school_name": "동국대학교사범대학부속여자중학교",
        "distance": 810.5958109428699,
        "walking_time": "약 13분"
      },
      {
        "school_lat": 37.5311232360546,
        "school_lon": 127.089234331023,
        "school_type": "초등학교",
        "school_name": "서울양남초등학교",
        "distance": 845.7397724636746,
        "walking_time": "약 13분"
      },
      {
        "school_lat": 37.5449782076528,
        "school_lon": 127.098714317037,
        "school_type": "중학교",
        "school_name": "양진중학교",
        "distance": 910.3238827728926,
        "walking_time": "약 14분"
      }
    ],
    "subway": [
      {
        "subway_lat": 37.5351692767888,
        "subway_lon": 127.094664569096,
        "subway_type": "지하철",
        "subway_name": "2호선-강변(동서울터미널)역",
        "distance": 267.852460138963,
        "walking_time": "약 4분"
      },
      {
        "subway_lat": 37.5371535596228,
        "subway_lon": 127.086179228767,
        "subway_type": "지하철",
        "subway_name": "2호선-구의(광진구청)역",
        "distance": 720.6512394387099,
        "walking_time": "약 11분"
      },
      {
        "subway_lat": 37.5452786641598,
        "subway_lon": 127.103686533578,
        "subway_type": "지하철",
        "subway_name": "5호선-광나루(장신대)역",
        "distance": 1189.763947856332,
        "walking_time": "약 18분"
      },
      {
        "subway_lat": 37.5206867318088,
        "subway_lon": 127.103811089444,
        "subway_type": "지하철",
        "subway_name": "2호선-잠실나루역",
        "distance": 2054.2635775434023,
        "walking_time": "약 31분"
      }
    ],
    "supermarket": [
      {
        "supermarket_lat": 37.53678879,
        "supermarket_lon": 127.0961606,
        "supermarket_type": "마트",
        "supermarket_name": "프라임프라자상가",
        "distance": 182.5179928895229,
        "walking_time": "약 3분"
      },
      {
        "supermarket_lat": 37.53814044,
        "supermarket_lon": 127.0966352,
        "supermarket_type": "마트",
        "supermarket_name": "구의현대종합상가",
        "distance": 212.61707626157752,
        "walking_time": "약 4분"
      },
      {
        "supermarket_lat": 37.53572518,
        "supermarket_lon": 127.0956922,
        "supermarket_type": "마트",
        "supermarket_name": "테크노-마트21",
        "distance": 236.86821208360453,
        "walking_time": "약 4분"
      },
      {
        "supermarket_lat": 37.53572518,
        "supermarket_lon": 127.0956922,
        "supermarket_type": "마트",
        "supermarket_name": "롯데쇼핑(주)롯데마트 강변점",
        "distance": 236.86821208360453,
        "walking_time": "약 4분"
      },
      {
        "supermarket_lat": 37.54051873,
        "supermarket_lon": 127.0942835,
        "supermarket_type": "마트",
        "supermarket_name": "홈플러스익스프레스 구의2점",
        "distance": 328.5835927713403,
        "walking_time": "약 5분"
      },
      {
        "supermarket_lat": 37.53453851,
        "supermarket_lon": 127.0941841,
        "supermarket_type": "마트",
        "supermarket_name": "동서울터미널상가",
        "distance": 336.68565043963844,
        "walking_time": "약 6분"
      },
      {
        "supermarket_lat": 37.54006401,
        "supermarket_lon": 127.097812,
        "supermarket_type": "마트",
        "supermarket_name": "현대종합상가",
        "distance": 413.7740980606385,
        "walking_time": "약 7분"
      },
      {
        "supermarket_lat": 37.54550282,
        "supermarket_lon": 127.0887807,
        "supermarket_type": "마트",
        "supermarket_name": "구의 자이르네 판매시설",
        "distance": 1009.5353183788056,
        "walking_time": "약 16분"
      },
      {
        "supermarket_lat": 37.54263602,
        "supermarket_lon": 127.0846048,
        "supermarket_type": "마트",
        "supermarket_name": "GS THE FRESH 광진구의점",
        "distance": 1026.7578461184903,
        "walking_time": "약 16분"
      },
      {
        "supermarket_lat": 37.53092173,
        "supermarket_lon": 127.084141,
        "supermarket_type": "마트",
        "supermarket_name": "프라젠 스파",
        "distance": 1163.4588338429608,
        "walking_time": "약 18분"
      }
    ],
    "theater": [
      {
        "theater_lat": 37.535725176732,
        "theater_lon": 127.095692162256,
        "theater_type": "영화관",
        "theater_name": "CGV강변",
        "distance": 236.8668456574732,
        "walking_time": "약 4분"
      }
    ],
    "university": [
      {
        "university_lat": 37.5486902335292,
        "university_lon": 127.104573818024,
        "university_type": "대학교",
        "university_name": "장로회신학대학교",
        "distance": 1531.4536975956655,
        "walking_time": "약 23분"
      }
    ]
  }
}