{
  "클러스터_위도": 37.48125350013745,
  "클러스터_경도": 126.88757550026264,
  "클러스터_level": 3.0,
  "facilities": {
    "bus": [
      {
        "bus_lat": 37.48143788,
        "bus_lon": 126.8867151,
        "bus_type": "버스정류장",
        "bus_name": "가산디지털단지역입구",
        "distance": 78.64032132002237,
        "walking_time": "약 2분"
      },
      {
        "bus_lat": 37.4824286,
        "bus_lon": 126.8869929,
        "bus_type": "버스정류장",
        "bus_name": "가리봉시장",
        "distance": 140.4141293092065,
        "walking_time": "약 3분"
      },
      {
        "bus_lat": 37.48011533,
        "bus_lon": 126.8887535,
        "bus_type": "버스정류장",
        "bus_name": "디지털단지오거리",
        "distance": 163.77409353775988,
        "walking_time": "약 3분"
      },
      {
        "bus_lat": 37.47982436,
        "bus_lon": 126.8883314,
        "bus_type": "버스정류장",
        "bus_name": "디지털단지오거리.가산파출소",
        "distance": 172.34366264874726,
        "walking_time": "약 3분"
      },
      {
        "bus_lat": 37.47980025,
        "bus_lon": 126.8866639,
        "bus_type": "버스정류장",
        "bus_name": "이앤씨드림타워7차",
        "distance": 180.5080206862179,
        "walking_time": "약 3분"
      },
      {
        "bus_lat": 37.47993001,
        "bus_lon": 126.8862425,
        "bus_type": "버스정류장",
        "bus_name": "한신IT타워",
        "distance": 188.3958017195243,
        "walking_time": "약 3분"
      },
      {
        "bus_lat": 37.48300829,
        "bus_lon": 126.8871282,
        "bus_type": "버스정류장",
        "bus_name": "가리봉시장",
        "distance": 199.0755173762048,
        "walking_time": "약 3분"
      },
      {
        "bus_lat": 37.48115903,
        "bus_lon": 126.8848613,
        "bus_type": "버스정류장",
        "bus_name": "스타밸리앞",
        "distance": 239.72875366256528,
        "walking_time": "약 4분"
      },
      {
        "bus_lat": 37.479933,
        "bus_lon": 126.890398,
        "bus_type": "버스정류장",
        "bus_name": "디지털단지오거리",
        "distance": 289.1179444115634,
        "walking_time": "약 5분"
      },
      {
        "bus_lat": 37.48078222,
        "bus_lon": 126.884209,
        "bus_type": "버스정류장",
        "bus_name": "가산디지털단지역",
        "distance": 301.6444664552573,
        "walking_time": "약 5분"
      }
    ],
    "community_center": [
      {
        "community_center_lat": 37.48254989,
        "community_center_lon": 126.8896421,
        "community_center_type": "주민센터",
        "community_center_name": "가리봉동 자치회관",
        "distance": 232.4488262181216,
        "walking_time": "약 4분"
      },
      {
        "community_center_lat": 37.48565541,
        "community_center_lon": 126.8866217,
        "community_center_type": "주민센터",
        "community_center_name": "구로4동 자치회관",
        "distance": 496.65260986819214,
        "walking_time": "약 8분"
      },
      {
        "community_center_lat": 37.47689182,
        "community_center_lon": 126.8917817,
        "community_center_type": "주민센터",
        "community_center_name": "가산동 자치회관",
        "distance": 610.7232042922008,
        "walking_time": "약 10분"
      },
      {
        "community_center_lat": 37.48734704,
        "community_center_lon": 126.89033,
        "community_center_type": "주민센터",
        "community_center_name": "구로3동 자치회관",
        "distance": 719.8421122722796,
        "walking_time": "약 11분"
      },
      {
        "community_center_lat": 37.4913197,
        "community_center_lon": 126.883399,
        "community_center_type": "주민센터",
        "community_center_name": "구로2동 자치회관",
        "distance": 1178.410758505687,
        "walking_time": "약 18분"
      },
      {
        "community_center_lat": 37.47021905,
        "community_center_lon": 126.8970437,
        "community_center_type": "주민센터",
        "community_center_name": "독산1동 자치회관",
        "distance": 1484.443145549331,
        "walking_time": "약 23분"
      },
      {
        "community_center_lat": 37.49273981,
        "community_center_lon": 126.8982505,
        "community_center_type": "주민센터",
        "community_center_name": "대림2동 자치회관",
        "distance": 1586.9547532220604,
        "walking_time": "약 24분"
      },
      {
        "community_center_lat": 37.49304008,
        "community_center_lon": 126.8757883,
        "community_center_type": "주민센터",
        "community_center_name": "구로1동 자치회관",
        "distance": 1673.114279452723,
        "walking_time": "약 25분"
      }
    ],
    "convenience_store": [
      {
        "convenience_store_lat": 37.48215178,
        "convenience_store_lon": 126.887403,
        "convenience_store_type": "편의점",
        "convenience_store_name": "CU 구로2동점",
        "distance": 101.03726955647129,
        "walking_time": "약 2분"
      },
      {
        "convenience_store_lat": 37.48107584,
        "convenience_store_lon": 126.8864183,
        "convenience_store_type": "편의점",
        "convenience_store_name": "CU 가산대륭점",
        "distance": 104.00372618545398,
        "walking_time": "약 2분"
      },
      {
        "convenience_store_lat": 37.48005881,
        "convenience_store_lon": 126.8871007,
        "convenience_store_type": "편의점",
        "convenience_store_name": "CU 가산ENC7차점",
        "distance": 139.293523442124,
        "walking_time": "약 3분"
      },
      {
        "convenience_store_lat": 37.48255934,
        "convenience_store_lon": 126.8875312,
        "convenience_store_type": "편의점",
        "convenience_store_name": "GS25 구로가리봉점",
        "distance": 145.25537462589327,
        "walking_time": "약 3분"
      },
      {
        "convenience_store_lat": 37.48317631,
        "convenience_store_lon": 126.8871149,
        "convenience_store_type": "편의점",
        "convenience_store_name": "세븐일레븐 가리봉중앙점",
        "distance": 217.6352668087669,
        "walking_time": "약 4분"
      },
      {
        "convenience_store_lat": 37.47892215,
        "convenience_store_lon": 126.886029,
        "convenience_store_type": "편의점",
        "convenience_store_name": "GS25 금천패션점",
        "distance": 292.9586822426638,
        "walking_time": "약 5분"
      },
      {
        "convenience_store_lat": 37.47902899,
        "convenience_store_lon": 126.8899019,
        "convenience_store_type": "편의점",
        "convenience_store_name": "CU 가산디지털점",
        "distance": 321.44195245770413,
        "walking_time": "약 5분"
      },
      {
        "convenience_store_lat": 37.47949312,
        "convenience_store_lon": 126.8846349,
        "convenience_store_type": "편의점",
        "convenience_store_name": "GS25 가산세진점",
        "distance": 325.0314441978222,
        "walking_time": "약 5분"
      },
      {
        "convenience_store_lat": 37.47818755,
        "convenience_store_lon": 126.8871542,
        "convenience_store_type": "편의점",
        "convenience_store_name": "세븐일레븐 가산마리오아울렛1관점",
        "distance": 342.9390578968277,
        "walking_time": "약 6분"
      },
      {
        "convenience_store_lat": 37.48191825,
        "convenience_store_lon": 126.8833283,
        "convenience_store_type": "편의점",
        "convenience_store_name": "세븐일레븐 가산디지털역점",
        "distance": 381.98698578126255,
        "walking_time": "약 6분"
      }
    ],
    "daycare": [
      {
        "daycare_lat": 37.48104571,
        "daycare_lon": 126.8904983,
        "daycare_type": "어린이집",
        "daycare_name": "해나무장애인방과후교실어린이집",
        "distance": 258.9382182193438,
        "walking_time": "약 4분"
      },
      {
        "daycare_lat": 37.48291111945205,
        "daycare_lon": 126.8896632583189,
        "daycare_type": "어린이집",
        "daycare_name": "섬기는어린이집",
        "distance": 260.59609436231824,
        "walking_time": "약 4분"
      },
      {
        "daycare_lat": 37.47870596241283,
        "daycare_lon": 126.8864842568116,
        "daycare_type": "어린이집",
        "daycare_name": "마리오아울렛어린이집",
        "distance": 299.1920326511088,
        "walking_time": "약 5분"
      },
      {
        "daycare_lat": 37.48264309,
        "daycare_lon": 126.8844527,
        "daycare_type": "어린이집",
        "daycare_name": "구립가산어린이집",
        "distance": 315.9160106621598,
        "walking_time": "약 5분"
      },
      {
        "daycare_lat": 37.48419606,
        "daycare_lon": 126.8873694,
        "daycare_type": "어린이집",
        "daycare_name": "둥지어린이집",
        "distance": 327.70272174875026,
        "walking_time": "약 5분"
      },
      {
        "daycare_lat": 37.48135211551424,
        "daycare_lon": 126.88375469802595,
        "daycare_type": "어린이집",
        "daycare_name": "서울디지털직장어린이집",
        "distance": 337.32186110823545,
        "walking_time": "약 6분"
      },
      {
        "daycare_lat": 37.4841247,
        "daycare_lon": 126.8889783,
        "daycare_type": "어린이집",
        "daycare_name": "예신애들피아 어린이집",
        "distance": 342.4179945342415,
        "walking_time": "약 6분"
      },
      {
        "daycare_lat": 37.48515643,
        "daycare_lon": 126.888599,
        "daycare_type": "어린이집",
        "daycare_name": "꿈샘어린이집",
        "distance": 443.2829662977341,
        "walking_time": "약 7분"
      },
      {
        "daycare_lat": 37.48522757,
        "daycare_lon": 126.8885185,
        "daycare_type": "어린이집",
        "daycare_name": "꿈샘아이어린이집",
        "distance": 449.6619443293954,
        "walking_time": "약 7분"
      },
      {
        "daycare_lat": 37.48524871,
        "daycare_lon": 126.8886394,
        "daycare_type": "어린이집",
        "daycare_name": "무궁화어린이집",
        "distance": 454.0572245287238,
        "walking_time": "약 7분"
      }
    ],
    "education": [
      {
        "education_lat": 37.48714316,
        "education_lon": 126.8901547,
        "education_type": "도서관",
        "education_name": "꿈마을도서관",
        "distance": 693.3150196342287,
        "walking_time": "약 11분"
      },
      {
        "education_lat": 37.4798477,
        "education_lon": 126.8953185,
        "education_type": "박물관/기념관",
        "education_name": "G밸리산업박물관",
        "distance": 700.894861259052,
        "walking_time": "약 11분"
      },
      {
        "education_lat": 37.48737738,
        "education_lon": 126.8813503,
        "education_type": "도서관",
        "education_name": "하늘도서관",
        "distance": 874.8697302858292,
        "walking_time": "약 14분"
      },
      {
        "education_lat": 37.489562316814336,
        "education_lon": 126.88629292183346,
        "education_type": "공연장",
        "education_name": "구로 꿈나무극장",
        "distance": 930.8033100218072,
        "walking_time": "약 14분"
      },
      {
        "education_lat": 37.47349155,
        "education_lon": 126.8921298,
        "education_type": "도서관",
        "education_name": "금천구립가산도서관",
        "distance": 952.0699673849296,
        "walking_time": "약 15분"
      },
      {
        "education_lat": 37.48989397,
        "education_lon": 126.8865649,
        "education_type": "도서관",
        "education_name": "구로구립꿈나무어린이도서관",
        "distance": 964.9054165341314,
        "walking_time": "약 15분"
      },
      {
        "education_lat": 37.4718013,
        "education_lon": 126.896009,
        "education_type": "공연장",
        "education_name": "문화정원아트홀",
        "distance": 1287.8384034613491,
        "walking_time": "약 20분"
      },
      {
        "education_lat": 37.49662515,
        "education_lon": 126.890315,
        "education_type": "문화예술회관",
        "education_name": "구로아트밸리예술극장",
        "distance": 1726.2547641373933,
        "walking_time": "약 26분"
      },
      {
        "education_lat": 37.49697008531629,
        "education_lon": 126.88550705883512,
        "education_type": "도서관",
        "education_name": "온누리도서관",
        "distance": 1757.107607203768,
        "walking_time": "약 27분"
      },
      {
        "education_lat": 37.49710269,
        "education_lon": 126.8895491,
        "education_type": "미술관/갤러리",
        "education_name": "갤러리 구루지",
        "distance": 1770.9311212456903,
        "walking_time": "약 27분"
      }
    ],
    "electric_gas_station": [
      {
        "electric_gas_station_lat": 37.474417,
        "electric_gas_station_lon": 126.8867632,
        "electric_gas_station_type": "전기차 충전소",
        "electric_gas_station_name": "제일모직아울렛 건너편(공중전화부스)",
        "distance": 763.5560976576982,
        "walking_time": "약 12분"
      },
      {
        "electric_gas_station_lat": 37.49183884,
        "electric_gas_station_lon": 126.8917009,
        "electric_gas_station_type": "전기차 충전소",
        "electric_gas_station_name": "구로리공원 앞(공중전화부스)",
        "distance": 1232.0335248507663,
        "walking_time": "약 19분"
      }
    ],
    "fitness": [
      {
        "fitness_lat": 37.48107584,
        "fitness_lon": 126.8864183,
        "fitness_type": "운동시설",
        "fitness_name": "리메이크짐",
        "distance": 104.00372618545398,
        "walking_time": "약 2분"
      },
      {
        "fitness_lat": 37.48107584,
        "fitness_lon": 126.8864183,
        "fitness_type": "운동시설",
        "fitness_name": "짐80서울",
        "distance": 104.00372618545398,
        "walking_time": "약 2분"
      },
      {
        "fitness_lat": 37.48003526,
        "fitness_lon": 126.8879222,
        "fitness_type": "운동시설",
        "fitness_name": "Total Strength GYM",
        "distance": 138.87368153250952,
        "walking_time": "약 3분"
      },
      {
        "fitness_lat": 37.48067083,
        "fitness_lon": 126.885103,
        "fitness_type": "운동시설",
        "fitness_name": "마이서킷",
        "distance": 227.5888496348588,
        "walking_time": "약 4분"
      },
      {
        "fitness_lat": 37.48039389,
        "fitness_lon": 126.8841211,
        "fitness_type": "운동시설",
        "fitness_name": "스포애니 가산디지털단지역점",
        "distance": 319.4500004723887,
        "walking_time": "약 5분"
      },
      {
        "fitness_lat": 37.47949312,
        "fitness_lon": 126.8846349,
        "fitness_type": "운동시설",
        "fitness_name": "헬스보이짐&골프인 가산역점",
        "distance": 325.0314441978222,
        "walking_time": "약 5분"
      },
      {
        "fitness_lat": 37.48144017,
        "fitness_lon": 126.8838717,
        "fitness_type": "운동시설",
        "fitness_name": "멋을채움 피트니스",
        "distance": 327.4777396068814,
        "walking_time": "약 5분"
      },
      {
        "fitness_lat": 37.48144017,
        "fitness_lon": 126.8838717,
        "fitness_type": "운동시설",
        "fitness_name": "피티플레이스",
        "distance": 327.4777396068814,
        "walking_time": "약 5분"
      },
      {
        "fitness_lat": 37.47816855,
        "fitness_lon": 126.8898396,
        "fitness_type": "운동시설",
        "fitness_name": "벽계수 스파",
        "distance": 396.9692624725704,
        "walking_time": "약 6분"
      },
      {
        "fitness_lat": 37.48199214,
        "fitness_lon": 126.8923489,
        "fitness_type": "운동시설",
        "fitness_name": "에이펙스 피트니스 구로디지털점",
        "distance": 429.13118196716846,
        "walking_time": "약 7분"
      }
    ],
    "gas_station": [
      {
        "gas_station_lat": 37.48370727,
        "gas_station_lon": 126.8870144,
        "gas_station_type": "주유소",
        "gas_station_name": "영진주유소",
        "distance": 277.3023732274214,
        "walking_time": "약 5분"
      },
      {
        "gas_station_lat": 37.48094907,
        "gas_station_lon": 126.899232,
        "gas_station_type": "주유소",
        "gas_station_name": "현대오일뱅크(주)직영 구로셀프주유소",
        "distance": 1029.1169740005348,
        "walking_time": "약 16분"
      },
      {
        "gas_station_lat": 37.48153123,
        "gas_station_lon": 126.8997835,
        "gas_station_type": "주유소",
        "gas_station_name": "JHC에너지",
        "distance": 1077.6623819223717,
        "walking_time": "약 17분"
      },
      {
        "gas_station_lat": 37.48200922,
        "gas_station_lon": 126.8751883,
        "gas_station_type": "주유소",
        "gas_station_name": "동광석유㈜  구광주유소",
        "distance": 1096.2541990327552,
        "walking_time": "약 17분"
      },
      {
        "gas_station_lat": 37.47682775,
        "gas_station_lon": 126.8991106,
        "gas_station_type": "주유소",
        "gas_station_name": "㈜화동유업",
        "distance": 1130.599143973901,
        "walking_time": "약 17분"
      },
      {
        "gas_station_lat": 37.49101799,
        "gas_station_lon": 126.883528,
        "gas_station_type": "주유소",
        "gas_station_name": "구로주유소",
        "distance": 1142.985629056756,
        "walking_time": "약 18분"
      },
      {
        "gas_station_lat": 37.49083817,
        "gas_station_lon": 126.8931744,
        "gas_station_type": "주유소",
        "gas_station_name": "동아주유소",
        "distance": 1174.6932108717897,
        "walking_time": "약 18분"
      },
      {
        "gas_station_lat": 37.47315113,
        "gas_station_lon": 126.8978961,
        "gas_station_type": "주유소",
        "gas_station_name": "SK에너지㈜ 이가주유소",
        "distance": 1281.063767562703,
        "walking_time": "약 20분"
      },
      {
        "gas_station_lat": 37.4953108,
        "gas_station_lon": 126.8823961,
        "gas_station_type": "주유소",
        "gas_station_name": "신성주유소",
        "distance": 1628.5317411192846,
        "walking_time": "약 25분"
      },
      {
        "gas_station_lat": 37.4964219,
        "gas_station_lon": 126.8883214,
        "gas_station_type": "주유소",
        "gas_station_name": "㈜한미석유 구로그린주유소",
        "distance": 1687.9325454904333,
        "walking_time": "약 26분"
      }
    ],
    "hospital": [
      {
        "hospital_lat": 37.48107584,
        "hospital_lon": 126.8864183,
        "hospital_type": "병원",
        "hospital_name": "소중한메디케어의원",
        "distance": 104.00372618545398,
        "walking_time": "약 2분"
      },
      {
        "hospital_lat": 37.4804026,
        "hospital_lon": 126.8868723,
        "hospital_type": "병원",
        "hospital_name": "사단법인대한산업보건협회부설서울의원",
        "distance": 113.14748768027954,
        "walking_time": "약 2분"
      },
      {
        "hospital_lat": 37.48005881,
        "hospital_lon": 126.8871007,
        "hospital_type": "병원",
        "hospital_name": "해든창의원",
        "distance": 139.293523442124,
        "walking_time": "약 3분"
      },
      {
        "hospital_lat": 37.48277627,
        "hospital_lon": 126.8875036,
        "hospital_type": "병원",
        "hospital_name": "유치과의원",
        "distance": 169.44309829790785,
        "walking_time": "약 3분"
      },
      {
        "hospital_lat": 37.4795131,
        "hospital_lon": 126.8875118,
        "hospital_type": "병원",
        "hospital_name": "씨앤케이치과의원",
        "distance": 193.6052783953939,
        "walking_time": "약 3분"
      },
      {
        "hospital_lat": 37.48299623,
        "hospital_lon": 126.8872358,
        "hospital_type": "병원",
        "hospital_name": "고려한의원",
        "distance": 196.0872531082633,
        "walking_time": "약 3분"
      },
      {
        "hospital_lat": 37.47979124,
        "hospital_lon": 126.8895214,
        "hospital_type": "병원",
        "hospital_name": "김부랑치과의원",
        "distance": 236.4748638983338,
        "walking_time": "약 4분"
      },
      {
        "hospital_lat": 37.48167752,
        "hospital_lon": 126.8848144,
        "hospital_type": "병원",
        "hospital_name": "이튼치과의원",
        "distance": 248.15629146708704,
        "walking_time": "약 4분"
      },
      {
        "hospital_lat": 37.48046297,
        "hospital_lon": 126.8909077,
        "hospital_type": "병원",
        "hospital_name": "구로세란의원",
        "distance": 306.8900211184965,
        "walking_time": "약 5분"
      },
      {
        "hospital_lat": 37.47956093,
        "hospital_lon": 126.890379,
        "hospital_type": "병원",
        "hospital_name": "가리봉의원",
        "distance": 310.835137635487,
        "walking_time": "약 5분"
      }
    ],
    "music_room": [
      {
        "music_room_lat": 37.48154463,
        "music_room_lon": 126.8883015,
        "music_room_type": "노래방",
        "music_room_name": "가고파 노래연습장",
        "distance": 71.7761554029257,
        "walking_time": "약 2분"
      },
      {
        "music_room_lat": 37.4817439,
        "music_room_lon": 126.8881658,
        "music_room_type": "노래방",
        "music_room_name": "신행운노래연습장",
        "distance": 75.40957815178017,
        "walking_time": "약 2분"
      },
      {
        "music_room_lat": 37.4817439,
        "music_room_lon": 126.8881658,
        "music_room_type": "노래방",
        "music_room_name": "행운노래연습장",
        "distance": 75.40957815178017,
        "walking_time": "약 2분"
      },
      {
        "music_room_lat": 37.48197286,
        "music_room_lon": 126.887704,
        "music_room_type": "노래방",
        "music_room_name": "명품노래연습장",
        "distance": 80.7888080351369,
        "walking_time": "약 2분"
      },
      {
        "music_room_lat": 37.48100111,
        "music_room_lon": 126.8884598,
        "music_room_type": "노래방",
        "music_room_name": "홍루몽노래연습장",
        "distance": 82.9233146118488,
        "walking_time": "약 2분"
      },
      {
        "music_room_lat": 37.48124676,
        "music_room_lon": 126.8885862,
        "music_room_type": "노래방",
        "music_room_name": "봉황노래연습장",
        "distance": 89.18629685837871,
        "walking_time": "약 2분"
      },
      {
        "music_room_lat": 37.48140325,
        "music_room_lon": 126.8885741,
        "music_room_type": "노래방",
        "music_room_name": "소리새 노래연습장",
        "distance": 89.67489740386472,
        "walking_time": "약 2분"
      },
      {
        "music_room_lat": 37.48211699,
        "music_room_lon": 126.8878618,
        "music_room_type": "노래방",
        "music_room_name": "상해 노래연습장",
        "distance": 99.28350844550192,
        "walking_time": "약 2분"
      },
      {
        "music_room_lat": 37.48211699,
        "music_room_lon": 126.8878618,
        "music_room_type": "노래방",
        "music_room_name": "신상해노래연습장",
        "distance": 99.28350844550192,
        "walking_time": "약 2분"
      },
      {
        "music_room_lat": 37.48227119,
        "music_room_lon": 126.8872397,
        "music_room_type": "노래방",
        "music_room_name": "따봉노래연습장",
        "distance": 116.9768875957532,
        "walking_time": "약 2분"
      }
    ],
    "outdoor_sports": [
      {
        "outdoor_sports_lat": 37.4822615957791,
        "outdoor_sports_lon": 126.889580999202,
        "outdoor_sports_type": "야외 체육시설",
        "outdoor_sports_name": "가리봉동 주민센터 맞은편",
        "distance": 209.4776406414192,
        "walking_time": "약 4분"
      },
      {
        "outdoor_sports_lat": 37.4831569081842,
        "outdoor_sports_lon": 126.885583202317,
        "outdoor_sports_type": "야외 체육시설",
        "outdoor_sports_name": "가리봉",
        "distance": 275.13582663390696,
        "walking_time": "약 5분"
      },
      {
        "outdoor_sports_lat": 37.4889297964454,
        "outdoor_sports_lon": 126.887502629607,
        "outdoor_sports_type": "야외 체육시설",
        "outdoor_sports_name": "혜원주택 앞",
        "distance": 853.5894212388303,
        "walking_time": "약 13분"
      },
      {
        "outdoor_sports_lat": 37.489293618839,
        "outdoor_sports_lon": 126.880612294475,
        "outdoor_sports_type": "야외 체육시설",
        "outdoor_sports_name": "솔길어린이공원",
        "distance": 1084.7818423900217,
        "walking_time": "약 17분"
      },
      {
        "outdoor_sports_lat": 37.4908836860729,
        "outdoor_sports_lon": 126.891610005413,
        "outdoor_sports_type": "야외 체육시설",
        "outdoor_sports_name": "구로리어린이공원",
        "distance": 1128.44690057425,
        "walking_time": "약 17분"
      },
      {
        "outdoor_sports_lat": 37.4925780367629,
        "outdoor_sports_lon": 126.888328397174,
        "outdoor_sports_type": "야외 체육시설",
        "outdoor_sports_name": "다올소공원",
        "distance": 1260.9820316290034,
        "walking_time": "약 19분"
      },
      {
        "outdoor_sports_lat": 37.4917935272155,
        "outdoor_sports_lon": 126.895209860135,
        "outdoor_sports_type": "야외 체육시설",
        "outdoor_sports_name": "대림역 하부",
        "distance": 1351.782642892507,
        "walking_time": "약 21분"
      },
      {
        "outdoor_sports_lat": 37.4950845559096,
        "outdoor_sports_lon": 126.884495477358,
        "outdoor_sports_type": "야외 체육시설",
        "outdoor_sports_name": "보광아파트 앞",
        "distance": 1561.767935642163,
        "walking_time": "약 24분"
      },
      {
        "outdoor_sports_lat": 37.4969472702116,
        "outdoor_sports_lon": 126.889555987604,
        "outdoor_sports_type": "야외 체육시설",
        "outdoor_sports_name": "구로근린공원",
        "distance": 1753.794258107758,
        "walking_time": "약 27분"
      },
      {
        "outdoor_sports_lat": 37.4970277288562,
        "outdoor_sports_lon": 126.880304604934,
        "outdoor_sports_type": "야외 체육시설",
        "outdoor_sports_name": "화원복지관 앞",
        "distance": 1867.6454321186004,
        "walking_time": "약 28분"
      }
    ],
    "park_station": [
      {
        "park_station_lat": 37.47969116,
        "park_station_lon": 126.8880038,
        "park_station_type": "주차장",
        "park_station_name": "공유) 01-53구역",
        "distance": 177.7876620261036,
        "walking_time": "약 3분"
      },
      {
        "park_station_lat": 37.47943906,
        "park_station_lon": 126.8882921,
        "park_station_type": "주차장",
        "park_station_name": "만승뒤",
        "distance": 211.43341738715807,
        "walking_time": "약 4분"
      },
      {
        "park_station_lat": 37.47941838,
        "park_station_lon": 126.8845901,
        "park_station_type": "주차장",
        "park_station_name": "SJ테크노빌",
        "distance": 333.21957955222524,
        "walking_time": "약 5분"
      },
      {
        "park_station_lat": 37.47844349,
        "park_station_lon": 126.8891048,
        "park_station_type": "주차장",
        "park_station_name": "우리은행",
        "distance": 340.35435282064213,
        "walking_time": "약 6분"
      },
      {
        "park_station_lat": 37.48502101,
        "park_station_lon": 126.8884198,
        "park_station_type": "주차장",
        "park_station_name": "구로3동마을주차장",
        "distance": 425.500470762466,
        "walking_time": "약 7분"
      },
      {
        "park_station_lat": 37.48260652,
        "park_station_lon": 126.8825924,
        "park_station_type": "주차장",
        "park_station_name": "공유) 01-52구역",
        "distance": 464.72663276641737,
        "walking_time": "약 7분"
      },
      {
        "park_station_lat": 37.47833819,
        "park_station_lon": 126.8832471,
        "park_station_type": "주차장",
        "park_station_name": "BYC",
        "distance": 500.9628507967888,
        "walking_time": "약 8분"
      },
      {
        "park_station_lat": 37.48314039,
        "park_station_lon": 126.8820694,
        "park_station_type": "주차장",
        "park_station_name": "가산디지털환승",
        "distance": 529.214827126266,
        "walking_time": "약 8분"
      },
      {
        "park_station_lat": 37.4851798,
        "park_station_lon": 126.8818726,
        "park_station_type": "주차장",
        "park_station_name": "공유) 01-51구역",
        "distance": 666.1992613837671,
        "walking_time": "약 10분"
      },
      {
        "park_station_lat": 37.48529738,
        "park_station_lon": 126.8814196,
        "park_station_type": "주차장",
        "park_station_name": "공유) 가산동 01-51구역",
        "distance": 705.1476044560213,
        "walking_time": "약 11분"
      }
    ],
    "pc_room": [
      {
        "pc_room_lat": 37.4817438967725,
        "pc_room_lon": 126.888165771974,
        "pc_room_type": "PC방",
        "pc_room_name": "싸울아비",
        "distance": 75.40761050610672,
        "walking_time": "약 2분"
      },
      {
        "pc_room_lat": 37.4822711877106,
        "pc_room_lon": 126.887239679809,
        "pc_room_type": "PC방",
        "pc_room_name": "삼거리PC",
        "distance": 116.97709263030902,
        "walking_time": "약 2분"
      },
      {
        "pc_room_lat": 37.4825593377162,
        "pc_room_lon": 126.887531176148,
        "pc_room_type": "PC방",
        "pc_room_name": "중한PC방",
        "distance": 145.25517742371477,
        "walking_time": "약 3분"
      },
      {
        "pc_room_lat": 37.4802496571046,
        "pc_room_lon": 126.889018321637,
        "pc_room_type": "PC방",
        "pc_room_name": "친구PC방",
        "distance": 169.3173877530733,
        "walking_time": "약 3분"
      },
      {
        "pc_room_lat": 37.4827159180702,
        "pc_room_lon": 126.886949116632,
        "pc_room_type": "PC방",
        "pc_room_name": "황금PC",
        "distance": 171.7498512308968,
        "walking_time": "약 3분"
      },
      {
        "pc_room_lat": 37.4821828022506,
        "pc_room_lon": 126.889147632734,
        "pc_room_type": "PC방",
        "pc_room_name": "짱PC방",
        "distance": 172.97917562811023,
        "walking_time": "약 3분"
      },
      {
        "pc_room_lat": 37.4828432544018,
        "pc_room_lon": 126.887351431548,
        "pc_room_type": "PC방",
        "pc_room_name": "뉴월드PC방",
        "distance": 177.8748524406953,
        "walking_time": "약 3분"
      },
      {
        "pc_room_lat": 37.4828432544018,
        "pc_room_lon": 126.887351431548,
        "pc_room_type": "PC방",
        "pc_room_name": "보물PC",
        "distance": 177.8748524406953,
        "walking_time": "약 3분"
      },
      {
        "pc_room_lat": 37.4828432544018,
        "pc_room_lon": 126.887351431548,
        "pc_room_type": "PC방",
        "pc_room_name": "제왕의 사치2 PC",
        "distance": 177.8748524406953,
        "walking_time": "약 3분"
      },
      {
        "pc_room_lat": 37.4829962253712,
        "pc_room_lon": 126.887235763615,
        "pc_room_type": "PC방",
        "pc_room_name": "BMW PC방",
        "distance": 196.08723525833048,
        "walking_time": "약 3분"
      }
    ],
    "police_office": [
      {
        "police_office_lat": 37.47993673,
        "police_office_lon": 126.8880557,
        "police_office_type": "경찰소",
        "police_office_name": "가산파출소",
        "distance": 152.4261291713693,
        "walking_time": "약 3분"
      },
      {
        "police_office_lat": 37.47920893,
        "police_office_lon": 126.8926603,
        "police_office_type": "경찰소",
        "police_office_name": "가리봉파출소",
        "distance": 502.9943387485344,
        "walking_time": "약 8분"
      },
      {
        "police_office_lat": 37.48666065,
        "police_office_lon": 126.8913999,
        "police_office_type": "경찰소",
        "police_office_name": "구로3파출소",
        "distance": 689.4712218441147,
        "walking_time": "약 11분"
      },
      {
        "police_office_lat": 37.48925211,
        "police_office_lon": 126.8907002,
        "police_office_type": "경찰소",
        "police_office_name": "구일지구대",
        "distance": 931.1576503875024,
        "walking_time": "약 14분"
      },
      {
        "police_office_lat": 37.49343055,
        "police_office_lon": 126.8987029,
        "police_office_type": "경찰소",
        "police_office_name": "대림지구대",
        "distance": 1672.5130379685302,
        "walking_time": "약 25분"
      },
      {
        "police_office_lat": 37.49898725,
        "police_office_lon": 126.8966377,
        "police_office_type": "경찰소",
        "police_office_name": "대림3파출소",
        "distance": 2127.8329581168505,
        "walking_time": "약 32분"
      }
    ],
    "post_office": [
      {
        "post_office_lat": 37.47844469,
        "post_office_lon": 126.8937442,
        "post_office_type": "우체국",
        "post_office_name": "서울가산동우체국",
        "distance": 627.5687446085025,
        "walking_time": "약 10분"
      },
      {
        "post_office_lat": 37.47789556,
        "post_office_lon": 126.8806648,
        "post_office_type": "우체국",
        "post_office_name": "서울가산디지털우체국",
        "distance": 715.039629089093,
        "walking_time": "약 11분"
      },
      {
        "post_office_lat": 37.48329888,
        "post_office_lon": 126.8984697,
        "post_office_type": "우체국",
        "post_office_name": "서울구로디지털단지우체국",
        "distance": 987.819196296548,
        "walking_time": "약 15분"
      },
      {
        "post_office_lat": 37.49032516,
        "post_office_lon": 126.8843948,
        "post_office_type": "우체국",
        "post_office_name": "서울구로4동우체국",
        "distance": 1047.0351921089882,
        "walking_time": "약 16분"
      },
      {
        "post_office_lat": 37.49492531,
        "post_office_lon": 126.8896406,
        "post_office_type": "우체국",
        "post_office_name": "서울동구로우체국",
        "distance": 1531.1159610686263,
        "walking_time": "약 23분"
      },
      {
        "post_office_lat": 37.47019149,
        "post_office_lon": 126.8985251,
        "post_office_type": "우체국",
        "post_office_name": "서울금천우체국",
        "distance": 1564.174692403508,
        "walking_time": "약 24분"
      },
      {
        "post_office_lat": 37.49190259,
        "post_office_lon": 126.874113,
        "post_office_type": "우체국",
        "post_office_name": "서울구로1동우체국",
        "distance": 1677.2294896865185,
        "walking_time": "약 26분"
      }
    ],
    "public_health_center": [
      {
        "public_health_center_lat": 37.48199214,
        "public_health_center_lon": 126.8923489,
        "public_health_center_type": "보건소",
        "public_health_center_name": "G밸리보건지소",
        "distance": 429.13118196716846,
        "walking_time": "약 7분"
      }
    ],
    "school": [
      {
        "school_lat": 37.4847045985983,
        "school_lon": 126.890267788001,
        "school_type": "초등학교",
        "school_name": "서울구로남초등학교",
        "distance": 451.32513549529847,
        "walking_time": "약 7분"
      },
      {
        "school_lat": 37.4856100736284,
        "school_lon": 126.883911257917,
        "school_type": "초등학교",
        "school_name": "서울영일초등학교",
        "distance": 582.4147585734199,
        "walking_time": "약 9분"
      },
      {
        "school_lat": 37.4781477195501,
        "school_lon": 126.896184019972,
        "school_type": "초등학교",
        "school_name": "서울가산초등학교",
        "distance": 834.4409755930584,
        "walking_time": "약 13분"
      },
      {
        "school_lat": 37.4879630931966,
        "school_lon": 126.895027399291,
        "school_type": "초등학교",
        "school_name": "서울영서초등학교",
        "distance": 994.4623066161683,
        "walking_time": "약 15분"
      },
      {
        "school_lat": 37.4745944107703,
        "school_lon": 126.895368861106,
        "school_type": "중학교",
        "school_name": "세일중학교",
        "distance": 1010.55444294831,
        "walking_time": "약 16분"
      },
      {
        "school_lat": 37.4897523897016,
        "school_lon": 126.89491012521,
        "school_type": "중학교",
        "school_name": "영서중학교",
        "distance": 1145.3856887106194,
        "walking_time": "약 18분"
      },
      {
        "school_lat": 37.4748818804257,
        "school_lon": 126.899471333222,
        "school_type": "초등학교",
        "school_name": "서울문성초등학교",
        "distance": 1266.4420053960048,
        "walking_time": "약 19분"
      },
      {
        "school_lat": 37.4944479994725,
        "school_lon": 126.893016334052,
        "school_type": "초등학교",
        "school_name": "서울동구로초등학교",
        "distance": 1543.7007054530263,
        "walking_time": "약 24분"
      },
      {
        "school_lat": 37.4948597203552,
        "school_lon": 126.891099914602,
        "school_type": "중학교",
        "school_name": "구로중학교",
        "distance": 1544.5689278099264,
        "walking_time": "약 24분"
      },
      {
        "school_lat": 37.4935052933826,
        "school_lon": 126.874618469825,
        "school_type": "고등학교",
        "school_name": "구일고등학교",
        "distance": 1778.4596800007837,
        "walking_time": "약 27분"
      }
    ],
    "subway": [
      {
        "subway_lat": 37.4815957375443,
        "subway_lon": 126.882559483336,
        "subway_type": "지하철",
        "subway_name": "7호선-가산디지털단지역",
        "distance": 444.2403128116784,
        "walking_time": "약 7분"
      },
      {
        "subway_lat": 37.4853205005175,
        "subway_lon": 126.886331688209,
        "subway_type": "지하철",
        "subway_name": "7호선-남구로역",
        "distance": 465.3566472587264,
        "walking_time": "약 7분"
      },
      {
        "subway_lat": 37.4933105886136,
        "subway_lon": 126.8949461878,
        "subway_type": "지하철",
        "subway_name": "2호선-대림(구로구청)역",
        "distance": 1490.090774834522,
        "walking_time": "약 23분"
      },
      {
        "subway_lat": 37.4927430722225,
        "subway_lon": 126.896611839343,
        "subway_type": "지하철",
        "subway_name": "7호선-대림(구로구청)역",
        "distance": 1505.9540075940024,
        "walking_time": "약 23분"
      }
    ],
    "supermarket": [
      {
        "supermarket_lat": 37.47949312,
        "supermarket_lon": 126.8846349,
        "supermarket_type": "마트",
        "supermarket_name": "롯데쇼핑(주) 아울렛 가산점",
        "distance": 325.0314441978222,
        "walking_time": "약 5분"
      },
      {
        "supermarket_lat": 37.47818755,
        "supermarket_lon": 126.8871542,
        "supermarket_type": "마트",
        "supermarket_name": "마리오아울렛 1관",
        "distance": 342.9390578968277,
        "walking_time": "약 6분"
      },
      {
        "supermarket_lat": 37.47844577,
        "supermarket_lon": 126.8850808,
        "supermarket_type": "마트",
        "supermarket_name": "마리오아울렛 3관",
        "distance": 382.0093761476545,
        "walking_time": "약 6분"
      },
      {
        "supermarket_lat": 37.47761902,
        "supermarket_lon": 126.8890553,
        "supermarket_type": "마트",
        "supermarket_name": "현대아울렛",
        "distance": 424.7077157727404,
        "walking_time": "약 7분"
      },
      {
        "supermarket_lat": 37.47643941,
        "supermarket_lon": 126.8873317,
        "supermarket_type": "마트",
        "supermarket_name": "가산퍼블릭 상업시설",
        "distance": 535.7345284039944,
        "walking_time": "약 8분"
      },
      {
        "supermarket_lat": 37.47544481,
        "supermarket_lon": 126.8936809,
        "supermarket_type": "마트",
        "supermarket_name": "홈플러스(주)익스프레스 가산점",
        "distance": 841.0945929553696,
        "walking_time": "약 13분"
      },
      {
        "supermarket_lat": 37.48439923,
        "supermarket_lon": 126.8978858,
        "supermarket_type": "마트",
        "supermarket_name": "(주)이마트 구로점",
        "distance": 974.6795622884264,
        "walking_time": "약 15분"
      },
      {
        "supermarket_lat": 37.47068103,
        "supermarket_lon": 126.8956481,
        "supermarket_type": "마트",
        "supermarket_name": "롯데쇼핑(주) 롯데마트맥스 금천점",
        "distance": 1374.5967504671564,
        "walking_time": "약 21분"
      },
      {
        "supermarket_lat": 37.49530067,
        "supermarket_lon": 126.8980583,
        "supermarket_type": "마트",
        "supermarket_name": "두암종합시장",
        "distance": 1815.271860531296,
        "walking_time": "약 28분"
      },
      {
        "supermarket_lat": 37.49530067,
        "supermarket_lon": 126.8980583,
        "supermarket_type": "마트",
        "supermarket_name": "두암상가",
        "distance": 1815.271860531296,
        "walking_time": "약 28분"
      }
    ],
    "tax_office": [
      {
        "tax_office_lat": 37.47801956,
        "tax_office_lon": 126.8997992,
        "tax_office_type": "세무서",
        "tax_office_name": "금천세무서",
        "distance": 1136.993527515326,
        "walking_time": "약 17분"
      }
    ],
    "theater": [
      {
        "theater_lat": 37.4776190161713,
        "theater_lon": 126.88905533739,
        "theater_type": "영화관",
        "theater_name": "롯데시네마 가산디지털",
        "distance": 424.70913529795297,
        "walking_time": "약 7분"
      }
    ]
  }
}