{
  "클러스터_위도": 37.48690660017549,
  "클러스터_경도": 126.97677440018272,
  "클러스터_level": 3.0,
  "facilities": {
    "bus": [
      {
        "bus_lat": 37.4881461,
        "bus_lon": 126.975933,
        "bus_type": "버스정류장",
        "bus_name": "우성201동.극동112동",
        "distance": 156.5481554348427,
        "walking_time": "약 3분"
      },
      {
        "bus_lat": 37.48810573,
        "bus_lon": 126.9756633,
        "bus_type": "버스정류장",
        "bus_name": "삼일초등학교앞",
        "distance": 165.49772125770744,
        "walking_time": "약 3분"
      },
      {
        "bus_lat": 37.48717651,
        "bus_lon": 126.9747872,
        "bus_type": "버스정류장",
        "bus_name": "동작삼일수영장",
        "distance": 177.88511940763598,
        "walking_time": "약 3분"
      },
      {
        "bus_lat": 37.48613757,
        "bus_lon": 126.9749764,
        "bus_type": "버스정류장",
        "bus_name": "남성초등학교.사당청소년문화의집",
        "distance": 180.22155769375,
        "walking_time": "약 3분"
      },
      {
        "bus_lat": 37.48739368,
        "bus_lon": 126.9747984,
        "bus_type": "버스정류장",
        "bus_name": "동작삼일수영장",
        "distance": 182.56535315255567,
        "walking_time": "약 3분"
      },
      {
        "bus_lat": 37.48859878,
        "bus_lon": 126.9763424,
        "bus_type": "버스정류장",
        "bus_name": "극동아파트112동",
        "distance": 191.9835751134925,
        "walking_time": "약 3분"
      },
      {
        "bus_lat": 37.48601049,
        "bus_lon": 126.9748407,
        "bus_type": "버스정류장",
        "bus_name": "남성초등학교.사당청소년문화의집",
        "distance": 197.58161501034343,
        "walking_time": "약 3분"
      },
      {
        "bus_lat": 37.48697269,
        "bus_lon": 126.9740161,
        "bus_type": "버스정류장",
        "bus_name": "삼일공원",
        "distance": 243.48208099345888,
        "walking_time": "약 4분"
      },
      {
        "bus_lat": 37.48685101,
        "bus_lon": 126.9738555,
        "bus_type": "버스정류장",
        "bus_name": "삼일공원",
        "distance": 257.61563886560185,
        "walking_time": "약 4분"
      },
      {
        "bus_lat": 37.4894721,
        "bus_lon": 126.9771578,
        "bus_type": "버스정류장",
        "bus_name": "시장입구",
        "distance": 287.26922396975965,
        "walking_time": "약 5분"
      }
    ],
    "community_center": [
      {
        "community_center_lat": 37.4887124,
        "community_center_lon": 126.9792525,
        "community_center_type": "주민센터",
        "community_center_name": "사당2동 자치회관",
        "distance": 296.8584988345676,
        "walking_time": "약 5분"
      },
      {
        "community_center_lat": 37.48663654,
        "community_center_lon": 126.9720917,
        "community_center_type": "주민센터",
        "community_center_name": "사당3동 자치회관",
        "distance": 414.25615185101054,
        "walking_time": "약 7분"
      },
      {
        "community_center_lat": 37.48310498,
        "community_center_lon": 126.9787779,
        "community_center_type": "주민센터",
        "community_center_name": "사당1동 자치회관",
        "distance": 458.1957954649783,
        "walking_time": "약 7분"
      },
      {
        "community_center_lat": 37.48097575,
        "community_center_lon": 126.9716337,
        "community_center_type": "주민센터",
        "community_center_name": "사당4동 자치회관",
        "distance": 800.4136169474701,
        "walking_time": "약 12분"
      },
      {
        "community_center_lat": 37.48566276,
        "community_center_lon": 126.9669792,
        "community_center_type": "주민센터",
        "community_center_name": "사당5동 자치회관",
        "distance": 875.2574577941466,
        "walking_time": "약 14분"
      },
      {
        "community_center_lat": 37.47977264,
        "community_center_lon": 126.9855596,
        "community_center_type": "주민센터",
        "community_center_name": "방배2동 자치회관",
        "distance": 1109.125355159064,
        "walking_time": "약 17분"
      },
      {
        "community_center_lat": 37.49414867,
        "community_center_lon": 126.988847,
        "community_center_type": "주민센터",
        "community_center_name": "방배본동 자치회관",
        "distance": 1335.2923567325483,
        "walking_time": "약 20분"
      },
      {
        "community_center_lat": 37.47468786,
        "community_center_lon": 126.9778753,
        "community_center_type": "주민센터",
        "community_center_name": "남현동 자치회관",
        "distance": 1362.130298283634,
        "walking_time": "약 21분"
      },
      {
        "community_center_lat": 37.47509931,
        "community_center_lon": 126.9653243,
        "community_center_type": "주민센터",
        "community_center_name": "인헌동 자치회관",
        "distance": 1656.665185924703,
        "walking_time": "약 25분"
      }
    ],
    "convenience_store": [
      {
        "convenience_store_lat": 37.48688867,
        "convenience_store_lon": 126.9797234,
        "convenience_store_type": "편의점",
        "convenience_store_name": "세븐일레븐 사당번영점",
        "distance": 260.2048039456346,
        "walking_time": "약 4분"
      },
      {
        "convenience_store_lat": 37.48504852,
        "convenience_store_lon": 126.979119,
        "convenience_store_type": "편의점",
        "convenience_store_name": "GS25 사당녹천점",
        "distance": 292.37540090752134,
        "walking_time": "약 5분"
      },
      {
        "convenience_store_lat": 37.4884591,
        "convenience_store_lon": 126.9795993,
        "convenience_store_type": "편의점",
        "convenience_store_name": "GS25 사당신동아점",
        "distance": 303.19000466975785,
        "walking_time": "약 5분"
      },
      {
        "convenience_store_lat": 37.48419216,
        "convenience_store_lon": 126.9774055,
        "convenience_store_type": "편의점",
        "convenience_store_name": "세븐일레븐 동작남성점",
        "distance": 306.9255554528682,
        "walking_time": "약 5분"
      },
      {
        "convenience_store_lat": 37.48740665,
        "convenience_store_lon": 126.9802094,
        "convenience_store_type": "편의점",
        "convenience_store_name": "GS25 사당우성점",
        "distance": 308.1353314515453,
        "walking_time": "약 5분"
      },
      {
        "convenience_store_lat": 37.48561199,
        "convenience_store_lon": 126.9805527,
        "convenience_store_type": "편의점",
        "convenience_store_name": "GS25 이수중앙점",
        "distance": 363.1240371097368,
        "walking_time": "약 6분"
      },
      {
        "convenience_store_lat": 37.48671139,
        "convenience_store_lon": 126.9810561,
        "convenience_store_type": "편의점",
        "convenience_store_name": "CU 사당기범점",
        "distance": 378.40793618745545,
        "walking_time": "약 6분"
      },
      {
        "convenience_store_lat": 37.48417408,
        "convenience_store_lon": 126.9795505,
        "convenience_store_type": "편의점",
        "convenience_store_name": "GS25 신이수자이점",
        "distance": 390.2804816838579,
        "walking_time": "약 6분"
      },
      {
        "convenience_store_lat": 37.48631007,
        "convenience_store_lon": 126.9723311,
        "convenience_store_type": "편의점",
        "convenience_store_name": "세븐일레븐 사당대림점",
        "distance": 397.6160931781249,
        "walking_time": "약 6분"
      },
      {
        "convenience_store_lat": 37.484145,
        "convenience_store_lon": 126.9797228,
        "convenience_store_type": "편의점",
        "convenience_store_name": "GS25 이수자이점",
        "distance": 402.4588550233258,
        "walking_time": "약 7분"
      }
    ],
    "daycare": [
      {
        "daycare_lat": 37.487049264956255,
        "daycare_lon": 126.9774594764912,
        "daycare_type": "어린이집",
        "daycare_name": "구립열린어린이집",
        "distance": 62.49281049051334,
        "walking_time": "약 1분"
      },
      {
        "daycare_lat": 37.48709431427916,
        "daycare_lon": 126.9774538094478,
        "daycare_type": "어린이집",
        "daycare_name": "열린어린이집",
        "distance": 63.47577312447401,
        "walking_time": "약 1분"
      },
      {
        "daycare_lat": 37.48526571,
        "daycare_lon": 126.9775251,
        "daycare_type": "어린이집",
        "daycare_name": "오렌지어린이집",
        "distance": 194.1094206191412,
        "walking_time": "약 3분"
      },
      {
        "daycare_lat": 37.48881467465094,
        "daycare_lon": 126.97743277853624,
        "daycare_type": "어린이집",
        "daycare_name": "로뎀나무어린이집",
        "distance": 219.97667505175195,
        "walking_time": "약 4분"
      },
      {
        "daycare_lat": 37.48915291190167,
        "daycare_lon": 126.97640160938418,
        "daycare_type": "어린이집",
        "daycare_name": "구립장미어린이집",
        "distance": 251.93480763743725,
        "walking_time": "약 4분"
      },
      {
        "daycare_lat": 37.48911024777653,
        "daycare_lon": 126.97765430534156,
        "daycare_type": "어린이집",
        "daycare_name": "하람어린이집",
        "distance": 257.03901929770484,
        "walking_time": "약 4분"
      },
      {
        "daycare_lat": 37.485152015991446,
        "daycare_lon": 126.9743846177337,
        "daycare_type": "어린이집",
        "daycare_name": "구립바르니어린이집",
        "distance": 287.27282614161203,
        "walking_time": "약 5분"
      },
      {
        "daycare_lat": 37.4886937,
        "daycare_lon": 126.979239,
        "daycare_type": "어린이집",
        "daycare_name": "샤론어린이집",
        "distance": 294.5756393054599,
        "walking_time": "약 5분"
      },
      {
        "daycare_lat": 37.4877494,
        "daycare_lon": 126.9733831,
        "daycare_type": "어린이집",
        "daycare_name": "구립로이어린이집",
        "distance": 313.5530330649682,
        "walking_time": "약 5분"
      },
      {
        "daycare_lat": 37.48981738,
        "daycare_lon": 126.9760201,
        "daycare_type": "어린이집",
        "daycare_name": "사과나무어린이집",
        "distance": 330.4354243463601,
        "walking_time": "약 5분"
      }
    ],
    "education": [
      {
        "education_lat": 37.48838656,
        "education_lon": 126.9775464,
        "education_type": "도서관",
        "education_name": "구립동작샘터도서관",
        "distance": 178.10369550871644,
        "walking_time": "약 3분"
      },
      {
        "education_lat": 37.48471669,
        "education_lon": 126.9696126,
        "education_type": "문화원",
        "education_name": "동작문화원 사당분원",
        "distance": 677.2059382378552,
        "walking_time": "약 11분"
      },
      {
        "education_lat": 37.48408142,
        "education_lon": 126.9673507,
        "education_type": "도서관",
        "education_name": "사당솔밭도서관",
        "distance": 888.85568700558,
        "walking_time": "약 14분"
      },
      {
        "education_lat": 37.47888804,
        "education_lon": 126.9732442,
        "education_type": "도서관",
        "education_name": "다울작은도서관",
        "distance": 944.468518041264,
        "walking_time": "약 15분"
      },
      {
        "education_lat": 37.47605354,
        "education_lon": 126.9794659,
        "education_type": "미술관/갤러리",
        "education_name": "서울시립 남서울미술관",
        "distance": 1229.9522461769736,
        "walking_time": "약 19분"
      }
    ],
    "electric_gas_station": [
      {
        "electric_gas_station_lat": 37.4752427,
        "electric_gas_station_lon": 126.9839861,
        "electric_gas_station_type": "전기차 충전소",
        "electric_gas_station_name": "사당역 공영주차장",
        "distance": 1444.6693590907323,
        "walking_time": "약 22분"
      }
    ],
    "fitness": [
      {
        "fitness_lat": 37.48845208,
        "fitness_lon": 126.9781073,
        "fitness_type": "운동시설",
        "fitness_name": "커브스 사당클럽",
        "distance": 208.2375402970255,
        "walking_time": "약 4분"
      },
      {
        "fitness_lat": 37.48845208,
        "fitness_lon": 126.9781073,
        "fitness_type": "운동시설",
        "fitness_name": "주-업투휘트니스",
        "distance": 208.2375402970255,
        "walking_time": "약 4분"
      },
      {
        "fitness_lat": 37.48833328,
        "fitness_lon": 126.9799177,
        "fitness_type": "운동시설",
        "fitness_name": "시드니짐",
        "distance": 319.50413375215953,
        "walking_time": "약 5분"
      },
      {
        "fitness_lat": 37.48464911,
        "fitness_lon": 126.9791825,
        "fitness_type": "운동시설",
        "fitness_name": "근육형제",
        "distance": 328.87322532985974,
        "walking_time": "약 5분"
      },
      {
        "fitness_lat": 37.48633231,
        "fitness_lon": 126.9809274,
        "fitness_type": "운동시설",
        "fitness_name": "클럽컬리넌",
        "distance": 371.9529647683786,
        "walking_time": "약 6분"
      },
      {
        "fitness_lat": 37.48601714,
        "fitness_lon": 126.9809556,
        "fitness_type": "운동시설",
        "fitness_name": "어반액티브",
        "distance": 381.9466962641769,
        "walking_time": "약 6분"
      },
      {
        "fitness_lat": 37.48417524,
        "fitness_lon": 126.9736147,
        "fitness_type": "운동시설",
        "fitness_name": "이안PT",
        "distance": 412.2708574818517,
        "walking_time": "약 7분"
      },
      {
        "fitness_lat": 37.48443595,
        "fitness_lon": 126.9803085,
        "fitness_type": "운동시설",
        "fitness_name": "나의, 체육관",
        "distance": 415.5830156295101,
        "walking_time": "약 7분"
      },
      {
        "fitness_lat": 37.48602046,
        "fitness_lon": 126.9813913,
        "fitness_type": "운동시설",
        "fitness_name": "어울림 바디클리닉(P.T 샵)",
        "distance": 419.1097905967612,
        "walking_time": "약 7분"
      },
      {
        "fitness_lat": 37.48735442,
        "fitness_lon": 126.9814918,
        "fitness_type": "운동시설",
        "fitness_name": "휘트니스 피플 우먼 이수역점",
        "distance": 419.1939983272949,
        "walking_time": "약 7분"
      }
    ],
    "gas_station": [
      {
        "gas_station_lat": 37.48870348,
        "gas_station_lon": 126.98197,
        "gas_station_type": "주유소",
        "gas_station_name": "㈜성림에너지 남성주유소",
        "distance": 500.0653466945016,
        "walking_time": "약 8분"
      },
      {
        "gas_station_lat": 37.4831195,
        "gas_station_lon": 126.9815309,
        "gas_station_type": "주유소",
        "gas_station_name": "현대오일뱅크㈜직영사당셀프주유소",
        "distance": 594.5320134324957,
        "walking_time": "약 9분"
      },
      {
        "gas_station_lat": 37.49275344,
        "gas_station_lon": 126.9833251,
        "gas_station_type": "주유소",
        "gas_station_name": "현대오일뱅크(주) 직영방배현대주유소",
        "distance": 869.8962205512961,
        "walking_time": "약 13분"
      },
      {
        "gas_station_lat": 37.49493332,
        "gas_station_lon": 126.9832156,
        "gas_station_type": "주유소",
        "gas_station_name": "지에스칼텍스(주) 선천주유소",
        "distance": 1058.0954695063267,
        "walking_time": "약 16분"
      },
      {
        "gas_station_lat": 37.47816413,
        "gas_station_lon": 126.9877632,
        "gas_station_type": "주유소",
        "gas_station_name": "방배동주유소",
        "distance": 1373.020424049259,
        "walking_time": "약 21분"
      },
      {
        "gas_station_lat": 37.49493633,
        "gas_station_lon": 126.9614459,
        "gas_station_type": "주유소",
        "gas_station_name": "㈜창원이엔지",
        "distance": 1620.55082421777,
        "walking_time": "약 25분"
      },
      {
        "gas_station_lat": 37.472657,
        "gas_station_lon": 126.9822289,
        "gas_station_type": "주유소",
        "gas_station_name": "SK에너지㈜대공원주유소",
        "distance": 1655.9727181583514,
        "walking_time": "약 25분"
      },
      {
        "gas_station_lat": 37.47722191,
        "gas_station_lon": 126.9623899,
        "gas_station_type": "주유소",
        "gas_station_name": "서일석유㈜락성주유소",
        "distance": 1664.5450698694008,
        "walking_time": "약 25분"
      }
    ],
    "hospital": [
      {
        "hospital_lat": 37.48802893,
        "hospital_lon": 126.9765166,
        "hospital_type": "병원",
        "hospital_name": "연세로뎀치과의원",
        "distance": 126.8533547036822,
        "walking_time": "약 2분"
      },
      {
        "hospital_lat": 37.48845208,
        "hospital_lon": 126.9781073,
        "hospital_type": "병원",
        "hospital_name": "경희은한의원",
        "distance": 208.2375402970255,
        "walking_time": "약 4분"
      },
      {
        "hospital_lat": 37.48845208,
        "hospital_lon": 126.9781073,
        "hospital_type": "병원",
        "hospital_name": "서문내과의원",
        "distance": 208.2375402970255,
        "walking_time": "약 4분"
      },
      {
        "hospital_lat": 37.48845208,
        "hospital_lon": 126.9781073,
        "hospital_type": "병원",
        "hospital_name": "신안경희한의원",
        "distance": 208.2375402970255,
        "walking_time": "약 4분"
      },
      {
        "hospital_lat": 37.48845208,
        "hospital_lon": 126.9781073,
        "hospital_type": "병원",
        "hospital_name": "이수정안과의원",
        "distance": 208.2375402970255,
        "walking_time": "약 4분"
      },
      {
        "hospital_lat": 37.48845208,
        "hospital_lon": 126.9781073,
        "hospital_type": "병원",
        "hospital_name": "지영철치과의원",
        "distance": 208.2375402970255,
        "walking_time": "약 4분"
      },
      {
        "hospital_lat": 37.48845208,
        "hospital_lon": 126.9781073,
        "hospital_type": "병원",
        "hospital_name": "홍소아청소년과의원",
        "distance": 208.2375402970255,
        "walking_time": "약 4분"
      },
      {
        "hospital_lat": 37.48845208,
        "hospital_lon": 126.9781073,
        "hospital_type": "병원",
        "hospital_name": "한빛정형외과의원",
        "distance": 208.2375402970255,
        "walking_time": "약 4분"
      },
      {
        "hospital_lat": 37.48853485,
        "hospital_lon": 126.9789429,
        "hospital_type": "병원",
        "hospital_name": "예성한의원",
        "distance": 263.4146756232756,
        "walking_time": "약 4분"
      },
      {
        "hospital_lat": 37.4885044,
        "hospital_lon": 126.9794855,
        "hospital_type": "병원",
        "hospital_name": "조은치과의원",
        "distance": 297.9668598714369,
        "walking_time": "약 5분"
      }
    ],
    "music_room": [
      {
        "music_room_lat": 37.48443752,
        "music_room_lon": 126.9784694,
        "music_room_type": "노래방",
        "music_room_name": "해피데이",
        "distance": 312.6408995598658,
        "walking_time": "약 5분"
      },
      {
        "music_room_lat": 37.48701846,
        "music_room_lon": 126.9805777,
        "music_room_type": "노래방",
        "music_room_name": "파티파티 노래연습장",
        "distance": 335.80420175331574,
        "walking_time": "약 6분"
      },
      {
        "music_room_lat": 37.48718398,
        "music_room_lon": 126.9805809,
        "music_room_type": "노래방",
        "music_room_name": "쿨노래연습장(연소자실7)",
        "distance": 337.2690032263748,
        "walking_time": "약 6분"
      },
      {
        "music_room_lat": 37.4855239,
        "music_room_lon": 126.9802293,
        "music_room_type": "노래방",
        "music_room_name": "탈렌트 노래연습장",
        "distance": 341.415054504179,
        "walking_time": "약 6분"
      },
      {
        "music_room_lat": 37.48659257,
        "music_room_lon": 126.9806602,
        "music_room_type": "노래방",
        "music_room_name": "별밤지기 노래연습장",
        "distance": 344.6274886555383,
        "walking_time": "약 6분"
      },
      {
        "music_room_lat": 37.4853246,
        "music_room_lon": 126.9802407,
        "music_room_type": "노래방",
        "music_room_name": "일번지노래연습장",
        "distance": 352.8234428787976,
        "walking_time": "약 6분"
      },
      {
        "music_room_lat": 37.48711106,
        "music_room_lon": 126.9809659,
        "music_room_type": "노래방",
        "music_room_name": "K2 노래연습장",
        "distance": 370.52345351916375,
        "walking_time": "약 6분"
      },
      {
        "music_room_lat": 37.48730514,
        "music_room_lon": 126.9809694,
        "music_room_type": "노래방",
        "music_room_name": "프로방스 노래연습장",
        "distance": 372.777118544266,
        "walking_time": "약 6분"
      },
      {
        "music_room_lat": 37.48782888,
        "music_room_lon": 126.980891,
        "music_room_type": "노래방",
        "music_room_name": "허브 노래연습장",
        "distance": 377.41514921402415,
        "walking_time": "약 6분"
      },
      {
        "music_room_lat": 37.48776709,
        "music_room_lon": 126.9810083,
        "music_room_type": "노래방",
        "music_room_name": "락휴코인노래연습장이수점",
        "distance": 385.6237229137814,
        "walking_time": "약 6분"
      }
    ],
    "park": [
      {
        "park_lat": 37.4860183,
        "park_lon": 126.9743686,
        "park_type": "공원",
        "park_name": "삼일근린공원",
        "distance": 234.12649322932063,
        "walking_time": "약 4분"
      },
      {
        "park_lat": 37.4845836,
        "park_lon": 126.9640735,
        "park_type": "공원",
        "park_name": "까치산근린공원",
        "distance": 1150.0315974056823,
        "walking_time": "약 18분"
      },
      {
        "park_lat": 37.4998621,
        "park_lon": 126.9736849,
        "park_type": "공원",
        "park_name": "국립현충원",
        "distance": 1466.145318806319,
        "walking_time": "약 22분"
      }
    ],
    "park_station": [
      {
        "park_station_lat": 37.488036,
        "park_station_lon": 126.9786306,
        "park_station_type": "주차장",
        "park_station_name": "공유) 사당동 남일교회",
        "distance": 206.38234226229568,
        "walking_time": "약 4분"
      },
      {
        "park_station_lat": 37.48775956,
        "park_station_lon": 126.9801528,
        "park_station_type": "주차장",
        "park_station_name": "남성사계시장",
        "distance": 312.80769195304487,
        "walking_time": "약 5분"
      },
      {
        "park_station_lat": 37.48485179,
        "park_station_lon": 126.973501,
        "park_station_type": "주차장",
        "park_station_name": "공유) 사당3동 다블럭",
        "distance": 368.2720265627563,
        "walking_time": "약 6분"
      },
      {
        "park_station_lat": 37.48585551,
        "park_station_lon": 126.9727367,
        "park_station_type": "주차장",
        "park_station_name": "공유) 사당3동 다112",
        "distance": 374.9398482513721,
        "walking_time": "약 6분"
      },
      {
        "park_station_lat": 37.48350209,
        "park_station_lon": 126.9775051,
        "park_station_type": "주차장",
        "park_station_name": "공유) 사당1동 가블럭",
        "distance": 384.0151594888402,
        "walking_time": "약 6분"
      },
      {
        "park_station_lat": 37.48341726,
        "park_station_lon": 126.9797329,
        "park_station_type": "주차장",
        "park_station_name": "공유) 사당1동 가블럭",
        "distance": 467.63687389248713,
        "walking_time": "약 7분"
      },
      {
        "park_station_lat": 37.4826613,
        "park_station_lon": 126.9702992,
        "park_station_type": "주차장",
        "park_station_name": "엔젤데이케이센터 지하주차장",
        "distance": 741.1235499351927,
        "walking_time": "약 12분"
      },
      {
        "park_station_lat": 37.48108063,
        "park_station_lon": 126.9716232,
        "park_station_type": "주차장",
        "park_station_name": "공유) 은행나무골",
        "distance": 791.3640972146084,
        "walking_time": "약 12분"
      },
      {
        "park_station_lat": 37.47739102,
        "park_station_lon": 126.977131,
        "park_station_type": "주차장",
        "park_station_name": "한누리",
        "distance": 1058.5520036451535,
        "walking_time": "약 16분"
      },
      {
        "park_station_lat": 37.47808581,
        "park_station_lon": 126.982573,
        "park_station_type": "주차장",
        "park_station_name": "방배복개도로 제1지역 공영주차장",
        "distance": 1106.260297481147,
        "walking_time": "약 17분"
      }
    ],
    "pc_room": [
      {
        "pc_room_lat": 37.4868886650318,
        "pc_room_lon": 126.979723409321,
        "pc_room_type": "PC방",
        "pc_room_name": "황제PC",
        "distance": 260.20563057592665,
        "walking_time": "약 4분"
      },
      {
        "pc_room_lat": 37.4850306789307,
        "pc_room_lon": 126.979624751663,
        "pc_room_type": "PC방",
        "pc_room_name": "펀조아 PC방",
        "distance": 326.7436409765914,
        "walking_time": "약 5분"
      },
      {
        "pc_room_lat": 37.4846491148735,
        "pc_room_lon": 126.979182539226,
        "pc_room_type": "PC방",
        "pc_room_name": "Camp PC방",
        "distance": 328.87504779982766,
        "walking_time": "약 5분"
      },
      {
        "pc_room_lat": 37.4856480037481,
        "pc_room_lon": 126.980417755908,
        "pc_room_type": "PC방",
        "pc_room_name": "놀토PC방",
        "distance": 350.60702721360195,
        "walking_time": "약 6분"
      },
      {
        "pc_room_lat": 37.4841898163908,
        "pc_room_lon": 126.979385845879,
        "pc_room_type": "PC방",
        "pc_room_name": "아이닉스PC방",
        "distance": 379.93741667754966,
        "walking_time": "약 6분"
      },
      {
        "pc_room_lat": 37.4887471093766,
        "pc_room_lon": 126.980407335775,
        "pc_room_type": "PC방",
        "pc_room_name": "아이닉스 PC방",
        "distance": 380.3007679658269,
        "walking_time": "약 6분"
      },
      {
        "pc_room_lat": 37.4856557274483,
        "pc_room_lon": 126.98081473562,
        "pc_room_type": "PC방",
        "pc_room_name": "3POP PC카페(이수역점)",
        "distance": 382.6646099746581,
        "walking_time": "약 6분"
      },
      {
        "pc_room_lat": 37.4856557274483,
        "pc_room_lon": 126.98081473562,
        "pc_room_type": "PC방",
        "pc_room_name": "프로 PC방",
        "distance": 382.6646099746581,
        "walking_time": "약 6분"
      },
      {
        "pc_room_lat": 37.48735441607,
        "pc_room_lon": 126.981491819978,
        "pc_room_type": "PC방",
        "pc_room_name": "SNS PC",
        "distance": 419.1956966465091,
        "walking_time": "약 7분"
      },
      {
        "pc_room_lat": 37.4879197996861,
        "pc_room_lon": 126.98149880399,
        "pc_room_type": "PC방",
        "pc_room_name": "인터라켄 PC방",
        "distance": 431.7990403735976,
        "walking_time": "약 7분"
      }
    ],
    "police_office": [
      {
        "police_office_lat": 37.48412318,
        "police_office_lon": 126.9732631,
        "police_office_type": "경찰소",
        "police_office_name": "남성지구대",
        "distance": 437.9241418446389,
        "walking_time": "약 7분"
      },
      {
        "police_office_lat": 37.480544,
        "police_office_lon": 126.9795302,
        "police_office_type": "경찰소",
        "police_office_name": "사당지구대",
        "distance": 748.1094567927312,
        "walking_time": "약 12분"
      },
      {
        "police_office_lat": 37.47951548,
        "police_office_lon": 126.982172,
        "police_office_type": "경찰소",
        "police_office_name": "남태령지구대",
        "distance": 949.881790684818,
        "walking_time": "약 15분"
      },
      {
        "police_office_lat": 37.49414867,
        "police_office_lon": 126.988847,
        "police_office_type": "경찰소",
        "police_office_name": "이수파출소",
        "distance": 1335.2923567325483,
        "walking_time": "약 20분"
      },
      {
        "police_office_lat": 37.47468786,
        "police_office_lon": 126.9778753,
        "police_office_type": "경찰소",
        "police_office_name": "남현파출소",
        "distance": 1362.130298283634,
        "walking_time": "약 21분"
      }
    ],
    "post_office": [
      {
        "post_office_lat": 37.48864862,
        "post_office_lon": 126.9778247,
        "post_office_type": "우체국",
        "post_office_name": "서울사당우성우편취급국",
        "distance": 214.7294870329253,
        "walking_time": "약 4분"
      },
      {
        "post_office_lat": 37.48337906,
        "post_office_lon": 126.9814111,
        "post_office_type": "우체국",
        "post_office_name": "서울사당동우체국",
        "distance": 566.7734251048585,
        "walking_time": "약 9분"
      },
      {
        "post_office_lat": 37.48459793,
        "post_office_lon": 126.9706653,
        "post_office_type": "우체국",
        "post_office_name": "서울사당5동우편취급국",
        "distance": 597.0368298993501,
        "walking_time": "약 9분"
      },
      {
        "post_office_lat": 37.47720022,
        "post_office_lon": 126.98462,
        "post_office_type": "우체국",
        "post_office_name": "서울방배2동우편취급국",
        "distance": 1282.240749714142,
        "walking_time": "약 20분"
      },
      {
        "post_office_lat": 37.4748411,
        "post_office_lon": 126.9782377,
        "post_office_type": "우체국",
        "post_office_name": "서울남현동우편취급국",
        "distance": 1347.8215234683305,
        "walking_time": "약 21분"
      },
      {
        "post_office_lat": 37.49438617,
        "post_office_lon": 126.9897947,
        "post_office_type": "우체국",
        "post_office_name": "서울방배동우체국",
        "distance": 1418.2186630501324,
        "walking_time": "약 22분"
      },
      {
        "post_office_lat": 37.47601646,
        "post_office_lon": 126.9630057,
        "post_office_type": "우체국",
        "post_office_name": "서울낙성대우편취급국",
        "distance": 1715.3453946117424,
        "walking_time": "약 26분"
      }
    ],
    "school": [
      {
        "school_lat": 37.4882593140973,
        "school_lon": 126.975188515742,
        "school_type": "초등학교",
        "school_name": "서울삼일초등학교",
        "distance": 205.43529459137224,
        "walking_time": "약 4분"
      },
      {
        "school_lat": 37.4846330175369,
        "school_lon": 126.975577985193,
        "school_type": "초등학교",
        "school_name": "서울남성초등학교",
        "distance": 273.96551944388926,
        "walking_time": "약 5분"
      },
      {
        "school_lat": 37.4907235731408,
        "school_lon": 126.977927975527,
        "school_type": "고등학교",
        "school_name": "신동신정보산업고등학교(2년제)",
        "distance": 436.46114260661,
        "walking_time": "약 7분"
      },
      {
        "school_lat": 37.4907235731408,
        "school_lon": 126.977927975527,
        "school_type": "고등학교",
        "school_name": "신동신중.정보산업고등학교",
        "distance": 436.46114260661,
        "walking_time": "약 7분"
      },
      {
        "school_lat": 37.4907235731408,
        "school_lon": 126.977927975527,
        "school_type": "중학교",
        "school_name": "신동신중학교(2년제)",
        "distance": 436.46114260661,
        "walking_time": "약 7분"
      },
      {
        "school_lat": 37.48194132287,
        "school_lon": 126.978234357795,
        "school_type": "초등학교",
        "school_name": "서울남사초등학교",
        "distance": 566.9426823502304,
        "walking_time": "약 9분"
      },
      {
        "school_lat": 37.4889197255873,
        "school_lon": 126.984545759343,
        "school_type": "고등학교",
        "school_name": "서문여자고등학교",
        "distance": 721.2904955639693,
        "walking_time": "약 11분"
      },
      {
        "school_lat": 37.4889197255873,
        "school_lon": 126.984545759343,
        "school_type": "중학교",
        "school_name": "서문여자중학교",
        "distance": 721.2904955639693,
        "walking_time": "약 11분"
      },
      {
        "school_lat": 37.4877611854985,
        "school_lon": 126.968540661313,
        "school_type": "중학교",
        "school_name": "사당중학교",
        "distance": 732.6662958832429,
        "walking_time": "약 11분"
      },
      {
        "school_lat": 37.4940605364226,
        "school_lon": 126.976489285999,
        "school_type": "초등학교",
        "school_name": "서울동작초등학교",
        "distance": 795.8790497626848,
        "walking_time": "약 12분"
      }
    ],
    "self_laundromat": [
      {
        "self_laundromat_lat": 37.49133537,
        "self_laundromat_lon": 126.9863353,
        "self_laundromat_type": "셀프 빨래방",
        "self_laundromat_name": "셀프빨래터 방배점",
        "distance": 976.7801713868928,
        "walking_time": "약 15분"
      },
      {
        "self_laundromat_lat": 37.49133537,
        "self_laundromat_lon": 126.9863353,
        "self_laundromat_type": "셀프 빨래방",
        "self_laundromat_name": "셀프빨래터 방배점",
        "distance": 976.7801713868928,
        "walking_time": "약 15분"
      },
      {
        "self_laundromat_lat": 37.49402683,
        "self_laundromat_lon": 126.9839603,
        "self_laundromat_type": "셀프 빨래방",
        "self_laundromat_name": "위니아24크린샵 방배2호점",
        "distance": 1014.295771999528,
        "walking_time": "약 16분"
      },
      {
        "self_laundromat_lat": 37.49402683,
        "self_laundromat_lon": 126.9839603,
        "self_laundromat_type": "셀프 빨래방",
        "self_laundromat_name": "위니아24크린샵 방배2호점",
        "distance": 1014.295771999528,
        "walking_time": "약 16분"
      },
      {
        "self_laundromat_lat": 37.49384916,
        "self_laundromat_lon": 126.9854329,
        "self_laundromat_type": "셀프 빨래방",
        "self_laundromat_name": "화이트365 방배점",
        "distance": 1086.0613440568652,
        "walking_time": "약 17분"
      },
      {
        "self_laundromat_lat": 37.49384916,
        "self_laundromat_lon": 126.9854329,
        "self_laundromat_type": "셀프 빨래방",
        "self_laundromat_name": "화이트365 방배점",
        "distance": 1086.0613440568652,
        "walking_time": "약 17분"
      }
    ],
    "subway": [
      {
        "subway_lat": 37.485015143952,
        "subway_lon": 126.981021812089,
        "subway_type": "지하철",
        "subway_name": "7호선-이수역",
        "distance": 429.7470819434443,
        "walking_time": "약 7분"
      },
      {
        "subway_lat": 37.4875538278198,
        "subway_lon": 126.982199707405,
        "subway_type": "지하철",
        "subway_name": "4호선-총신대입구(이수)역",
        "distance": 484.0652910995239,
        "walking_time": "약 8분"
      },
      {
        "subway_lat": 37.4844433924857,
        "subway_lon": 126.971706096071,
        "subway_type": "지하철",
        "subway_name": "7호선-남성역",
        "distance": 524.4073741040878,
        "walking_time": "약 8분"
      },
      {
        "subway_lat": 37.4768632653727,
        "subway_lon": 126.981595139341,
        "subway_type": "지하철",
        "subway_name": "4호선-사당역",
        "distance": 1195.0369175325395,
        "walking_time": "약 18분"
      },
      {
        "subway_lat": 37.4765228347619,
        "subway_lon": 126.981408909449,
        "subway_type": "지하철",
        "subway_name": "2호선-사당역",
        "distance": 1224.9022753904223,
        "walking_time": "약 19분"
      },
      {
        "subway_lat": 37.4770651843603,
        "subway_lon": 126.963409959152,
        "subway_type": "지하철",
        "subway_name": "2호선-낙성대(강감찬)역",
        "distance": 1608.7775462217016,
        "walking_time": "약 25분"
      }
    ],
    "supermarket": [
      {
        "supermarket_lat": 37.48982442,
        "supermarket_lon": 126.9777452,
        "supermarket_type": "마트",
        "supermarket_name": "(주)이마트에브리데이 사당동점",
        "distance": 335.56274110763974,
        "walking_time": "약 6분"
      },
      {
        "supermarket_lat": 37.48443595,
        "supermarket_lon": 126.9803085,
        "supermarket_type": "마트",
        "supermarket_name": "(주)이마트에브리데이 이수점",
        "distance": 415.5830156295101,
        "walking_time": "약 7분"
      },
      {
        "supermarket_lat": 37.48445931,
        "supermarket_lon": 126.9723448,
        "supermarket_type": "마트",
        "supermarket_name": "홈플러스(주) 익스프레스 남성점",
        "distance": 476.2445635325228,
        "walking_time": "약 8분"
      },
      {
        "supermarket_lat": 37.48207758,
        "supermarket_lon": 126.9840211,
        "supermarket_type": "마트",
        "supermarket_name": "방배종합시장",
        "distance": 834.9723980742774,
        "walking_time": "약 13분"
      },
      {
        "supermarket_lat": 37.49124224,
        "supermarket_lon": 126.9892705,
        "supermarket_type": "마트",
        "supermarket_name": "롯데슈퍼 방배2점",
        "distance": 1203.3244000026991,
        "walking_time": "약 18분"
      },
      {
        "supermarket_lat": 37.49124224,
        "supermarket_lon": 126.9892705,
        "supermarket_type": "마트",
        "supermarket_name": "이수시장",
        "distance": 1203.3244000026991,
        "walking_time": "약 18분"
      },
      {
        "supermarket_lat": 37.49680864,
        "supermarket_lon": 126.9856879,
        "supermarket_type": "마트",
        "supermarket_name": "롯데쇼핑(주)롯데슈퍼 방배점",
        "distance": 1353.0562466495608,
        "walking_time": "약 21분"
      },
      {
        "supermarket_lat": 37.47441669,
        "supermarket_lon": 126.965908,
        "supermarket_type": "마트",
        "supermarket_name": "원당종합시장",
        "distance": 1687.659789617848,
        "walking_time": "약 26분"
      },
      {
        "supermarket_lat": 37.47697388,
        "supermarket_lon": 126.961321,
        "supermarket_type": "마트",
        "supermarket_name": "(주)지에스리테일 낙성대점",
        "distance": 1754.7651382078825,
        "walking_time": "약 27분"
      },
      {
        "supermarket_lat": 37.4714704,
        "supermarket_lon": 126.9824665,
        "supermarket_type": "마트",
        "supermarket_name": "홈플러스 서울남현점",
        "distance": 1788.408921007391,
        "walking_time": "약 27분"
      }
    ],
    "theater": [
      {
        "theater_lat": 37.4846140265703,
        "theater_lon": 126.981665713772,
        "theater_type": "영화관",
        "theater_name": "메가박스(주) 이수지점",
        "distance": 501.24407645709823,
        "walking_time": "약 8분"
      }
    ],
    "university": [
      {
        "university_lat": 37.4908791135567,
        "university_lon": 126.967182104111,
        "university_type": "대학교",
        "university_name": "총신대학교",
        "distance": 954.6679295902436,
        "walking_time": "약 15분"
      }
    ]
  }
}