{
  "클러스터_위도": 37.582164,
  "클러스터_경도": 127.02806,
  "클러스터_level": 3.0,
  "facilities": {
    "bus": [
      {
        "bus_lat": 37.58248635,
        "bus_lon": 127.0290649,
        "bus_type": "버스정류장",
        "bus_name": "안암오거리",
        "distance": 95.53063557966748,
        "walking_time": "약 2분"
      },
      {
        "bus_lat": 37.58161861,
        "bus_lon": 127.0295992,
        "bus_type": "버스정류장",
        "bus_name": "종암초등학교앞",
        "distance": 148.5747065502033,
        "walking_time": "약 3분"
      },
      {
        "bus_lat": 37.58246136,
        "bus_lon": 127.029897,
        "bus_type": "버스정류장",
        "bus_name": "안암오거리",
        "distance": 165.2180091702233,
        "walking_time": "약 3분"
      },
      {
        "bus_lat": 37.58329644,
        "bus_lon": 127.0295931,
        "bus_type": "버스정류장",
        "bus_name": "안암오거리",
        "distance": 184.680759034727,
        "walking_time": "약 3분"
      },
      {
        "bus_lat": 37.58275628,
        "bus_lon": 127.0305142,
        "bus_type": "버스정류장",
        "bus_name": "벽산아파트",
        "distance": 226.0681821898492,
        "walking_time": "약 4분"
      },
      {
        "bus_lat": 37.57977772,
        "bus_lon": 127.0255621,
        "bus_type": "버스정류장",
        "bus_name": "대광고등학교앞",
        "distance": 344.7583459043362,
        "walking_time": "약 6분"
      },
      {
        "bus_lat": 37.57970665,
        "bus_lon": 127.0250277,
        "bus_type": "버스정류장",
        "bus_name": "대광초교",
        "distance": 382.1829684156568,
        "walking_time": "약 6분"
      },
      {
        "bus_lat": 37.579035,
        "bus_lon": 127.030161,
        "bus_type": "버스정류장",
        "bus_name": "용두시장앞",
        "distance": 394.12258484356994,
        "walking_time": "약 6분"
      },
      {
        "bus_lat": 37.57911159,
        "bus_lon": 127.0303342,
        "bus_type": "버스정류장",
        "bus_name": "용두시장앞",
        "distance": 394.1616293560038,
        "walking_time": "약 6분"
      },
      {
        "bus_lat": 37.58583034,
        "bus_lon": 127.0294582,
        "bus_type": "버스정류장",
        "bus_name": "개운사입구",
        "distance": 425.88893703660017,
        "walking_time": "약 7분"
      }
    ],
    "community_center": [
      {
        "community_center_lat": 37.58037354,
        "community_center_lon": 127.0228035,
        "community_center_type": "주민센터",
        "community_center_name": "보문동 자치회관",
        "distance": 504.179919703658,
        "walking_time": "약 8분"
      },
      {
        "community_center_lat": 37.58582076,
        "community_center_lon": 127.0213756,
        "community_center_type": "주민센터",
        "community_center_name": "안암동 자치회관",
        "distance": 715.730704568523,
        "walking_time": "약 11분"
      },
      {
        "community_center_lat": 37.58311006,
        "community_center_lon": 127.037822,
        "community_center_type": "주민센터",
        "community_center_name": "제기동 자치회관",
        "distance": 866.6275467044352,
        "walking_time": "약 13분"
      },
      {
        "community_center_lat": 37.57580011,
        "community_center_lon": 127.0372752,
        "community_center_type": "주민센터",
        "community_center_name": "용신동 자치회관",
        "distance": 1077.1304049418898,
        "walking_time": "약 17분"
      },
      {
        "community_center_lat": 37.57487529,
        "community_center_lon": 127.0199617,
        "community_center_type": "주민센터",
        "community_center_name": "숭인제2동 자치회관",
        "distance": 1079.8892375542782,
        "walking_time": "약 17분"
      },
      {
        "community_center_lat": 37.57782273,
        "community_center_lon": 127.0156281,
        "community_center_type": "주민센터",
        "community_center_name": "숭인제1동 자치회관",
        "distance": 1197.1656513989528,
        "walking_time": "약 18분"
      },
      {
        "community_center_lat": 37.57802956,
        "community_center_lon": 127.0145586,
        "community_center_type": "주민센터",
        "community_center_name": "창신제3동 자치회관",
        "distance": 1275.5033971536454,
        "walking_time": "약 20분"
      },
      {
        "community_center_lat": 37.59398014,
        "community_center_lon": 127.0204087,
        "community_center_type": "주민센터",
        "community_center_name": "동선동 자치회관",
        "distance": 1476.7646842285465,
        "walking_time": "약 23분"
      },
      {
        "community_center_lat": 37.59084573,
        "community_center_lon": 127.0146418,
        "community_center_type": "주민센터",
        "community_center_name": "삼선동 자치회관",
        "distance": 1526.3857601871166,
        "walking_time": "약 23분"
      },
      {
        "community_center_lat": 37.57071856,
        "community_center_lon": 127.0163431,
        "community_center_type": "주민센터",
        "community_center_name": "창신제1동 자치회관",
        "distance": 1638.871651904285,
        "walking_time": "약 25분"
      }
    ],
    "convenience_store": [
      {
        "convenience_store_lat": 37.58225671,
        "convenience_store_lon": 127.0282061,
        "convenience_store_type": "편의점",
        "convenience_store_name": "세븐일레븐 고대4호점",
        "distance": 16.493033291738858,
        "walking_time": "약 1분"
      },
      {
        "convenience_store_lat": 37.58305266,
        "convenience_store_lon": 127.0289225,
        "convenience_store_type": "편의점",
        "convenience_store_name": "GS25 편의점",
        "distance": 124.6624500973003,
        "walking_time": "약 2분"
      },
      {
        "convenience_store_lat": 37.58282329,
        "convenience_store_lon": 127.0306031,
        "convenience_store_type": "편의점",
        "convenience_store_name": "CU 안암로타리점",
        "distance": 235.7825948675164,
        "walking_time": "약 4분"
      },
      {
        "convenience_store_lat": 37.5807309,
        "convenience_store_lon": 127.0253449,
        "convenience_store_type": "편의점",
        "convenience_store_name": "CU 안암문선점",
        "distance": 287.4665356283912,
        "walking_time": "약 5분"
      },
      {
        "convenience_store_lat": 37.58061622,
        "convenience_store_lon": 127.0244227,
        "convenience_store_type": "편의점",
        "convenience_store_name": "GS25 성북삼익점",
        "distance": 363.8049273560042,
        "walking_time": "약 6분"
      },
      {
        "convenience_store_lat": 37.58454931,
        "convenience_store_lon": 127.0310005,
        "convenience_store_type": "편의점",
        "convenience_store_name": "GS25 고대우신향점",
        "distance": 370.79403556927593,
        "walking_time": "약 6분"
      },
      {
        "convenience_store_lat": 37.57779974,
        "convenience_store_lon": 127.0279437,
        "convenience_store_type": "편의점",
        "convenience_store_name": "CU 용두안암점",
        "distance": 485.3917779541451,
        "walking_time": "약 8분"
      },
      {
        "convenience_store_lat": 37.58460236,
        "convenience_store_lon": 127.0330495,
        "convenience_store_type": "편의점",
        "convenience_store_name": "CU 제기타운점",
        "distance": 516.5457327996822,
        "walking_time": "약 8분"
      },
      {
        "convenience_store_lat": 37.58460236,
        "convenience_store_lon": 127.0330495,
        "convenience_store_type": "편의점",
        "convenience_store_name": "GS25 제기세종점",
        "distance": 516.5457327996822,
        "walking_time": "약 8분"
      },
      {
        "convenience_store_lat": 37.57765016,
        "convenience_store_lon": 127.0256201,
        "convenience_store_type": "편의점",
        "convenience_store_name": "GS25 동대문신설점",
        "distance": 546.0302066558891,
        "walking_time": "약 9분"
      }
    ],
    "daycare": [
      {
        "daycare_lat": 37.58222416,
        "daycare_lon": 127.0291938,
        "daycare_type": "어린이집",
        "daycare_name": "희망만들기방과후어린이집",
        "distance": 100.13377766145793,
        "walking_time": "약 2분"
      },
      {
        "daycare_lat": 37.58325483446309,
        "daycare_lon": 127.02930921305362,
        "daycare_type": "어린이집",
        "daycare_name": "안암동 하나금융그룹 직장어린이집",
        "distance": 163.79875228971966,
        "walking_time": "약 3분"
      },
      {
        "daycare_lat": 37.57969079,
        "daycare_lon": 127.0267201,
        "daycare_type": "어린이집",
        "daycare_name": "용두희망어린이집",
        "distance": 299.28412339294874,
        "walking_time": "약 5분"
      },
      {
        "daycare_lat": 37.58357773,
        "daycare_lon": 127.0314135,
        "daycare_type": "어린이집",
        "daycare_name": "아이나무킨더어린이집",
        "distance": 334.71761181291834,
        "walking_time": "약 5분"
      },
      {
        "daycare_lat": 37.58088936,
        "daycare_lon": 127.0243416,
        "daycare_type": "어린이집",
        "daycare_name": "안암제일어린이집",
        "distance": 357.0071749849931,
        "walking_time": "약 6분"
      },
      {
        "daycare_lat": 37.5788505,
        "daycare_lon": 127.0281176,
        "daycare_type": "어린이집",
        "daycare_name": "엘리니티어린이집",
        "distance": 368.4793507556967,
        "walking_time": "약 6분"
      },
      {
        "daycare_lat": 37.579416295498746,
        "daycare_lon": 127.03051678711464,
        "daycare_type": "어린이집",
        "daycare_name": "리치빅스맘어린이집",
        "distance": 374.4586844426033,
        "walking_time": "약 6분"
      },
      {
        "daycare_lat": 37.579434078975815,
        "daycare_lon": 127.0314179431968,
        "daycare_type": "어린이집",
        "daycare_name": "용두동어린이집",
        "distance": 423.9165450415503,
        "walking_time": "약 7분"
      },
      {
        "daycare_lat": 37.58550662,
        "daycare_lon": 127.0303978,
        "daycare_type": "어린이집",
        "daycare_name": "예찬어린이집",
        "distance": 424.9523071676344,
        "walking_time": "약 7분"
      },
      {
        "daycare_lat": 37.58404256,
        "daycare_lon": 127.0322793,
        "daycare_type": "어린이집",
        "daycare_name": "언덕위에 하얀 어린이집",
        "distance": 426.4596521959239,
        "walking_time": "약 7분"
      }
    ],
    "education": [
      {
        "education_lat": 37.58509731,
        "education_lon": 127.0351202,
        "education_type": "도서관",
        "education_name": "제기동감초마을현진건기념도서관",
        "distance": 702.447631761534,
        "walking_time": "약 11분"
      },
      {
        "education_lat": 37.57610447,
        "education_lon": 127.0303279,
        "education_type": "도서관",
        "education_name": "용두어린이영어도서관",
        "distance": 702.8040647363022,
        "walking_time": "약 11분"
      },
      {
        "education_lat": 37.58732488,
        "education_lon": 127.0352799,
        "education_type": "미술관/갤러리",
        "education_name": "고갤러리",
        "distance": 856.7739250667366,
        "walking_time": "약 13분"
      },
      {
        "education_lat": 37.58060041,
        "education_lon": 127.0375866,
        "education_type": "박물관/기념관",
        "education_name": "서울한방진흥센터",
        "distance": 857.3050125035182,
        "walking_time": "약 13분"
      },
      {
        "education_lat": 37.58060041,
        "education_lon": 127.0375866,
        "education_type": "박물관/기념관",
        "education_name": "서울약령시한의약박물관",
        "distance": 857.3050125035182,
        "walking_time": "약 13분"
      },
      {
        "education_lat": 37.57385655,
        "education_lon": 127.0241852,
        "education_type": "도서관",
        "education_name": "서울특별시교육청 동대문도서관",
        "distance": 984.837931673346,
        "walking_time": "약 15분"
      },
      {
        "education_lat": 37.589530692665726,
        "education_lon": 127.03434961764154,
        "education_type": "박물관/기념관",
        "education_name": "고려대학교 박물관",
        "distance": 989.009202496552,
        "walking_time": "약 15분"
      },
      {
        "education_lat": 37.58492375,
        "education_lon": 127.01617601720145,
        "education_type": "도서관",
        "education_name": "보문숲길도서관",
        "distance": 1091.2304250075624,
        "walking_time": "약 17분"
      },
      {
        "education_lat": 37.57230934363784,
        "education_lon": 127.0301562,
        "education_type": "도서관",
        "education_name": "용두어울림작은도서관",
        "distance": 1111.249564281166,
        "walking_time": "약 17분"
      },
      {
        "education_lat": 37.59165248,
        "education_lon": 127.0221456,
        "education_type": "박물관/기념관",
        "education_name": "성신여자대학교 박물관",
        "distance": 1176.7597117950163,
        "walking_time": "약 18분"
      }
    ],
    "fitness": [
      {
        "fitness_lat": 37.58219556,
        "fitness_lon": 127.0302857,
        "fitness_type": "운동시설",
        "fitness_name": "닥터스트렝스",
        "distance": 196.15937813152271,
        "walking_time": "약 3분"
      },
      {
        "fitness_lat": 37.5839294883991,
        "fitness_lon": 127.029709018435,
        "fitness_type": "운동시설",
        "fitness_name": "안암헬스",
        "distance": 244.24111762212883,
        "walking_time": "약 4분"
      },
      {
        "fitness_lat": 37.5844055,
        "fitness_lon": 127.0292636,
        "fitness_type": "운동시설",
        "fitness_name": "조인성퍼스널트레이닝No.4",
        "distance": 270.87055437255697,
        "walking_time": "약 5분"
      },
      {
        "fitness_lat": 37.58399324,
        "fitness_lon": 127.0302157,
        "fitness_type": "운동시설",
        "fitness_name": "샤크짐2호점",
        "distance": 278.30960974294385,
        "walking_time": "약 5분"
      },
      {
        "fitness_lat": 37.58066888,
        "fitness_lon": 127.0250827,
        "fitness_type": "운동시설",
        "fitness_name": "스마일 보이짐",
        "distance": 310.6002293583901,
        "walking_time": "약 5분"
      },
      {
        "fitness_lat": 37.58548923,
        "fitness_lon": 127.0292141,
        "fitness_type": "운동시설",
        "fitness_name": "스마일 보이짐",
        "distance": 383.4792304460353,
        "walking_time": "약 6분"
      },
      {
        "fitness_lat": 37.5859197,
        "fitness_lon": 127.0289681,
        "fitness_type": "운동시설",
        "fitness_name": "닥터스트렝스",
        "distance": 425.21197946548233,
        "walking_time": "약 7분"
      },
      {
        "fitness_lat": 37.5855540150335,
        "fitness_lon": 127.030625718323,
        "fitness_type": "운동시설",
        "fitness_name": "에너메카 휘트니스",
        "distance": 439.55395709236353,
        "walking_time": "약 7분"
      },
      {
        "fitness_lat": 37.58615067,
        "fitness_lon": 127.030553,
        "fitness_type": "운동시설",
        "fitness_name": "거츠 트레이닝 센터",
        "distance": 494.74279868028793,
        "walking_time": "약 8분"
      },
      {
        "fitness_lat": 37.58712925,
        "fitness_lon": 127.0294635,
        "fitness_type": "운동시설",
        "fitness_name": "플러스 휘트니스클럽",
        "distance": 565.7922403455408,
        "walking_time": "약 9분"
      }
    ],
    "gas_station": [
      {
        "gas_station_lat": 37.58557027,
        "gas_station_lon": 127.0318581,
        "gas_station_type": "주유소",
        "gas_station_name": "신방주유소",
        "distance": 505.4400635470362,
        "walking_time": "약 8분"
      },
      {
        "gas_station_lat": 37.57794807,
        "gas_station_lon": 127.0228008,
        "gas_station_type": "주유소",
        "gas_station_name": "이케이에너지 주식회사",
        "distance": 659.2056561518424,
        "walking_time": "약 10분"
      },
      {
        "gas_station_lat": 37.58295795,
        "gas_station_lon": 127.0203742,
        "gas_station_type": "주유소",
        "gas_station_name": "동일주유소",
        "distance": 682.9965310578002,
        "walking_time": "약 11분"
      },
      {
        "gas_station_lat": 37.58767101,
        "gas_station_lon": 127.0183894,
        "gas_station_type": "주유소",
        "gas_station_name": "(주)성북주유소",
        "distance": 1049.3403370599044,
        "walking_time": "약 16분"
      },
      {
        "gas_station_lat": 37.58921404,
        "gas_station_lon": 127.036004,
        "gas_station_type": "주유소",
        "gas_station_name": "풍한주유소",
        "distance": 1050.9661623498037,
        "walking_time": "약 16분"
      },
      {
        "gas_station_lat": 37.57586502,
        "gas_station_lon": 127.0377188,
        "gas_station_type": "주유소",
        "gas_station_name": "대성산업㈜동마장 주유소",
        "distance": 1102.2999721069268,
        "walking_time": "약 17분"
      },
      {
        "gas_station_lat": 37.5914409,
        "gas_station_lon": 127.0366979,
        "gas_station_type": "주유소",
        "gas_station_name": "현대오일뱅크(주)직영고대셀프주유소",
        "distance": 1281.9476626665055,
        "walking_time": "약 20분"
      },
      {
        "gas_station_lat": 37.57004131,
        "gas_station_lon": 127.0273918,
        "gas_station_type": "주유소",
        "gas_station_name": "청계로주유소",
        "distance": 1349.267233662976,
        "walking_time": "약 21분"
      },
      {
        "gas_station_lat": 37.57052365,
        "gas_station_lon": 127.0380038,
        "gas_station_type": "주유소",
        "gas_station_name": "경진주유소",
        "distance": 1563.0934833136448,
        "walking_time": "약 24분"
      },
      {
        "gas_station_lat": 37.59577164,
        "gas_station_lon": 127.0360077,
        "gas_station_type": "주유소",
        "gas_station_name": "(주)중앙에너비스 종암지점",
        "distance": 1667.2948882764806,
        "walking_time": "약 25분"
      }
    ],
    "hospital": [
      {
        "hospital_lat": 37.58191062,
        "hospital_lon": 127.0294025,
        "hospital_type": "병원",
        "hospital_name": "안암정형외과의원",
        "distance": 121.609664258852,
        "walking_time": "약 2분"
      },
      {
        "hospital_lat": 37.58162714,
        "hospital_lon": 127.0294987,
        "hospital_type": "병원",
        "hospital_name": "날개병원",
        "distance": 140.12978481257647,
        "walking_time": "약 3분"
      },
      {
        "hospital_lat": 37.58325276,
        "hospital_lon": 127.0293097,
        "hospital_type": "병원",
        "hospital_name": "안암위드치과의원",
        "distance": 163.65688252479538,
        "walking_time": "약 3분"
      },
      {
        "hospital_lat": 37.58319356,
        "hospital_lon": 127.0296908,
        "hospital_type": "병원",
        "hospital_name": "임충남치과의원",
        "distance": 183.73108497438017,
        "walking_time": "약 3분"
      },
      {
        "hospital_lat": 37.58250535,
        "hospital_lon": 127.0301709,
        "hospital_type": "병원",
        "hospital_name": "연세정내과의원",
        "distance": 189.84454114158623,
        "walking_time": "약 3분"
      },
      {
        "hospital_lat": 37.58280206,
        "hospital_lon": 127.0301221,
        "hospital_type": "병원",
        "hospital_name": "예담치과의원",
        "distance": 195.07076562728065,
        "walking_time": "약 3분"
      },
      {
        "hospital_lat": 37.58459967,
        "hospital_lon": 127.0292578,
        "hospital_type": "병원",
        "hospital_name": "안암부부한의원",
        "distance": 290.6742629808631,
        "walking_time": "약 5분"
      },
      {
        "hospital_lat": 37.58258403,
        "hospital_lon": 127.0317974,
        "hospital_type": "병원",
        "hospital_name": "안암한의원",
        "distance": 332.6329309676247,
        "walking_time": "약 5분"
      },
      {
        "hospital_lat": 37.57968892,
        "hospital_lon": 127.024805,
        "hospital_type": "병원",
        "hospital_name": "안암엘와이엔치과의원",
        "distance": 397.5147917090817,
        "walking_time": "약 6분"
      },
      {
        "hospital_lat": 37.5793972,
        "hospital_lon": 127.0251234,
        "hospital_type": "병원",
        "hospital_name": "황병도한의원",
        "distance": 402.015750591744,
        "walking_time": "약 7분"
      }
    ],
    "music_room": [
      {
        "music_room_lat": 37.58392949,
        "music_room_lon": 127.029709,
        "music_room_type": "노래방",
        "music_room_name": "닥터브이 코인노래연습장",
        "distance": 244.2402942422081,
        "walking_time": "약 4분"
      },
      {
        "music_room_lat": 37.58369334,
        "music_room_lon": 127.0300507,
        "music_room_type": "노래방",
        "music_room_name": "HUE 노래연습장",
        "distance": 244.31569610352537,
        "walking_time": "약 4분"
      },
      {
        "music_room_lat": 37.57864145,
        "music_room_lon": 127.0282944,
        "music_room_type": "노래방",
        "music_room_name": "앵콜",
        "distance": 392.2339509165986,
        "walking_time": "약 6분"
      },
      {
        "music_room_lat": 37.58615437,
        "music_room_lon": 127.0298209,
        "music_room_type": "노래방",
        "music_room_name": "夜宴 KTV 노래연습장",
        "distance": 470.0574665865231,
        "walking_time": "약 8분"
      },
      {
        "music_room_lat": 37.58687572,
        "music_room_lon": 127.0297554,
        "music_room_type": "노래방",
        "music_room_name": "리코퀸 노래연습장(고려대점)",
        "distance": 544.802614905702,
        "walking_time": "약 9분"
      },
      {
        "music_room_lat": 37.58711235,
        "music_room_lon": 127.0296707,
        "music_room_type": "노래방",
        "music_room_name": "판타스틱 코인 노래연습장",
        "distance": 568.2417156901953,
        "walking_time": "약 9분"
      },
      {
        "music_room_lat": 37.57744686,
        "music_room_lon": 127.0313481,
        "music_room_type": "노래방",
        "music_room_name": "사구금",
        "distance": 599.2342298077621,
        "walking_time": "약 9분"
      },
      {
        "music_room_lat": 37.58048083,
        "music_room_lon": 127.0356168,
        "music_room_type": "노래방",
        "music_room_name": "현대",
        "distance": 691.7121219235618,
        "walking_time": "약 11분"
      },
      {
        "music_room_lat": 37.58620693,
        "music_room_lon": 127.0343616,
        "music_room_type": "노래방",
        "music_room_name": "윤",
        "distance": 714.4467152798273,
        "walking_time": "약 11분"
      },
      {
        "music_room_lat": 37.57600552,
        "music_room_lon": 127.025465,
        "music_room_type": "노래방",
        "music_room_name": "도깨비코인노래연습장",
        "distance": 721.9655807390868,
        "walking_time": "약 11분"
      }
    ],
    "park": [
      {
        "park_lat": 37.5764419,
        "park_lon": 127.0178267,
        "park_type": "공원",
        "park_name": "숭인근린공원",
        "distance": 1103.6588412207393,
        "walking_time": "약 17분"
      },
      {
        "park_lat": 37.5732791,
        "park_lon": 127.0390042,
        "park_type": "공원",
        "park_name": "용두근린공원",
        "distance": 1380.6644711321308,
        "walking_time": "약 21분"
      },
      {
        "park_lat": 37.5965837,
        "park_lon": 127.0252858,
        "park_type": "공원",
        "park_name": "개운산근린공원",
        "distance": 1621.9227569423836,
        "walking_time": "약 25분"
      }
    ],
    "park_station": [
      {
        "park_station_lat": 37.5799979,
        "park_station_lon": 127.0350262,
        "park_station_type": "주차장",
        "park_station_name": "정릉천복개 공영주차장",
        "distance": 659.4297902139202,
        "walking_time": "약 10분"
      },
      {
        "park_station_lat": 37.58556009,
        "park_station_lon": 127.0365012,
        "park_station_type": "주차장",
        "park_station_name": "정릉천변 공영주차장",
        "distance": 834.1880590146816,
        "walking_time": "약 13분"
      },
      {
        "park_station_lat": 37.58065617,
        "park_station_lon": 127.0376267,
        "park_station_type": "주차장",
        "park_station_name": "서울약령시공영주차장",
        "distance": 859.5342945803613,
        "walking_time": "약 13분"
      },
      {
        "park_station_lat": 37.57733166,
        "park_station_lon": 127.0368424,
        "park_station_type": "주차장",
        "park_station_name": "공유) 용신동 B 98구간",
        "distance": 942.1726426573344,
        "walking_time": "약 15분"
      },
      {
        "park_station_lat": 37.57720534,
        "park_station_lon": 127.0368674,
        "park_station_type": "주차장",
        "park_station_name": "공유) 용신동 B 98구간",
        "distance": 952.0490313597732,
        "walking_time": "약 15분"
      },
      {
        "park_station_lat": 37.57522988,
        "park_station_lon": 127.0211962,
        "park_station_type": "주차장",
        "park_station_name": "힐스테이트옆 이륜차 주차장",
        "distance": 979.9804980596472,
        "walking_time": "약 15분"
      },
      {
        "park_station_lat": 37.57732181,
        "park_station_lon": 127.018529,
        "park_station_type": "주차장",
        "park_station_name": "종로63가길 이륜차 주차장",
        "distance": 997.6618887653868,
        "walking_time": "약 15분"
      },
      {
        "park_station_lat": 37.57259878,
        "park_station_lon": 127.028177,
        "park_station_type": "주차장",
        "park_station_name": "청계천 주변",
        "distance": 1063.6539113122913,
        "walking_time": "약 16분"
      },
      {
        "park_station_lat": 37.57249095,
        "park_station_lon": 127.0277123,
        "park_station_type": "주차장",
        "park_station_name": "청계천 주변",
        "distance": 1076.030445626127,
        "walking_time": "약 17분"
      },
      {
        "park_station_lat": 37.57251298,
        "park_station_lon": 127.0242483,
        "park_station_type": "주차장",
        "park_station_name": "신설동 공영주차장",
        "distance": 1124.4878749585782,
        "walking_time": "약 17분"
      }
    ],
    "pc_room": [
      {
        "pc_room_lat": 37.5822567123651,
        "pc_room_lon": 127.028206118118,
        "pc_room_type": "PC방",
        "pc_room_name": "코리아PC2 (청소년PC방)",
        "distance": 16.494443939457682,
        "walking_time": "약 1분"
      },
      {
        "pc_room_lat": 37.5839294883991,
        "pc_room_lon": 127.029709018435,
        "pc_room_type": "PC방",
        "pc_room_name": "레벨업 PC카페(고대점)",
        "distance": 244.24111762212883,
        "walking_time": "약 4분"
      },
      {
        "pc_room_lat": 37.5848050119051,
        "pc_room_lon": 127.029234304551,
        "pc_room_type": "PC방",
        "pc_room_name": "나인티 PC카페",
        "distance": 311.3647065430108,
        "walking_time": "약 5분"
      },
      {
        "pc_room_lat": 37.5869920871665,
        "pc_room_lon": 127.029576068606,
        "pc_room_type": "PC방",
        "pc_room_name": "NINE PC방",
        "distance": 553.2304891459012,
        "walking_time": "약 9분"
      },
      {
        "pc_room_lat": 37.5875251423782,
        "pc_room_lon": 127.02910131363,
        "pc_room_type": "PC방",
        "pc_room_name": "Maps PC방",
        "distance": 603.1521365937917,
        "walking_time": "약 10분"
      },
      {
        "pc_room_lat": 37.583713478664,
        "pc_room_lon": 127.020603298681,
        "pc_room_type": "PC방",
        "pc_room_name": "앤유PC",
        "distance": 679.288939952965,
        "walking_time": "약 11분"
      },
      {
        "pc_room_lat": 37.5779517051493,
        "pc_room_lon": 127.035140711929,
        "pc_room_type": "PC방",
        "pc_room_name": "PC월드",
        "distance": 780.2058736681089,
        "walking_time": "약 12분"
      },
      {
        "pc_room_lat": 37.5747206417233,
        "pc_room_lon": 127.024462837927,
        "pc_room_type": "PC방",
        "pc_room_name": "E-SPORTS ARENA",
        "distance": 886.2923181139221,
        "walking_time": "약 14분"
      },
      {
        "pc_room_lat": 37.5826101307154,
        "pc_room_lon": 127.038824069558,
        "pc_room_type": "PC방",
        "pc_room_name": "모두의게임 PC방",
        "distance": 949.8201268041512,
        "walking_time": "약 15분"
      },
      {
        "pc_room_lat": 37.5742326927433,
        "pc_room_lon": 127.022023632788,
        "pc_room_type": "PC방",
        "pc_room_name": "사이버존PC방",
        "distance": 1029.930572556606,
        "walking_time": "약 16분"
      }
    ],
    "police_office": [
      {
        "police_office_lat": 37.58672153,
        "police_office_lon": 127.0165984,
        "police_office_type": "경찰소",
        "police_office_name": "안암지구대",
        "distance": 1129.9748310474124,
        "walking_time": "약 17분"
      },
      {
        "police_office_lat": 37.57284342,
        "police_office_lon": 127.037209,
        "police_office_type": "경찰소",
        "police_office_name": "용신지구대",
        "distance": 1313.0799080372228,
        "walking_time": "약 20분"
      },
      {
        "police_office_lat": 37.57849369,
        "police_office_lon": 127.013542,
        "police_office_type": "경찰소",
        "police_office_name": "창신파출소",
        "distance": 1342.8726450784134,
        "walking_time": "약 21분"
      },
      {
        "police_office_lat": 37.57269632,
        "police_office_lon": 127.0171175,
        "police_office_type": "경찰소",
        "police_office_name": "동묘파출소",
        "distance": 1427.6538120443902,
        "walking_time": "약 22분"
      },
      {
        "police_office_lat": 37.57598518,
        "police_office_lon": 127.0105262,
        "police_office_type": "경찰소",
        "police_office_name": "덕산파출소",
        "distance": 1691.0032409713397,
        "walking_time": "약 26분"
      },
      {
        "police_office_lat": 37.59732258,
        "police_office_lon": 127.0124034,
        "police_office_type": "경찰소",
        "police_office_name": "돈암지구대",
        "distance": 2178.110018149957,
        "walking_time": "약 33분"
      }
    ],
    "post_office": [
      {
        "post_office_lat": 37.58351147,
        "post_office_lon": 127.0305819,
        "post_office_type": "우체국",
        "post_office_name": "서울제기2동우편취급국",
        "distance": 268.0194917211344,
        "walking_time": "약 5분"
      },
      {
        "post_office_lat": 37.5818354,
        "post_office_lon": 127.0246137,
        "post_office_type": "우체국",
        "post_office_name": "서울삼익아파트우편취급국",
        "distance": 305.8778125453066,
        "walking_time": "약 5분"
      },
      {
        "post_office_lat": 37.58870342,
        "post_office_lon": 127.0316983,
        "post_office_type": "우체국",
        "post_office_name": "고려대학교우체국",
        "distance": 794.6865580302373,
        "walking_time": "약 12분"
      },
      {
        "post_office_lat": 37.57718679,
        "post_office_lon": 127.0362385,
        "post_office_type": "우체국",
        "post_office_name": "서울용두1동우편취급국",
        "distance": 908.6918433889938,
        "walking_time": "약 14분"
      },
      {
        "post_office_lat": 37.57477534,
        "post_office_lon": 127.0235321,
        "post_office_type": "우체국",
        "post_office_name": "동대문우체국",
        "distance": 913.3513806364316,
        "walking_time": "약 14분"
      },
      {
        "post_office_lat": 37.5821361,
        "post_office_lon": 127.0388933,
        "post_office_type": "우체국",
        "post_office_name": "서울제기동우체국",
        "distance": 954.632413631647,
        "walking_time": "약 15분"
      },
      {
        "post_office_lat": 37.57800483,
        "post_office_lon": 127.0155694,
        "post_office_type": "우체국",
        "post_office_name": "서울숭인동우체국",
        "distance": 1193.9112775359708,
        "walking_time": "약 18분"
      },
      {
        "post_office_lat": 37.59019237,
        "post_office_lon": 127.0157069,
        "post_office_type": "우체국",
        "post_office_name": "서울돈암동우체국",
        "distance": 1407.7481775568035,
        "walking_time": "약 22분"
      },
      {
        "post_office_lat": 37.58039622,
        "post_office_lon": 127.0110117,
        "post_office_type": "우체국",
        "post_office_name": "서울창신2동우편취급국",
        "distance": 1515.1143024531298,
        "walking_time": "약 23분"
      },
      {
        "post_office_lat": 37.570893,
        "post_office_lon": 127.0381863,
        "post_office_type": "우체국",
        "post_office_name": "서울마장동우체국",
        "distance": 1538.5295000618505,
        "walking_time": "약 23분"
      }
    ],
    "public_health_center": [
      {
        "public_health_center_lat": 37.57439172,
        "public_health_center_lon": 127.0398966,
        "public_health_center_type": "보건소",
        "public_health_center_name": "동대문구청",
        "distance": 1354.602783875046,
        "walking_time": "약 21분"
      },
      {
        "public_health_center_lat": 37.59360802,
        "public_health_center_lon": 127.015754,
        "public_health_center_type": "보건소",
        "public_health_center_name": "동선보건지소",
        "distance": 1671.838615159519,
        "walking_time": "약 25분"
      }
    ],
    "school": [
      {
        "school_lat": 37.5823074106355,
        "school_lon": 127.031856383108,
        "school_type": "초등학교",
        "school_name": "서울종암초등학교",
        "distance": 334.9156864848527,
        "walking_time": "약 5분"
      },
      {
        "school_lat": 37.5818502321361,
        "school_lon": 127.033850440748,
        "school_type": "중학교",
        "school_name": "성일중학교",
        "distance": 511.4444217017948,
        "walking_time": "약 8분"
      },
      {
        "school_lat": 37.5779549391135,
        "school_lon": 127.025328234604,
        "school_type": "고등학교",
        "school_name": "대광고등학교",
        "distance": 526.3070108659307,
        "walking_time": "약 8분"
      },
      {
        "school_lat": 37.5779549391135,
        "school_lon": 127.025328234604,
        "school_type": "중학교",
        "school_name": "대광중학교",
        "distance": 526.3070108659307,
        "walking_time": "약 8분"
      },
      {
        "school_lat": 37.5791510372431,
        "school_lon": 127.023445857158,
        "school_type": "초등학교",
        "school_name": "대광초등학교",
        "distance": 526.8493796932014,
        "walking_time": "약 8분"
      },
      {
        "school_lat": 37.5764049847235,
        "school_lon": 127.0283819823,
        "school_type": "초등학교",
        "school_name": "서울용두초등학교",
        "distance": 641.0015817838024,
        "walking_time": "약 10분"
      },
      {
        "school_lat": 37.5871586956296,
        "school_lon": 127.022098883314,
        "school_type": "초등학교",
        "school_name": "서울안암초등학교",
        "distance": 764.4378958729611,
        "walking_time": "약 12분"
      },
      {
        "school_lat": 37.5886903262008,
        "school_lon": 127.024660795253,
        "school_type": "고등학교",
        "school_name": "용문고등학교",
        "distance": 785.0775809223327,
        "walking_time": "약 12분"
      },
      {
        "school_lat": 37.5886903262008,
        "school_lon": 127.024660795253,
        "school_type": "중학교",
        "school_name": "용문중학교",
        "distance": 785.0775809223327,
        "walking_time": "약 12분"
      },
      {
        "school_lat": 37.5832878743837,
        "school_lon": 127.017057951549,
        "school_type": "초등학교",
        "school_name": "서울동신초등학교",
        "distance": 977.5111386317813,
        "walking_time": "약 15분"
      }
    ],
    "self_laundromat": [
      {
        "self_laundromat_lat": 37.58612089,
        "self_laundromat_lon": 127.0300528,
        "self_laundromat_type": "셀프 빨래방",
        "self_laundromat_name": "화이트365 안암점",
        "distance": 473.7332801105721,
        "walking_time": "약 8분"
      },
      {
        "self_laundromat_lat": 37.58612089,
        "self_laundromat_lon": 127.0300528,
        "self_laundromat_type": "셀프 빨래방",
        "self_laundromat_name": "화이트365 안암점",
        "distance": 473.7332801105721,
        "walking_time": "약 8분"
      },
      {
        "self_laundromat_lat": 37.58488107,
        "self_laundromat_lon": 127.0216545,
        "self_laundromat_type": "셀프 빨래방",
        "self_laundromat_name": "워시팡팡 셀프빨래방24시 안암점",
        "distance": 640.2126152492987,
        "walking_time": "약 10분"
      },
      {
        "self_laundromat_lat": 37.58488107,
        "self_laundromat_lon": 127.0216545,
        "self_laundromat_type": "셀프 빨래방",
        "self_laundromat_name": "워시팡팡 셀프빨래방24시 안암점",
        "distance": 640.2126152492987,
        "walking_time": "약 10분"
      },
      {
        "self_laundromat_lat": 37.58171742,
        "self_laundromat_lon": 127.0205752,
        "self_laundromat_type": "셀프 빨래방",
        "self_laundromat_name": "워시엔조이 보문점",
        "distance": 661.4270217220346,
        "walking_time": "약 10분"
      },
      {
        "self_laundromat_lat": 37.58171742,
        "self_laundromat_lon": 127.0205752,
        "self_laundromat_type": "셀프 빨래방",
        "self_laundromat_name": "워시엔조이 보문점",
        "distance": 661.4270217220346,
        "walking_time": "약 10분"
      },
      {
        "self_laundromat_lat": 37.58437323,
        "self_laundromat_lon": 127.0208558,
        "self_laundromat_type": "셀프 빨래방",
        "self_laundromat_name": "스토리셀프빨래방",
        "distance": 680.6953342634803,
        "walking_time": "약 11분"
      },
      {
        "self_laundromat_lat": 37.58437323,
        "self_laundromat_lon": 127.0208558,
        "self_laundromat_type": "셀프 빨래방",
        "self_laundromat_name": "스토리셀프빨래방",
        "distance": 680.6953342634803,
        "walking_time": "약 11분"
      },
      {
        "self_laundromat_lat": 37.58431973,
        "self_laundromat_lon": 127.0191636,
        "self_laundromat_type": "셀프 빨래방",
        "self_laundromat_name": "워시맨 보문점",
        "distance": 819.765801245881,
        "walking_time": "약 13분"
      },
      {
        "self_laundromat_lat": 37.58431973,
        "self_laundromat_lon": 127.0191636,
        "self_laundromat_type": "셀프 빨래방",
        "self_laundromat_name": "워시맨 보문점",
        "distance": 819.765801245881,
        "walking_time": "약 13분"
      }
    ],
    "subway": [
      {
        "subway_lat": 37.5864696091911,
        "subway_lon": 127.0291828742,
        "subway_type": "지하철",
        "subway_name": "6호선-안암(고대병원앞)역",
        "distance": 488.87929543760026,
        "walking_time": "약 8분"
      },
      {
        "subway_lat": 37.5781967284885,
        "subway_lon": 127.034690599752,
        "subway_type": "지하철",
        "subway_name": "1호선-제기동역",
        "distance": 732.1296363012847,
        "walking_time": "약 11분"
      },
      {
        "subway_lat": 37.5855493513282,
        "subway_lon": 127.019489277672,
        "subway_type": "지하철",
        "subway_name": "6호선-보문역",
        "distance": 843.8473629794049,
        "walking_time": "약 13분"
      },
      {
        "subway_lat": 37.5747187974165,
        "subway_lon": 127.025093714935,
        "subway_type": "지하철",
        "subway_name": "1호선-신설동역",
        "distance": 868.1574050632123,
        "walking_time": "약 13분"
      },
      {
        "subway_lat": 37.5747187974165,
        "subway_lon": 127.025093714935,
        "subway_type": "지하철",
        "subway_name": "2호선-신설동역",
        "distance": 868.1574050632123,
        "walking_time": "약 13분"
      },
      {
        "subway_lat": 37.5800168892429,
        "subway_lon": 127.015211194258,
        "subway_type": "지하철",
        "subway_name": "6호선-창신역",
        "distance": 1157.1469131767176,
        "walking_time": "약 18분"
      },
      {
        "subway_lat": 37.590649686622,
        "subway_lon": 127.036284948669,
        "subway_type": "지하철",
        "subway_name": "6호선-고려대(종암)역",
        "distance": 1189.773807824823,
        "walking_time": "약 18분"
      },
      {
        "subway_lat": 37.5743674429059,
        "subway_lon": 127.037817612866,
        "subway_type": "지하철",
        "subway_name": "2호선-용두(동대문구청)역",
        "distance": 1221.056728049828,
        "walking_time": "약 19분"
      },
      {
        "subway_lat": 37.5733722075697,
        "subway_lon": 127.01675118037,
        "subway_type": "지하철",
        "subway_name": "1호선-동묘앞역",
        "distance": 1396.0286752586655,
        "walking_time": "약 21분"
      },
      {
        "subway_lat": 37.5722005208773,
        "subway_lon": 127.015678133819,
        "subway_type": "지하철",
        "subway_name": "6호선-동묘앞역",
        "distance": 1555.006549116492,
        "walking_time": "약 24분"
      }
    ],
    "supermarket": [
      {
        "supermarket_lat": 37.57840049,
        "supermarket_lon": 127.0295518,
        "supermarket_type": "마트",
        "supermarket_name": "용두시장",
        "distance": 438.6456587404415,
        "walking_time": "약 7분"
      },
      {
        "supermarket_lat": 37.58077519,
        "supermarket_lon": 127.0214395,
        "supermarket_type": "마트",
        "supermarket_name": "홈플러스익스프레스 보문점",
        "distance": 603.4948464319632,
        "walking_time": "약 10분"
      },
      {
        "supermarket_lat": 37.57860789,
        "supermarket_lon": 127.0360639,
        "supermarket_type": "마트",
        "supermarket_name": "한솔동의보감",
        "distance": 808.598642037845,
        "walking_time": "약 13분"
      },
      {
        "supermarket_lat": 37.57849586,
        "supermarket_lon": 127.0364929,
        "supermarket_type": "마트",
        "supermarket_name": "불로장생타워",
        "distance": 847.7008046885152,
        "walking_time": "약 13분"
      },
      {
        "supermarket_lat": 37.58287311,
        "supermarket_lon": 127.0178911,
        "supermarket_type": "마트",
        "supermarket_name": "(주)지에스리테일 성북보문점",
        "distance": 899.5386484002072,
        "walking_time": "약 14분"
      },
      {
        "supermarket_lat": 37.5858003,
        "supermarket_lon": 127.0188005,
        "supermarket_type": "마트",
        "supermarket_name": "GS THE FRESH 보문역사거리점",
        "distance": 910.6163069092488,
        "walking_time": "약 14분"
      },
      {
        "supermarket_lat": 37.57903777,
        "supermarket_lon": 127.0391429,
        "supermarket_type": "마트",
        "supermarket_name": "경동시장",
        "distance": 1036.6632203795923,
        "walking_time": "약 16분"
      },
      {
        "supermarket_lat": 37.57903777,
        "supermarket_lon": 127.0391429,
        "supermarket_type": "마트",
        "supermarket_name": "노브랜드 경동시장점",
        "distance": 1036.6632203795923,
        "walking_time": "약 16분"
      },
      {
        "supermarket_lat": 37.57271319,
        "supermarket_lon": 127.0255029,
        "supermarket_type": "마트",
        "supermarket_name": "서울풍물시장",
        "distance": 1074.771463073608,
        "walking_time": "약 17분"
      },
      {
        "supermarket_lat": 37.57266959,
        "supermarket_lon": 127.0203448,
        "supermarket_type": "마트",
        "supermarket_name": "신설종합시장",
        "distance": 1255.721474423155,
        "walking_time": "약 19분"
      }
    ],
    "tax_office": [
      {
        "tax_office_lat": 37.58790069,
        "tax_office_lon": 127.0109264,
        "tax_office_type": "세무서",
        "tax_office_name": "성북세무서",
        "distance": 1638.977893381344,
        "walking_time": "약 25분"
      }
    ],
    "theater": [
      {
        "theater_lat": 37.5925747617089,
        "theater_lon": 127.017088831326,
        "theater_type": "영화관",
        "theater_name": "CGV 성신여대입구",
        "distance": 1508.1838256855403,
        "walking_time": "약 23분"
      }
    ],
    "university": [
      {
        "university_lat": 37.5887034223667,
        "university_lon": 127.031698331241,
        "university_type": "대학교",
        "university_name": "고려대학교",
        "distance": 794.6879093750313,
        "walking_time": "약 12분"
      },
      {
        "university_lat": 37.5832358514072,
        "university_lon": 127.010390004805,
        "university_type": "대학교",
        "university_name": "한성대학교",
        "distance": 1561.61832971238,
        "walking_time": "약 24분"
      },
      {
        "university_lat": 37.5946591280857,
        "university_lon": 127.019888420673,
        "university_type": "대학교",
        "university_name": "성신여자대학교",
        "distance": 1564.8776716991356,
        "walking_time": "약 24분"
      }
    ]
  }
}