{
  "클러스터_위도": 37.54607899999998,
  "클러스터_경도": 127.10329099999998,
  "클러스터_level": 3.0,
  "facilities": {
    "bus": [
      {
        "bus_lat": 37.54574097,
        "bus_lon": 127.1026491,
        "bus_type": "버스정류장",
        "bus_name": "광나루역",
        "distance": 67.93677360909868,
        "walking_time": "약 2분"
      },
      {
        "bus_lat": 37.54515886,
        "bus_lon": 127.10376,
        "bus_type": "버스정류장",
        "bus_name": "광나루역",
        "distance": 110.3541144246084,
        "walking_time": "약 2분"
      },
      {
        "bus_lat": 37.54679033,
        "bus_lon": 127.1024015,
        "bus_type": "버스정류장",
        "bus_name": "광장중학교앞",
        "distance": 111.38191731526372,
        "walking_time": "약 2분"
      },
      {
        "bus_lat": 37.54694794,
        "bus_lon": 127.1024889,
        "bus_type": "버스정류장",
        "bus_name": "광장중학교앞",
        "distance": 119.73436476578902,
        "walking_time": "약 2분"
      },
      {
        "bus_lat": 37.54635129,
        "bus_lon": 127.1053289,
        "bus_type": "버스정류장",
        "bus_name": "신동아아파트",
        "distance": 182.1991251797529,
        "walking_time": "약 3분"
      },
      {
        "bus_lat": 37.54595149,
        "bus_lon": 127.1053745,
        "bus_type": "버스정류장",
        "bus_name": "광진청소년센터",
        "distance": 184.23290844327047,
        "walking_time": "약 3분"
      },
      {
        "bus_lat": 37.54424248,
        "bus_lon": 127.1033203,
        "bus_type": "버스정류장",
        "bus_name": "광나루역.극동아파트",
        "distance": 204.2280441457056,
        "walking_time": "약 4분"
      },
      {
        "bus_lat": 37.54753936,
        "bus_lon": 127.1052274,
        "bus_type": "버스정류장",
        "bus_name": "장신대앞",
        "distance": 235.6113691688585,
        "walking_time": "약 4분"
      },
      {
        "bus_lat": 37.54763045,
        "bus_lon": 127.1051324,
        "bus_type": "버스정류장",
        "bus_name": "장신대앞",
        "distance": 236.88671792123176,
        "walking_time": "약 4분"
      },
      {
        "bus_lat": 37.5435355,
        "bus_lon": 127.1029629,
        "bus_type": "버스정류장",
        "bus_name": "광나루역.극동아파트",
        "distance": 284.2997171786635,
        "walking_time": "약 5분"
      }
    ],
    "community_center": [
      {
        "community_center_lat": 37.54688276,
        "community_center_lon": 127.1030098,
        "community_center_type": "주민센터",
        "community_center_name": "광장동 자치회관",
        "distance": 92.74868335804813,
        "walking_time": "약 2분"
      },
      {
        "community_center_lat": 37.53799342,
        "community_center_lon": 127.0919847,
        "community_center_type": "주민센터",
        "community_center_name": "구의3동 자치회관",
        "distance": 1342.3992807531852,
        "walking_time": "약 21분"
      }
    ],
    "convenience_store": [
      {
        "convenience_store_lat": 37.54527866,
        "convenience_store_lon": 127.1036865,
        "convenience_store_type": "편의점",
        "convenience_store_name": "세븐일레븐 S광나루역점",
        "distance": 95.5808219951502,
        "walking_time": "약 2분"
      },
      {
        "convenience_store_lat": 37.54672703,
        "convenience_store_lon": 127.1024383,
        "convenience_store_type": "편의점",
        "convenience_store_name": "CU 광진광장점",
        "distance": 104.13307906292955,
        "walking_time": "약 2분"
      },
      {
        "convenience_store_lat": 37.54690769,
        "convenience_store_lon": 127.1041757,
        "convenience_store_type": "편의점",
        "convenience_store_name": "세븐일레븐 광장파밀리에점",
        "distance": 120.7245429117749,
        "walking_time": "약 2분"
      },
      {
        "convenience_store_lat": 37.54772974,
        "convenience_store_lon": 127.1051167,
        "convenience_store_type": "편의점",
        "convenience_store_name": "CU 장신대점",
        "distance": 244.12900785949324,
        "walking_time": "약 4분"
      },
      {
        "convenience_store_lat": 37.54365673,
        "convenience_store_lon": 127.1042503,
        "convenience_store_type": "편의점",
        "convenience_store_name": "GS25 광나루점",
        "distance": 282.3106248564489,
        "walking_time": "약 5분"
      },
      {
        "convenience_store_lat": 37.54631857,
        "convenience_store_lon": 127.106555,
        "convenience_store_type": "편의점",
        "convenience_store_name": "CU 광진구민체육센타점",
        "distance": 288.9920016111008,
        "walking_time": "약 5분"
      },
      {
        "convenience_store_lat": 37.54600993,
        "convenience_store_lon": 127.106801,
        "convenience_store_type": "편의점",
        "convenience_store_name": "CU 광진구민체육센타점",
        "distance": 309.5454556897849,
        "walking_time": "약 5분"
      },
      {
        "convenience_store_lat": 37.54335816,
        "convenience_store_lon": 127.1017442,
        "convenience_store_type": "편의점",
        "convenience_store_name": "CU 광장점",
        "distance": 331.85837117987745,
        "walking_time": "약 5분"
      },
      {
        "convenience_store_lat": 37.54703712,
        "convenience_store_lon": 127.1075449,
        "convenience_store_type": "편의점",
        "convenience_store_name": "GS25 광나루현대점",
        "distance": 389.8705903801304,
        "walking_time": "약 6분"
      },
      {
        "convenience_store_lat": 37.54272832,
        "convenience_store_lon": 127.1017939,
        "convenience_store_type": "편의점",
        "convenience_store_name": "GS25 광장삼성점",
        "distance": 395.26753167888745,
        "walking_time": "약 6분"
      }
    ],
    "daycare": [
      {
        "daycare_lat": 37.54672855764388,
        "daycare_lon": 127.10374514721497,
        "daycare_type": "어린이집",
        "daycare_name": "향기나무어린이집",
        "distance": 82.58267381730151,
        "walking_time": "약 2분"
      },
      {
        "daycare_lat": 37.54690958203342,
        "daycare_lon": 127.10417549540642,
        "daycare_type": "어린이집",
        "daycare_name": "광장에코비어린이집",
        "distance": 120.87356292964525,
        "walking_time": "약 2분"
      },
      {
        "daycare_lat": 37.54753175369659,
        "daycare_lon": 127.10430751974648,
        "daycare_type": "어린이집",
        "daycare_name": "다예린어린이집",
        "distance": 184.7327076724828,
        "walking_time": "약 3분"
      },
      {
        "daycare_lat": 37.54387933465931,
        "daycare_lon": 127.10198056642628,
        "daycare_type": "어린이집",
        "daycare_name": "광장사임당어린이집",
        "distance": 270.5048277210556,
        "walking_time": "약 5분"
      },
      {
        "daycare_lat": 37.54387933465931,
        "daycare_lon": 127.10198056642628,
        "daycare_type": "어린이집",
        "daycare_name": "아이술루어린이집",
        "distance": 270.5048277210556,
        "walking_time": "약 5분"
      },
      {
        "daycare_lat": 37.54387933465931,
        "daycare_lon": 127.10198056642628,
        "daycare_type": "어린이집",
        "daycare_name": "파크빌어린이집",
        "distance": 270.5048277210556,
        "walking_time": "약 5분"
      },
      {
        "daycare_lat": 37.54866467,
        "daycare_lon": 127.10283344096226,
        "daycare_type": "어린이집",
        "daycare_name": "나섬어린이집",
        "distance": 290.3294096678186,
        "walking_time": "약 5분"
      },
      {
        "daycare_lat": 37.54390211580885,
        "daycare_lon": 127.10098597306256,
        "daycare_type": "어린이집",
        "daycare_name": "구립 베베아이어린이집",
        "distance": 316.05464935795413,
        "walking_time": "약 5분"
      },
      {
        "daycare_lat": 37.54337862216257,
        "daycare_lon": 127.10169927227254,
        "daycare_type": "어린이집",
        "daycare_name": "파크빌티움아이어린이집",
        "distance": 331.4429567323341,
        "walking_time": "약 5분"
      },
      {
        "daycare_lat": 37.543677621103605,
        "daycare_lon": 127.10600859979928,
        "daycare_type": "어린이집",
        "daycare_name": "참조은어린이집",
        "distance": 358.7555824304581,
        "walking_time": "약 6분"
      }
    ],
    "education": [
      {
        "education_lat": 37.54572677,
        "education_lon": 127.1079679,
        "education_type": "공연장",
        "education_name": "예스24 라이브홀",
        "distance": 414.183678519316,
        "walking_time": "약 7분"
      },
      {
        "education_lat": 37.54554942,
        "education_lon": 127.0982047,
        "education_type": "문화원",
        "education_name": "몽골 울란바타르 문화진흥원",
        "distance": 452.2719577548178,
        "walking_time": "약 7분"
      },
      {
        "education_lat": 37.552474,
        "education_lon": 127.1008158,
        "education_type": "도서관",
        "education_name": "아차산 숲속도서관",
        "distance": 743.819128462835,
        "walking_time": "약 12분"
      },
      {
        "education_lat": 37.55107291,
        "education_lon": 127.1106155,
        "education_type": "도서관",
        "education_name": "광진정보도서관",
        "distance": 851.654017366773,
        "walking_time": "약 13분"
      },
      {
        "education_lat": 37.53799342,
        "education_lon": 127.0919847,
        "education_type": "도서관",
        "education_name": "구의제3동도서관",
        "distance": 1342.3992807531852,
        "walking_time": "약 21분"
      },
      {
        "education_lat": 37.5347556,
        "education_lon": 127.1149063,
        "education_type": "미술관/갤러리",
        "education_name": "공간지은",
        "distance": 1623.0054646995748,
        "walking_time": "약 25분"
      }
    ],
    "fitness": [
      {
        "fitness_lat": 37.54574296,
        "fitness_lon": 127.1032617,
        "fitness_type": "운동시설",
        "fitness_name": "바디케어짐",
        "distance": 37.45512573803136,
        "walking_time": "약 1분"
      },
      {
        "fitness_lat": 37.54690769,
        "fitness_lon": 127.1041757,
        "fitness_type": "운동시설",
        "fitness_name": "BODY119(바디119)",
        "distance": 120.7245429117749,
        "walking_time": "약 2분"
      },
      {
        "fitness_lat": 37.54413407,
        "fitness_lon": 127.1029306,
        "fitness_type": "운동시설",
        "fitness_name": "짐 퍼스트 광장점",
        "distance": 218.58803656885405,
        "walking_time": "약 4분"
      },
      {
        "fitness_lat": 37.5473786,
        "fitness_lon": 127.1060474,
        "fitness_type": "운동시설",
        "fitness_name": "버닝타임짐",
        "distance": 282.72967050256284,
        "walking_time": "약 5분"
      },
      {
        "fitness_lat": 37.54600993,
        "fitness_lon": 127.106801,
        "fitness_type": "운동시설",
        "fitness_name": "광진구민체육센터",
        "distance": 309.5454556897849,
        "walking_time": "약 5분"
      },
      {
        "fitness_lat": 37.54734633,
        "fitness_lon": 127.1080505,
        "fitness_type": "운동시설",
        "fitness_name": "웰니스핏",
        "distance": 442.6367588580326,
        "walking_time": "약 7분"
      },
      {
        "fitness_lat": 37.54234129,
        "fitness_lon": 127.1004905,
        "fitness_type": "운동시설",
        "fitness_name": "르와짐",
        "distance": 483.42258237423687,
        "walking_time": "약 8분"
      },
      {
        "fitness_lat": 37.54943956,
        "fitness_lon": 127.1072185,
        "fitness_type": "운동시설",
        "fitness_name": "W PT STUDIO",
        "distance": 509.4347260082735,
        "walking_time": "약 8분"
      },
      {
        "fitness_lat": 37.54214125,
        "fitness_lon": 127.0981488,
        "fitness_type": "운동시설",
        "fitness_name": "순수여성헬스",
        "distance": 630.2819688731837,
        "walking_time": "약 10분"
      },
      {
        "fitness_lat": 37.54037666,
        "fitness_lon": 127.0989953,
        "fitness_type": "운동시설",
        "fitness_name": "비스코헬스케어",
        "distance": 738.5699703827898,
        "walking_time": "약 12분"
      }
    ],
    "gas_station": [
      {
        "gas_station_lat": 37.5457222,
        "gas_station_lon": 127.1037172,
        "gas_station_type": "주유소",
        "gas_station_name": "삼호주유소",
        "distance": 54.64364063711551,
        "walking_time": "약 1분"
      },
      {
        "gas_station_lat": 37.54764633,
        "gas_station_lon": 127.1072956,
        "gas_station_type": "주유소",
        "gas_station_name": "강평주유소",
        "distance": 393.72392918684574,
        "walking_time": "약 6분"
      },
      {
        "gas_station_lat": 37.53757602,
        "gas_station_lon": 127.0912437,
        "gas_station_type": "주유소",
        "gas_station_name": "동서울주유소",
        "distance": 1422.031348974357,
        "walking_time": "약 22분"
      }
    ],
    "hospital": [
      {
        "hospital_lat": 37.54574296,
        "hospital_lon": 127.1032617,
        "hospital_type": "병원",
        "hospital_name": "연세반가운치과의원",
        "distance": 37.45512573803136,
        "walking_time": "약 1분"
      },
      {
        "hospital_lat": 37.5456165,
        "hospital_lon": 127.1041358,
        "hospital_type": "병원",
        "hospital_name": "미치과의원",
        "distance": 90.50993286962044,
        "walking_time": "약 2분"
      },
      {
        "hospital_lat": 37.54365673,
        "hospital_lon": 127.1042503,
        "hospital_type": "병원",
        "hospital_name": "경희동의보감한의원",
        "distance": 282.3106248564489,
        "walking_time": "약 5분"
      },
      {
        "hospital_lat": 37.54365673,
        "hospital_lon": 127.1042503,
        "hospital_type": "병원",
        "hospital_name": "극동치과의원",
        "distance": 282.3106248564489,
        "walking_time": "약 5분"
      },
      {
        "hospital_lat": 37.54770571,
        "hospital_lon": 127.1059901,
        "hospital_type": "병원",
        "hospital_name": "의편전한의원",
        "distance": 298.90060791715985,
        "walking_time": "약 5분"
      },
      {
        "hospital_lat": 37.54335816,
        "hospital_lon": 127.1017442,
        "hospital_type": "병원",
        "hospital_name": "덴토피아환희치과의원",
        "distance": 331.85837117987745,
        "walking_time": "약 5분"
      },
      {
        "hospital_lat": 37.54292631,
        "hospital_lon": 127.1019569,
        "hospital_type": "병원",
        "hospital_name": "글로벌가정의학과의원",
        "distance": 369.7687945665527,
        "walking_time": "약 6분"
      },
      {
        "hospital_lat": 37.54838169,
        "hospital_lon": 127.1070372,
        "hospital_type": "병원",
        "hospital_name": "연세훼미리의원",
        "distance": 417.8969074902636,
        "walking_time": "약 7분"
      },
      {
        "hospital_lat": 37.54234129,
        "hospital_lon": 127.1004905,
        "hospital_type": "병원",
        "hospital_name": "더열린이비인후과의원",
        "distance": 483.42258237423687,
        "walking_time": "약 8분"
      },
      {
        "hospital_lat": 37.54234129,
        "hospital_lon": 127.1004905,
        "hospital_type": "병원",
        "hospital_name": "맑고고은의원",
        "distance": 483.42258237423687,
        "walking_time": "약 8분"
      }
    ],
    "music_room": [
      {
        "music_room_lat": 37.54770571,
        "music_room_lon": 127.1059901,
        "music_room_type": "노래방",
        "music_room_name": "열창노래방",
        "distance": 298.90060791715985,
        "walking_time": "약 5분"
      },
      {
        "music_room_lat": 37.54715424,
        "music_room_lon": 127.1069533,
        "music_room_type": "노래방",
        "music_room_name": "귀빈",
        "distance": 344.30079925335195,
        "walking_time": "약 6분"
      },
      {
        "music_room_lat": 37.53878008,
        "music_room_lon": 127.0983572,
        "music_room_type": "노래방",
        "music_room_name": "테크노노래연습장(광나루로56길 63 수정 필요)",
        "distance": 920.826562943946,
        "walking_time": "약 14분"
      },
      {
        "music_room_lat": 37.54097121,
        "music_room_lon": 127.0949557,
        "music_room_type": "노래방",
        "music_room_name": "렛츠코인노래연습장",
        "distance": 928.7815793159978,
        "walking_time": "약 14분"
      },
      {
        "music_room_lat": 37.5408394,
        "music_room_lon": 127.0942774,
        "music_room_type": "노래방",
        "music_room_name": "갈채노래연습장",
        "distance": 985.3792889491529,
        "walking_time": "약 15분"
      },
      {
        "music_room_lat": 37.54051873,
        "music_room_lon": 127.0942835,
        "music_room_type": "노래방",
        "music_room_name": "탑",
        "distance": 1006.4494904190605,
        "walking_time": "약 16분"
      },
      {
        "music_room_lat": 37.54000621,
        "music_room_lon": 127.0934154,
        "music_room_type": "노래방",
        "music_room_name": "강변코인 노래연습장",
        "distance": 1101.8554121078355,
        "walking_time": "약 17분"
      },
      {
        "music_room_lat": 37.54395194,
        "music_room_lon": 127.090656,
        "music_room_type": "노래방",
        "music_room_name": "앵콜노래연습장",
        "distance": 1138.780309900885,
        "walking_time": "약 17분"
      },
      {
        "music_room_lat": 37.55122926,
        "music_room_lon": 127.0918815,
        "music_room_type": "노래방",
        "music_room_name": "와와",
        "distance": 1157.457608082813,
        "walking_time": "약 18분"
      },
      {
        "music_room_lat": 37.55196758,
        "music_room_lon": 127.0921743,
        "music_room_type": "노래방",
        "music_room_name": "떳다 노래연습장",
        "distance": 1178.6467405197832,
        "walking_time": "약 18분"
      }
    ],
    "park": [
      {
        "park_lat": 37.5517142,
        "park_lon": 127.1010031,
        "park_type": "공원",
        "park_name": "아차산공원",
        "distance": 658.2683187082671,
        "walking_time": "약 10분"
      }
    ],
    "park_station": [
      {
        "park_station_lat": 37.55165017,
        "park_station_lon": 127.1111997,
        "park_station_type": "주차장",
        "park_station_name": "공유) 광장동 IoT 공유주차장",
        "distance": 932.6756564338828,
        "walking_time": "약 14분"
      },
      {
        "park_station_lat": 37.53911547,
        "park_station_lon": 127.091361,
        "park_station_type": "주차장",
        "park_station_name": "구의3동 공영주차장",
        "distance": 1306.0986992552737,
        "walking_time": "약 20분"
      },
      {
        "park_station_lat": 37.543078,
        "park_station_lon": 127.117775,
        "park_station_type": "주차장",
        "park_station_name": "광나루3주차장",
        "distance": 1319.8504030993631,
        "walking_time": "약 20분"
      },
      {
        "park_station_lat": 37.53814049,
        "park_station_lon": 127.1162755,
        "park_station_type": "주차장",
        "park_station_name": "송파구 풍납동 124-2",
        "distance": 1445.6064767205992,
        "walking_time": "약 22분"
      },
      {
        "park_station_lat": 37.53794532,
        "park_station_lon": 127.1162882,
        "park_station_type": "주차장",
        "park_station_name": "송파구 풍납동 124-12",
        "distance": 1459.8393723304048,
        "walking_time": "약 22분"
      },
      {
        "park_station_lat": 37.53793997,
        "park_station_lon": 127.1164129,
        "park_station_type": "주차장",
        "park_station_name": "송파구 풍납동 124-13",
        "distance": 1468.8519544205042,
        "walking_time": "약 22분"
      },
      {
        "park_station_lat": 37.53472779,
        "park_station_lon": 127.1121558,
        "park_station_type": "주차장",
        "park_station_name": "송파구 풍납동 297-16",
        "distance": 1484.6016712954497,
        "walking_time": "약 23분"
      },
      {
        "park_station_lat": 37.5352724,
        "park_station_lon": 127.113238,
        "park_station_type": "주차장",
        "park_station_name": "송파구 풍납동 203-5",
        "distance": 1487.6463662816848,
        "walking_time": "약 23분"
      },
      {
        "park_station_lat": 37.53763297,
        "park_station_lon": 127.1164352,
        "park_station_type": "주차장",
        "park_station_name": "송파구 풍납동 126-181",
        "distance": 1491.6564844067784,
        "walking_time": "약 23분"
      },
      {
        "park_station_lat": 37.53780677,
        "park_station_lon": 127.1167194,
        "park_station_type": "주차장",
        "park_station_name": "송파구 풍납동 126-187",
        "distance": 1499.2713260051678,
        "walking_time": "약 23분"
      }
    ],
    "pc_room": [
      {
        "pc_room_lat": 37.5407914746361,
        "pc_room_lon": 127.09583385236,
        "pc_room_type": "PC방",
        "pc_room_name": "PPL PC방",
        "distance": 882.0082389721111,
        "walking_time": "약 14분"
      },
      {
        "pc_room_lat": 37.5404187841405,
        "pc_room_lon": 127.093974084703,
        "pc_room_type": "PC방",
        "pc_room_name": "제로백 PC방 구의점",
        "distance": 1034.833404123847,
        "walking_time": "약 16분"
      },
      {
        "pc_room_lat": 37.5506056415504,
        "pc_room_lon": 127.091469948053,
        "pc_room_type": "PC방",
        "pc_room_name": "제로백PC 아차산역점",
        "distance": 1157.3278973452468,
        "walking_time": "약 18분"
      },
      {
        "pc_room_lat": 37.5508051349791,
        "pc_room_lon": 127.091104212028,
        "pc_room_type": "PC방",
        "pc_room_name": "TEN PC",
        "distance": 1196.023057554935,
        "walking_time": "약 18분"
      },
      {
        "pc_room_lat": 37.5367887874337,
        "pc_room_lon": 127.096160584389,
        "pc_room_type": "PC방",
        "pc_room_name": "사이버리아PC방",
        "distance": 1209.285021427538,
        "walking_time": "약 19분"
      },
      {
        "pc_room_lat": 37.5531645632465,
        "pc_room_lon": 127.091123493697,
        "pc_room_type": "PC방",
        "pc_room_name": "1%PC아레나",
        "distance": 1330.9260748631443,
        "walking_time": "약 20분"
      },
      {
        "pc_room_lat": 37.5353492183772,
        "pc_room_lon": 127.093405063055,
        "pc_room_type": "PC방",
        "pc_room_name": "맥스피드 PC 동서울터미널점",
        "distance": 1477.5726982480974,
        "walking_time": "약 23분"
      },
      {
        "pc_room_lat": 37.5379766411933,
        "pc_room_lon": 127.118223831326,
        "pc_room_type": "PC방",
        "pc_room_name": "작지만 큰 PC방",
        "distance": 1595.334797386865,
        "walking_time": "약 24분"
      },
      {
        "pc_room_lat": 37.5375648685747,
        "pc_room_lon": 127.119492682314,
        "pc_room_type": "PC방",
        "pc_room_name": "ZIA",
        "distance": 1713.7077921736577,
        "walking_time": "약 26분"
      },
      {
        "pc_room_lat": 37.5304350820703,
        "pc_room_lon": 127.113171175011,
        "pc_room_type": "PC방",
        "pc_room_name": "스카이캐슬",
        "distance": 1945.468946363778,
        "walking_time": "약 30분"
      }
    ],
    "police_office": [
      {
        "police_office_lat": 37.54445466,
        "police_office_lon": 127.1033165,
        "police_office_type": "경찰소",
        "police_office_name": "광나루지구대",
        "distance": 180.63235811521812,
        "walking_time": "약 3분"
      },
      {
        "police_office_lat": 37.54589543,
        "police_office_lon": 127.0916677,
        "police_office_type": "경찰소",
        "police_office_name": "구의파출소",
        "distance": 1024.9425457521288,
        "walking_time": "약 16분"
      },
      {
        "police_office_lat": 37.53416482,
        "police_office_lon": 127.1170949,
        "police_office_type": "경찰소",
        "police_office_name": "풍납파출소",
        "distance": 1798.9926186257649,
        "walking_time": "약 27분"
      }
    ],
    "post_office": [
      {
        "post_office_lat": 37.54770571,
        "post_office_lon": 127.1059901,
        "post_office_type": "우체국",
        "post_office_name": "서울광나루우편취급국",
        "distance": 298.90060791715985,
        "walking_time": "약 5분"
      },
      {
        "post_office_lat": 37.54986363,
        "post_office_lon": 127.103315,
        "post_office_type": "우체국",
        "post_office_name": "서울장로회신학대학교우편취급국",
        "distance": 420.83697418152457,
        "walking_time": "약 7분"
      },
      {
        "post_office_lat": 37.53572518,
        "post_office_lon": 127.0956922,
        "post_office_type": "우체국",
        "post_office_name": "서울테크노마트우편취급국",
        "distance": 1332.0436539394068,
        "walking_time": "약 20분"
      }
    ],
    "school": [
      {
        "school_lat": 37.5471775185817,
        "school_lon": 127.101927589353,
        "school_type": "중학교",
        "school_name": "광장중학교",
        "distance": 171.3731249376971,
        "walking_time": "약 3분"
      },
      {
        "school_lat": 37.5485492186653,
        "school_lon": 127.101799885644,
        "school_type": "초등학교",
        "school_name": "서울광장초등학교",
        "distance": 304.5127291867418,
        "walking_time": "약 5분"
      },
      {
        "school_lat": 37.5449782076528,
        "school_lon": 127.098714317037,
        "school_type": "중학교",
        "school_name": "양진중학교",
        "distance": 421.6515739927652,
        "walking_time": "약 7분"
      },
      {
        "school_lat": 37.5449782076528,
        "school_lon": 127.098714317037,
        "school_type": "초등학교",
        "school_name": "서울양진초등학교",
        "distance": 421.6515739927652,
        "walking_time": "약 7분"
      },
      {
        "school_lat": 37.541514723184,
        "school_lon": 127.101213923003,
        "school_type": "고등학교",
        "school_name": "광남고등학교",
        "distance": 539.5517243702344,
        "walking_time": "약 9분"
      },
      {
        "school_lat": 37.5408304051926,
        "school_lon": 127.101643877784,
        "school_type": "중학교",
        "school_name": "광남중학교",
        "distance": 601.4130013379977,
        "walking_time": "약 9분"
      },
      {
        "school_lat": 37.5409675314785,
        "school_lon": 127.100704228215,
        "school_type": "초등학교",
        "school_name": "서울광남초등학교",
        "distance": 612.4188479619901,
        "walking_time": "약 10분"
      },
      {
        "school_lat": 37.5534224448219,
        "school_lon": 127.099047310011,
        "school_type": "초등학교",
        "school_name": "서울동의초등학교",
        "distance": 898.1773202254707,
        "walking_time": "약 14분"
      },
      {
        "school_lat": 37.5476114602117,
        "school_lon": 127.091332532375,
        "school_type": "초등학교",
        "school_name": "서울광진초등학교",
        "distance": 1067.9585202720743,
        "walking_time": "약 16분"
      },
      {
        "school_lat": 37.5370965949427,
        "school_lon": 127.092288798461,
        "school_type": "초등학교",
        "school_name": "서울구남초등학교",
        "distance": 1392.3263545596187,
        "walking_time": "약 21분"
      }
    ],
    "self_laundromat": [
      {
        "self_laundromat_lat": 37.5333975,
        "self_laundromat_lon": 127.11713,
        "self_laundromat_type": "셀프 빨래방",
        "self_laundromat_name": "24시 셀프빨래방 풍납점",
        "distance": 1864.746930713496,
        "walking_time": "약 28분"
      },
      {
        "self_laundromat_lat": 37.5333975,
        "self_laundromat_lon": 127.11713,
        "self_laundromat_type": "셀프 빨래방",
        "self_laundromat_name": "24시 셀프빨래방 풍납점",
        "distance": 1864.746930713496,
        "walking_time": "약 28분"
      },
      {
        "self_laundromat_lat": 37.53088708,
        "self_laundromat_lon": 127.1128286,
        "self_laundromat_type": "셀프 빨래방",
        "self_laundromat_name": "워시피플셀프빨래방 송파풍납동점",
        "distance": 1887.0082271680835,
        "walking_time": "약 29분"
      },
      {
        "self_laundromat_lat": 37.53088708,
        "self_laundromat_lon": 127.1128286,
        "self_laundromat_type": "셀프 빨래방",
        "self_laundromat_name": "워시피플셀프빨래방 송파풍납동점",
        "distance": 1887.0082271680835,
        "walking_time": "약 29분"
      }
    ],
    "subway": [
      {
        "subway_lat": 37.5452786641598,
        "subway_lon": 127.103686533578,
        "subway_type": "지하철",
        "subway_name": "5호선-광나루(장신대)역",
        "distance": 95.58147131450916,
        "walking_time": "약 2분"
      },
      {
        "subway_lat": 37.5351692767888,
        "subway_lon": 127.094664569096,
        "subway_type": "지하철",
        "subway_name": "2호선-강변(동서울터미널)역",
        "distance": 1431.8210691148663,
        "walking_time": "약 22분"
      }
    ],
    "supermarket": [
      {
        "supermarket_lat": 37.54006401,
        "supermarket_lon": 127.097812,
        "supermarket_type": "마트",
        "supermarket_name": "현대종합상가",
        "distance": 825.0395638401675,
        "walking_time": "약 13분"
      },
      {
        "supermarket_lat": 37.54051873,
        "supermarket_lon": 127.0942835,
        "supermarket_type": "마트",
        "supermarket_name": "홈플러스익스프레스 구의2점",
        "distance": 1006.4494904190605,
        "walking_time": "약 16분"
      },
      {
        "supermarket_lat": 37.53814044,
        "supermarket_lon": 127.0966352,
        "supermarket_type": "마트",
        "supermarket_name": "구의현대종합상가",
        "distance": 1059.985234639356,
        "walking_time": "약 16분"
      },
      {
        "supermarket_lat": 37.55196758,
        "supermarket_lon": 127.0921743,
        "supermarket_type": "마트",
        "supermarket_name": "롯데 FRESH 아차산점",
        "distance": 1178.6467405197832,
        "walking_time": "약 18분"
      },
      {
        "supermarket_lat": 37.53678879,
        "supermarket_lon": 127.0961606,
        "supermarket_type": "마트",
        "supermarket_name": "프라임프라자상가",
        "distance": 1209.2840621091168,
        "walking_time": "약 19분"
      },
      {
        "supermarket_lat": 37.53572518,
        "supermarket_lon": 127.0956922,
        "supermarket_type": "마트",
        "supermarket_name": "테크노-마트21",
        "distance": 1332.0436539394068,
        "walking_time": "약 20분"
      },
      {
        "supermarket_lat": 37.53572518,
        "supermarket_lon": 127.0956922,
        "supermarket_type": "마트",
        "supermarket_name": "롯데쇼핑(주)롯데마트 강변점",
        "distance": 1332.0436539394068,
        "walking_time": "약 20분"
      },
      {
        "supermarket_lat": 37.53453851,
        "supermarket_lon": 127.0941841,
        "supermarket_type": "마트",
        "supermarket_name": "동서울터미널상가",
        "distance": 1513.7506270462345,
        "walking_time": "약 23분"
      },
      {
        "supermarket_lat": 37.53392646,
        "supermarket_lon": 127.1162325,
        "supermarket_type": "마트",
        "supermarket_name": "홈플러스(주)익스프레스 풍납점",
        "distance": 1768.6156557229708,
        "walking_time": "약 27분"
      }
    ],
    "theater": [
      {
        "theater_lat": 37.535725176732,
        "theater_lon": 127.095692162256,
        "theater_type": "영화관",
        "theater_name": "CGV강변",
        "distance": 1332.0456418168656,
        "walking_time": "약 20분"
      }
    ],
    "university": [
      {
        "university_lat": 37.5486902335292,
        "university_lon": 127.104573818024,
        "university_type": "대학교",
        "university_name": "장로회신학대학교",
        "distance": 311.6037369769312,
        "walking_time": "약 5분"
      }
    ]
  }
}