{
  "클러스터_위도": 37.65070600014917,
  "클러스터_경도": 127.03503933334412,
  "클러스터_level": 3.0,
  "facilities": {
    "bus": [
      {
        "bus_lat": 37.65112144,
        "bus_lon": 127.0349114,
        "bus_type": "버스정류장",
        "bus_name": "소피아호텔",
        "distance": 47.54803605222442,
        "walking_time": "약 1분"
      },
      {
        "bus_lat": 37.65136196,
        "bus_lon": 127.0351189,
        "bus_type": "버스정류장",
        "bus_name": "소피아호텔",
        "distance": 73.27500103590285,
        "walking_time": "약 2분"
      },
      {
        "bus_lat": 37.65101219,
        "bus_lon": 127.0331371,
        "bus_type": "버스정류장",
        "bus_name": "정의여중고입구",
        "distance": 170.8952834319225,
        "walking_time": "약 3분"
      },
      {
        "bus_lat": 37.65120125,
        "bus_lon": 127.0331242,
        "bus_type": "버스정류장",
        "bus_name": "정의여중고",
        "distance": 177.37036517345396,
        "walking_time": "약 3분"
      },
      {
        "bus_lat": 37.64881742,
        "bus_lon": 127.0347687,
        "bus_type": "버스정류장",
        "bus_name": "쌍문역",
        "distance": 211.34787265748903,
        "walking_time": "약 4분"
      },
      {
        "bus_lat": 37.6521851,
        "bus_lon": 127.0365881,
        "bus_type": "버스정류장",
        "bus_name": "함석헌기념관.정의여중고",
        "distance": 213.63780083497463,
        "walking_time": "약 4분"
      },
      {
        "bus_lat": 37.65125024,
        "bus_lon": 127.0379918,
        "bus_type": "버스정류장",
        "bus_name": "창동고등학교.창북중학교",
        "distance": 266.8815904914932,
        "walking_time": "약 4분"
      },
      {
        "bus_lat": 37.6515935,
        "bus_lon": 127.0381461,
        "bus_type": "버스정류장",
        "bus_name": "창동고등학교.창북중학교",
        "distance": 290.77215813549486,
        "walking_time": "약 5분"
      },
      {
        "bus_lat": 37.64807141,
        "bus_lon": 127.0344601,
        "bus_type": "버스정류장",
        "bus_name": "쌍문역",
        "distance": 297.3584714870234,
        "walking_time": "약 5분"
      },
      {
        "bus_lat": 37.65263089,
        "bus_lon": 127.0373873,
        "bus_type": "버스정류장",
        "bus_name": "함석헌기념관.정의여중고",
        "distance": 297.55804889075745,
        "walking_time": "약 5분"
      }
    ],
    "community_center": [
      {
        "community_center_lat": 37.64898155,
        "community_center_lon": 127.0279211,
        "community_center_type": "주민센터",
        "community_center_name": "쌍문3동 자치회관",
        "distance": 655.3650763296693,
        "walking_time": "약 10분"
      },
      {
        "community_center_lat": 37.64837711,
        "community_center_lon": 127.0438238,
        "community_center_type": "주민센터",
        "community_center_name": "창1동 자치회관",
        "distance": 815.5873470341849,
        "walking_time": "약 13분"
      },
      {
        "community_center_lat": 37.64803784,
        "community_center_lon": 127.0260513,
        "community_center_type": "주민센터",
        "community_center_name": "쌍문1동 자치회관",
        "distance": 845.0974779132877,
        "walking_time": "약 13분"
      },
      {
        "community_center_lat": 37.65646373,
        "community_center_lon": 127.0284052,
        "community_center_type": "주민센터",
        "community_center_name": "쌍문4동 자치회관",
        "distance": 866.5988890178318,
        "walking_time": "약 13분"
      },
      {
        "community_center_lat": 37.65793243,
        "community_center_lon": 127.0388203,
        "community_center_type": "주민센터",
        "community_center_name": "쌍문2동 자치회관",
        "distance": 869.7542149212501,
        "walking_time": "약 13분"
      },
      {
        "community_center_lat": 37.65633441,
        "community_center_lon": 127.0435868,
        "community_center_type": "주민센터",
        "community_center_name": "창5동 자치회관",
        "distance": 978.7296532658364,
        "walking_time": "약 15분"
      },
      {
        "community_center_lat": 37.64141508,
        "community_center_lon": 127.035653,
        "community_center_type": "주민센터",
        "community_center_name": "창2동 자치회관",
        "distance": 1034.5150534849686,
        "walking_time": "약 16분"
      },
      {
        "community_center_lat": 37.65917578,
        "community_center_lon": 127.0280107,
        "community_center_type": "주민센터",
        "community_center_name": "방학3동 자치회관",
        "distance": 1126.8711795555237,
        "walking_time": "약 17분"
      },
      {
        "community_center_lat": 37.65997188,
        "community_center_lon": 127.0454202,
        "community_center_type": "주민센터",
        "community_center_name": "창4동 자치회관",
        "distance": 1377.2055875817389,
        "walking_time": "약 21분"
      },
      {
        "community_center_lat": 37.66422859,
        "community_center_lon": 127.0406591,
        "community_center_type": "주민센터",
        "community_center_name": "방학1동 자치회관",
        "distance": 1582.9346965860052,
        "walking_time": "약 24분"
      }
    ],
    "convenience_store": [
      {
        "convenience_store_lat": 37.64891698,
        "convenience_store_lon": 127.035797,
        "convenience_store_type": "편의점",
        "convenience_store_name": "CU 창동쌍문점",
        "distance": 209.8157306524515,
        "walking_time": "약 4분"
      },
      {
        "convenience_store_lat": 37.64817238,
        "convenience_store_lon": 127.0355899,
        "convenience_store_type": "편의점",
        "convenience_store_name": "GS25 창동쌍문점",
        "distance": 285.86517537354155,
        "walking_time": "약 5분"
      },
      {
        "convenience_store_lat": 37.64886417,
        "convenience_store_lon": 127.0378667,
        "convenience_store_type": "편의점",
        "convenience_store_name": "GS25 창동금성점",
        "distance": 322.3433176553217,
        "walking_time": "약 5분"
      },
      {
        "convenience_store_lat": 37.64793663,
        "convenience_store_lon": 127.0336235,
        "convenience_store_type": "편의점",
        "convenience_store_name": "세븐일레븐 쌍문안길점",
        "distance": 332.211765659458,
        "walking_time": "약 5분"
      },
      {
        "convenience_store_lat": 37.64954219,
        "convenience_store_lon": 127.0313307,
        "convenience_store_type": "편의점",
        "convenience_store_name": "CU 쌍문새싹점",
        "distance": 351.2157258099552,
        "walking_time": "약 6분"
      },
      {
        "convenience_store_lat": 37.64760727,
        "convenience_store_lon": 127.0365367,
        "convenience_store_type": "편의점",
        "convenience_store_name": "CU 도봉창동점",
        "distance": 368.9207394303165,
        "walking_time": "약 6분"
      },
      {
        "convenience_store_lat": 37.65287329,
        "convenience_store_lon": 127.0383673,
        "convenience_store_type": "편의점",
        "convenience_store_name": "CU 창동주공점",
        "distance": 379.36414469229,
        "walking_time": "약 6분"
      },
      {
        "convenience_store_lat": 37.65395426,
        "convenience_store_lon": 127.0367604,
        "convenience_store_type": "편의점",
        "convenience_store_name": "세븐일레븐 쌍문아트점",
        "distance": 391.6830077724426,
        "walking_time": "약 6분"
      },
      {
        "convenience_store_lat": 37.64753302,
        "convenience_store_lon": 127.0374219,
        "convenience_store_type": "편의점",
        "convenience_store_name": "GS25 창동중앙점",
        "distance": 410.4650965231901,
        "walking_time": "약 7분"
      },
      {
        "convenience_store_lat": 37.64842644,
        "convenience_store_lon": 127.031227,
        "convenience_store_type": "편의점",
        "convenience_store_name": "CU 쌍문중앙점",
        "distance": 420.5974833182939,
        "walking_time": "약 7분"
      }
    ],
    "daycare": [
      {
        "daycare_lat": 37.65098212,
        "daycare_lon": 127.0344892,
        "daycare_type": "어린이집",
        "daycare_name": "쌍문삼성어린이집",
        "distance": 57.34475664164598,
        "walking_time": "약 1분"
      },
      {
        "daycare_lat": 37.65090089,
        "daycare_lon": 127.032932,
        "daycare_type": "어린이집",
        "daycare_name": "쌍문3동어린이집",
        "distance": 186.78760953270964,
        "walking_time": "약 3분"
      },
      {
        "daycare_lat": 37.6523599,
        "daycare_lon": 127.0361542,
        "daycare_type": "어린이집",
        "daycare_name": "샛별사랑어린이집",
        "distance": 208.4576531469753,
        "walking_time": "약 4분"
      },
      {
        "daycare_lat": 37.64901772,
        "daycare_lon": 127.0361215,
        "daycare_type": "어린이집",
        "daycare_name": "창문어린이집",
        "distance": 210.5205403446556,
        "walking_time": "약 4분"
      },
      {
        "daycare_lat": 37.650658813814566,
        "daycare_lon": 127.03218675545637,
        "daycare_type": "어린이집",
        "daycare_name": "쌍문3동빛초롱어린이집",
        "distance": 251.19159760358,
        "walking_time": "약 4분"
      },
      {
        "daycare_lat": 37.65056314,
        "daycare_lon": 127.0321794,
        "daycare_type": "어린이집",
        "daycare_name": "쌍문3동방과후교실어린이집",
        "distance": 252.28513151020732,
        "walking_time": "약 4분"
      },
      {
        "daycare_lat": 37.64963271,
        "daycare_lon": 127.0376162,
        "daycare_type": "어린이집",
        "daycare_name": "사랑나무어린이집",
        "distance": 256.3413446695198,
        "walking_time": "약 4분"
      },
      {
        "daycare_lat": 37.65259765,
        "daycare_lon": 127.0377955,
        "daycare_type": "어린이집",
        "daycare_name": "좋은씨앗어린이집",
        "distance": 321.1240367785215,
        "walking_time": "약 5분"
      },
      {
        "daycare_lat": 37.64805885991634,
        "daycare_lon": 127.03733914194132,
        "daycare_type": "어린이집",
        "daycare_name": "하나어린이집",
        "distance": 357.26368246187246,
        "walking_time": "약 6분"
      },
      {
        "daycare_lat": 37.64805458051474,
        "daycare_lon": 127.03733828994602,
        "daycare_type": "어린이집",
        "daycare_name": "새나어린이집",
        "distance": 357.6133780829906,
        "walking_time": "약 6분"
      }
    ],
    "education": [
      {
        "education_lat": 37.65296162,
        "education_lon": 127.0347964,
        "education_type": "박물관/기념관",
        "education_name": "함석헌기념관",
        "distance": 251.7236868574841,
        "walking_time": "약 4분"
      },
      {
        "education_lat": 37.64856049,
        "education_lon": 127.0338822,
        "education_type": "공연장",
        "education_name": "극단 대학로극장",
        "distance": 259.4105534736216,
        "walking_time": "약 4분"
      },
      {
        "education_lat": 37.65419928,
        "education_lon": 127.0388705,
        "education_type": "문화원",
        "education_name": "도봉문화원",
        "distance": 514.4327778180503,
        "walking_time": "약 8분"
      },
      {
        "education_lat": 37.65242986,
        "education_lon": 127.0276385,
        "education_type": "박물관/기념관",
        "education_name": "둘리뮤지엄",
        "distance": 679.1622593063958,
        "walking_time": "약 11분"
      },
      {
        "education_lat": 37.64704212,
        "education_lon": 127.0262302,
        "education_type": "도서관",
        "education_name": "쌍문채움도서관",
        "distance": 876.0567040618037,
        "walking_time": "약 14분"
      },
      {
        "education_lat": 37.64469094,
        "education_lon": 127.0437683,
        "education_type": "도서관",
        "education_name": "도봉문화정보도서관",
        "distance": 1018.8080875208326,
        "walking_time": "약 16분"
      },
      {
        "education_lat": 37.66215979,
        "education_lon": 127.0278315,
        "education_type": "도서관",
        "education_name": "학마을도서관",
        "distance": 1422.9119768871803,
        "walking_time": "약 22분"
      },
      {
        "education_lat": 37.65992371,
        "education_lon": 127.0238016,
        "education_type": "박물관/기념관",
        "education_name": "김수영문학관",
        "distance": 1424.5163293061355,
        "walking_time": "약 22분"
      },
      {
        "education_lat": 37.66029179,
        "education_lon": 127.0217983,
        "education_type": "도서관",
        "education_name": "원당마을한옥도서관",
        "distance": 1579.510618445682,
        "walking_time": "약 24분"
      },
      {
        "education_lat": 37.6590571,
        "education_lon": 127.049575,
        "education_type": "도서관",
        "education_name": "도봉아이나라도서관",
        "distance": 1581.057190702636,
        "walking_time": "약 24분"
      }
    ],
    "electric_gas_station": [
      {
        "electric_gas_station_lat": 37.6446776,
        "electric_gas_station_lon": 127.0351607,
        "electric_gas_station_type": "전기차 충전소",
        "electric_gas_station_name": "빅마켓 도봉점",
        "distance": 670.4126722013295,
        "walking_time": "약 11분"
      }
    ],
    "fitness": [
      {
        "fitness_lat": 37.64999008,
        "fitness_lon": 127.0351152,
        "fitness_type": "운동시설",
        "fitness_name": "다엔 PT&필라테스",
        "distance": 79.88639950092978,
        "walking_time": "약 2분"
      },
      {
        "fitness_lat": 37.6487361,
        "fitness_lon": 127.0365753,
        "fitness_type": "운동시설",
        "fitness_name": "프리원핏 쌍문점",
        "distance": 257.4215758301239,
        "walking_time": "약 4분"
      },
      {
        "fitness_lat": 37.64829487,
        "fitness_lon": 127.0332769,
        "fitness_type": "운동시설",
        "fitness_name": "펀 휘트니스",
        "distance": 309.76855534264075,
        "walking_time": "약 5분"
      },
      {
        "fitness_lat": 37.64787675,
        "fitness_lon": 127.0347625,
        "fitness_type": "운동시설",
        "fitness_name": "글램피트니스",
        "distance": 315.54093832918466,
        "walking_time": "약 5분"
      },
      {
        "fitness_lat": 37.64738619,
        "fitness_lon": 127.0343726,
        "fitness_type": "운동시설",
        "fitness_name": "쌍문역점 스포애니 주)케이디스포츠",
        "distance": 373.7839447658554,
        "walking_time": "약 6분"
      },
      {
        "fitness_lat": 37.64714472,
        "fitness_lon": 127.034682,
        "fitness_type": "운동시설",
        "fitness_name": "워라밸피트니스 24시 쌍문역점",
        "distance": 397.2439802848348,
        "walking_time": "약 6분"
      },
      {
        "fitness_lat": 37.64705627,
        "fitness_lon": 127.0333636,
        "fitness_type": "운동시설",
        "fitness_name": "고핏짐",
        "distance": 431.8160295572346,
        "walking_time": "약 7분"
      },
      {
        "fitness_lat": 37.64623663,
        "fitness_lon": 127.0337089,
        "fitness_type": "운동시설",
        "fitness_name": "크로스핏 앤츠",
        "distance": 510.58845902742,
        "walking_time": "약 8분"
      },
      {
        "fitness_lat": 37.64641958,
        "fitness_lon": 127.0371393,
        "fitness_type": "운동시설",
        "fitness_name": "휘트니스W창동점",
        "distance": 511.2301261325385,
        "walking_time": "약 8분"
      },
      {
        "fitness_lat": 37.64733718,
        "fitness_lon": 127.0300397,
        "fitness_type": "운동시설",
        "fitness_name": "Agym 쌍문점",
        "distance": 577.9894527414117,
        "walking_time": "약 9분"
      }
    ],
    "gas_station": [
      {
        "gas_station_lat": 37.6540051,
        "gas_station_lon": 127.0375376,
        "gas_station_type": "주유소",
        "gas_station_name": "한이에너지㈜ 쌍문주유소",
        "distance": 427.723019683838,
        "walking_time": "약 7분"
      },
      {
        "gas_station_lat": 37.64684419,
        "gas_station_lon": 127.0394451,
        "gas_station_type": "주유소",
        "gas_station_name": "구도일주유소 파크빌",
        "distance": 578.6645168562743,
        "walking_time": "약 9분"
      },
      {
        "gas_station_lat": 37.64497226,
        "gas_station_lon": 127.0321589,
        "gas_station_type": "주유소",
        "gas_station_name": "삼미상사㈜ 북부주유소",
        "distance": 686.147741274995,
        "walking_time": "약 11분"
      },
      {
        "gas_station_lat": 37.64463064,
        "gas_station_lon": 127.032708,
        "gas_station_type": "주유소",
        "gas_station_name": "동일석유㈜ 창동주유소",
        "distance": 706.042904513911,
        "walking_time": "약 11분"
      },
      {
        "gas_station_lat": 37.64908371,
        "gas_station_lon": 127.0268164,
        "gas_station_type": "주유소",
        "gas_station_name": "현대오일뱅크(주)직영 쌍문셀프주유소",
        "distance": 746.0789356688609,
        "walking_time": "약 12분"
      },
      {
        "gas_station_lat": 37.65774076,
        "gas_station_lon": 127.0405236,
        "gas_station_type": "주유소",
        "gas_station_name": "한이에너지㈜ KLP제1주유소",
        "distance": 919.229390527128,
        "walking_time": "약 14분"
      },
      {
        "gas_station_lat": 37.64222693,
        "gas_station_lon": 127.029534,
        "gas_station_type": "주유소",
        "gas_station_name": "수유동주유소",
        "distance": 1060.1275682603844,
        "walking_time": "약 16분"
      },
      {
        "gas_station_lat": 37.6414534,
        "gas_station_lon": 127.0402982,
        "gas_station_type": "주유소",
        "gas_station_name": "대성산업㈜ 신창주유소",
        "distance": 1128.2269437409457,
        "walking_time": "약 17분"
      },
      {
        "gas_station_lat": 37.66114444,
        "gas_station_lon": 127.0416939,
        "gas_station_type": "주유소",
        "gas_station_name": "정다운주유소",
        "distance": 1300.157536105175,
        "walking_time": "약 20분"
      },
      {
        "gas_station_lat": 37.66241831,
        "gas_station_lon": 127.0354277,
        "gas_station_type": "주유소",
        "gas_station_name": "현대오일뱅크㈜직영 영신주유소",
        "distance": 1302.7981061479782,
        "walking_time": "약 20분"
      }
    ],
    "hospital": [
      {
        "hospital_lat": 37.65019067,
        "hospital_lon": 127.0353118,
        "hospital_type": "병원",
        "hospital_name": "건강제일의원",
        "distance": 62.12034636236695,
        "walking_time": "약 1분"
      },
      {
        "hospital_lat": 37.65066502,
        "hospital_lon": 127.036275,
        "hospital_type": "병원",
        "hospital_name": "항준외과의원",
        "distance": 108.88167844107298,
        "walking_time": "약 2분"
      },
      {
        "hospital_lat": 37.64970572,
        "hospital_lon": 127.0357347,
        "hospital_type": "병원",
        "hospital_name": "양산부인과의원",
        "distance": 126.96086974125215,
        "walking_time": "약 2분"
      },
      {
        "hospital_lat": 37.64970572,
        "hospital_lon": 127.0357347,
        "hospital_type": "병원",
        "hospital_name": "연세애드미피부과의원",
        "distance": 126.96086974125215,
        "walking_time": "약 2분"
      },
      {
        "hospital_lat": 37.64970572,
        "hospital_lon": 127.0357347,
        "hospital_type": "병원",
        "hospital_name": "예준치과의원",
        "distance": 126.96086974125215,
        "walking_time": "약 2분"
      },
      {
        "hospital_lat": 37.64970572,
        "hospital_lon": 127.0357347,
        "hospital_type": "병원",
        "hospital_name": "풀린의원",
        "distance": 126.96086974125215,
        "walking_time": "약 2분"
      },
      {
        "hospital_lat": 37.65161651,
        "hospital_lon": 127.0360882,
        "hospital_type": "병원",
        "hospital_name": "우리치과의원",
        "distance": 137.0293978938893,
        "walking_time": "약 3분"
      },
      {
        "hospital_lat": 37.6491396,
        "hospital_lon": 127.0346514,
        "hospital_type": "병원",
        "hospital_name": "김충길치과의원",
        "distance": 177.49267274423218,
        "walking_time": "약 3분"
      },
      {
        "hospital_lat": 37.6491396,
        "hospital_lon": 127.0346514,
        "hospital_type": "병원",
        "hospital_name": "무아치과교정과치과의원",
        "distance": 177.49267274423218,
        "walking_time": "약 3분"
      },
      {
        "hospital_lat": 37.6491396,
        "hospital_lon": 127.0346514,
        "hospital_type": "병원",
        "hospital_name": "성모안과의원",
        "distance": 177.49267274423218,
        "walking_time": "약 3분"
      }
    ],
    "music_room": [
      {
        "music_room_lat": 37.65161651,
        "music_room_lon": 127.0360882,
        "music_room_type": "노래방",
        "music_room_name": "킹노래연습장",
        "distance": 137.0293978938893,
        "walking_time": "약 3분"
      },
      {
        "music_room_lat": 37.64922937,
        "music_room_lon": 127.0354556,
        "music_room_type": "노래방",
        "music_room_name": "음악대장",
        "distance": 168.23395467839418,
        "walking_time": "약 3분"
      },
      {
        "music_room_lat": 37.64922937,
        "music_room_lon": 127.0354556,
        "music_room_type": "노래방",
        "music_room_name": "열창",
        "distance": 168.23395467839418,
        "walking_time": "약 3분"
      },
      {
        "music_room_lat": 37.65194881,
        "music_room_lon": 127.0363206,
        "music_room_type": "노래방",
        "music_room_name": "사계절",
        "distance": 178.3856300467167,
        "walking_time": "약 3분"
      },
      {
        "music_room_lat": 37.64760126,
        "music_room_lon": 127.0349694,
        "music_room_type": "노래방",
        "music_room_name": "캉캉노래연습장",
        "distance": 345.2862512464083,
        "walking_time": "약 6분"
      },
      {
        "music_room_lat": 37.64755586,
        "music_room_lon": 127.035534,
        "music_room_type": "노래방",
        "music_room_name": "파티 파티 노래연습장",
        "distance": 352.97656918824646,
        "walking_time": "약 6분"
      },
      {
        "music_room_lat": 37.64779249,
        "music_room_lon": 127.0332428,
        "music_room_type": "노래방",
        "music_room_name": "까치노래연습장",
        "distance": 360.5160785577515,
        "walking_time": "약 6분"
      },
      {
        "music_room_lat": 37.64753443,
        "music_room_lon": 127.0336468,
        "music_room_type": "노래방",
        "music_room_name": "최신노래연습장",
        "distance": 373.3649761026252,
        "walking_time": "약 6분"
      },
      {
        "music_room_lat": 37.64738619,
        "music_room_lon": 127.0343726,
        "music_room_type": "노래방",
        "music_room_name": "가왕코인노래연습장",
        "distance": 373.7839447658554,
        "walking_time": "약 6분"
      },
      {
        "music_room_lat": 37.64731904,
        "music_room_lon": 127.0347754,
        "music_room_type": "노래방",
        "music_room_name": "팡팡노래연습장",
        "distance": 377.3289550133906,
        "walking_time": "약 6분"
      }
    ],
    "park": [
      {
        "park_lat": 37.6479483,
        "park_lon": 127.0405382,
        "park_type": "공원",
        "park_name": "초안산생태공원",
        "distance": 573.064262421426,
        "walking_time": "약 9분"
      },
      {
        "park_lat": 37.6531456,
        "park_lon": 127.0271316,
        "park_type": "공원",
        "park_name": "쌍문근린공원",
        "distance": 747.1584615196182,
        "walking_time": "약 12분"
      },
      {
        "park_lat": 37.648316,
        "park_lon": 127.0455446,
        "park_type": "공원",
        "park_name": "초안산근린공원",
        "distance": 962.3069295699676,
        "walking_time": "약 15분"
      },
      {
        "park_lat": 37.6597135,
        "park_lon": 127.031982,
        "park_type": "공원",
        "park_name": "발바닥공원",
        "distance": 1037.1205659426844,
        "walking_time": "약 16분"
      }
    ],
    "park_station": [
      {
        "park_station_lat": 37.65325029,
        "park_station_lon": 127.0335631,
        "park_station_type": "주차장",
        "park_station_name": "쌍문2동 2공영주차장",
        "distance": 311.3353381217544,
        "walking_time": "약 5분"
      },
      {
        "park_station_lat": 37.64756826,
        "park_station_lon": 127.0359277,
        "park_station_type": "주차장",
        "park_station_name": "창동 쌍리단길 상점가 공영주차장",
        "distance": 357.55963936583856,
        "walking_time": "약 6분"
      },
      {
        "park_station_lat": 37.64712558,
        "park_station_lon": 127.0371832,
        "park_station_type": "주차장",
        "park_station_name": "창1동 1공영주차장",
        "distance": 440.60042631642426,
        "walking_time": "약 7분"
      },
      {
        "park_station_lat": 37.64915283,
        "park_station_lon": 127.0400853,
        "park_station_type": "주차장",
        "park_station_name": "초안산 창골주차장",
        "distance": 476.6336776062968,
        "walking_time": "약 8분"
      },
      {
        "park_station_lat": 37.65236462,
        "park_station_lon": 127.0456545,
        "park_station_type": "주차장",
        "park_station_name": "창동역 공영주차장",
        "distance": 952.5578597258592,
        "walking_time": "약 15분"
      },
      {
        "park_station_lat": 37.64126334,
        "park_station_lon": 127.036287,
        "park_station_type": "주차장",
        "park_station_name": "창2동4공영주차장",
        "distance": 1055.706565479563,
        "walking_time": "약 16분"
      },
      {
        "park_station_lat": 37.64222734,
        "park_station_lon": 127.0421345,
        "park_station_type": "주차장",
        "park_station_name": "초안산꽃동산공영주차장",
        "distance": 1130.9603098321934,
        "walking_time": "약 17분"
      },
      {
        "park_station_lat": 37.66006842,
        "park_station_lon": 127.0408691,
        "park_station_type": "주차장",
        "park_station_name": "쌍문2동 5공영주차장",
        "distance": 1160.6802959079118,
        "walking_time": "약 18분"
      },
      {
        "park_station_lat": 37.65255522,
        "park_station_lon": 127.0489165,
        "park_station_type": "주차장",
        "park_station_name": "창동역 구청별관주차장",
        "distance": 1238.8931521854531,
        "walking_time": "약 19분"
      },
      {
        "park_station_lat": 37.64604831,
        "park_station_lon": 127.0219257,
        "park_station_type": "주차장",
        "park_station_name": "수유2동 공영주차장",
        "distance": 1265.38420766623,
        "walking_time": "약 19분"
      }
    ],
    "pc_room": [
      {
        "pc_room_lat": 37.6514955721377,
        "pc_room_lon": 127.035583398956,
        "pc_room_type": "PC방",
        "pc_room_name": "미스터박pc방",
        "distance": 100.01235623874224,
        "walking_time": "약 2분"
      },
      {
        "pc_room_lat": 37.6473861862855,
        "pc_room_lon": 127.034372618396,
        "pc_room_type": "PC방",
        "pc_room_name": "레드포스PC아레나 쌍문점",
        "distance": 373.7840983354878,
        "walking_time": "약 6분"
      },
      {
        "pc_room_lat": 37.6471447222566,
        "pc_room_lon": 127.034681963129,
        "pc_room_type": "PC방",
        "pc_room_name": "엔탑PC방",
        "distance": 397.24398724354046,
        "walking_time": "약 6분"
      },
      {
        "pc_room_lat": 37.6470564588623,
        "pc_room_lon": 127.031681641411,
        "pc_room_type": "PC방",
        "pc_room_name": "오렌지존 PC방",
        "distance": 502.0651982764623,
        "walking_time": "약 8분"
      },
      {
        "pc_room_lat": 37.6468393644257,
        "pc_room_lon": 127.031857975796,
        "pc_room_type": "PC방",
        "pc_room_name": "24시 게임방",
        "distance": 513.1347215624278,
        "walking_time": "약 8분"
      },
      {
        "pc_room_lat": 37.6463435232231,
        "pc_room_lon": 127.032950876452,
        "pc_room_type": "PC방",
        "pc_room_name": "클릭하우스",
        "distance": 518.763858469731,
        "walking_time": "약 8분"
      },
      {
        "pc_room_lat": 37.6463435232231,
        "pc_room_lon": 127.032950876452,
        "pc_room_type": "PC방",
        "pc_room_name": "스타일PC방",
        "distance": 518.763858469731,
        "walking_time": "약 8분"
      },
      {
        "pc_room_lat": 37.6471209388252,
        "pc_room_lon": 127.031119073191,
        "pc_room_type": "PC방",
        "pc_room_name": "MIT인터넷PC게임",
        "distance": 527.2926059183421,
        "walking_time": "약 8분"
      },
      {
        "pc_room_lat": 37.6469005717283,
        "pc_room_lon": 127.031408153406,
        "pc_room_type": "PC방",
        "pc_room_name": "마르까 PC방",
        "distance": 530.3338752221476,
        "walking_time": "약 8분"
      },
      {
        "pc_room_lat": 37.6471217425337,
        "pc_room_lon": 127.030456083206,
        "pc_room_type": "PC방",
        "pc_room_name": "대한민국 PC까페",
        "distance": 567.1554049789776,
        "walking_time": "약 9분"
      }
    ],
    "police_office": [
      {
        "police_office_lat": 37.64351954,
        "police_office_lon": 127.0346164,
        "police_office_type": "경찰소",
        "police_office_name": "신창파출소",
        "distance": 799.9650021899008,
        "walking_time": "약 12분"
      },
      {
        "police_office_lat": 37.65759555,
        "police_office_lon": 127.0380024,
        "police_office_type": "경찰소",
        "police_office_name": "쌍문파출소",
        "distance": 809.2755098258198,
        "walking_time": "약 13분"
      },
      {
        "police_office_lat": 37.64751276,
        "police_office_lon": 127.0255828,
        "police_office_type": "경찰소",
        "police_office_name": "숭미파출소",
        "distance": 905.1118160455064,
        "walking_time": "약 14분"
      },
      {
        "police_office_lat": 37.64433521,
        "police_office_lon": 127.0265847,
        "police_office_type": "경찰소",
        "police_office_name": "수유3파출소",
        "distance": 1027.5746017154104,
        "walking_time": "약 16분"
      },
      {
        "police_office_lat": 37.65850997,
        "police_office_lon": 127.0271851,
        "police_office_type": "경찰소",
        "police_office_name": "신방학파출소",
        "distance": 1109.548597952825,
        "walking_time": "약 17분"
      },
      {
        "police_office_lat": 37.66450334,
        "police_office_lon": 127.0400155,
        "police_office_type": "경찰소",
        "police_office_name": "방학파출소",
        "distance": 1595.5070614822705,
        "walking_time": "약 24분"
      }
    ],
    "post_office": [
      {
        "post_office_lat": 37.65634292,
        "post_office_lon": 127.0377161,
        "post_office_type": "우체국",
        "post_office_name": "서울쌍문2동우체국",
        "distance": 669.6305542120326,
        "walking_time": "약 10분"
      },
      {
        "post_office_lat": 37.65183368,
        "post_office_lon": 127.0427337,
        "post_office_type": "우체국",
        "post_office_name": "서울창5동우체국",
        "distance": 688.9033455867692,
        "walking_time": "약 11분"
      },
      {
        "post_office_lat": 37.64492915,
        "post_office_lon": 127.0316588,
        "post_office_type": "우체국",
        "post_office_name": "서울쌍문한양우편취급국",
        "distance": 707.9580673554298,
        "walking_time": "약 11분"
      },
      {
        "post_office_lat": 37.6479235,
        "post_office_lon": 127.0272422,
        "post_office_type": "우체국",
        "post_office_name": "서울도봉우체국",
        "distance": 752.9653622723206,
        "walking_time": "약 12분"
      },
      {
        "post_office_lat": 37.64122994,
        "post_office_lon": 127.0286569,
        "post_office_type": "우체국",
        "post_office_name": "서울수유3동우체국",
        "distance": 1194.166674021662,
        "walking_time": "약 18분"
      },
      {
        "post_office_lat": 37.66561618,
        "post_office_lon": 127.034146,
        "post_office_type": "우체국",
        "post_office_name": "서울방학2동우편취급국",
        "distance": 1659.800343790823,
        "walking_time": "약 25분"
      },
      {
        "post_office_lat": 37.66535584,
        "post_office_lon": 127.0436071,
        "post_office_type": "우체국",
        "post_office_name": "서울방학동우체국",
        "distance": 1795.1177683262488,
        "walking_time": "약 27분"
      }
    ],
    "public_health_center": [
      {
        "public_health_center_lat": 37.65793243,
        "public_health_center_lon": 127.0388203,
        "public_health_center_type": "보건소",
        "public_health_center_name": "도봉구 보건소",
        "distance": 869.7542149212501,
        "walking_time": "약 13분"
      },
      {
        "public_health_center_lat": 37.64141508,
        "public_health_center_lon": 127.035653,
        "public_health_center_type": "보건소",
        "public_health_center_name": "창동 보건지소",
        "distance": 1034.5150534849686,
        "walking_time": "약 16분"
      }
    ],
    "school": [
      {
        "school_lat": 37.6495947287047,
        "school_lon": 127.03324806776,
        "school_type": "중학교",
        "school_name": "신도봉중학교",
        "distance": 200.34660674625624,
        "walking_time": "약 3분"
      },
      {
        "school_lat": 37.6510357712645,
        "school_lon": 127.038819095625,
        "school_type": "고등학교",
        "school_name": "창동고등학교",
        "distance": 334.77817389570777,
        "walking_time": "약 5분"
      },
      {
        "school_lat": 37.6533558400471,
        "school_lon": 127.032427255133,
        "school_type": "고등학교",
        "school_name": "정의여자고등학교",
        "distance": 373.7635652816036,
        "walking_time": "약 6분"
      },
      {
        "school_lat": 37.6533558400471,
        "school_lon": 127.032427255133,
        "school_type": "중학교",
        "school_name": "정의여자중학교",
        "distance": 373.7635652816036,
        "walking_time": "약 6분"
      },
      {
        "school_lat": 37.6533558400471,
        "school_lon": 127.032427255133,
        "school_type": "초등학교",
        "school_name": "한신초등학교",
        "distance": 373.7635652816036,
        "walking_time": "약 6분"
      },
      {
        "school_lat": 37.6491157717023,
        "school_lon": 127.038832940575,
        "school_type": "중학교",
        "school_name": "창북중학교",
        "distance": 377.9081776151826,
        "walking_time": "약 6분"
      },
      {
        "school_lat": 37.6526440884387,
        "school_lon": 127.039979883482,
        "school_type": "초등학교",
        "school_name": "서울창원초등학교",
        "distance": 485.4140261315029,
        "walking_time": "약 8분"
      },
      {
        "school_lat": 37.6562806786387,
        "school_lon": 127.035622286787,
        "school_type": "중학교",
        "school_name": "백운중학교",
        "distance": 621.9967838672861,
        "walking_time": "약 10분"
      },
      {
        "school_lat": 37.6510234416817,
        "school_lon": 127.027944278021,
        "school_type": "초등학교",
        "school_name": "서울숭미초등학교",
        "distance": 625.633317711484,
        "walking_time": "약 10분"
      },
      {
        "school_lat": 37.6566021823161,
        "school_lon": 127.034602499962,
        "school_type": "초등학교",
        "school_name": "서울창경초등학교",
        "distance": 656.7524389428282,
        "walking_time": "약 10분"
      }
    ],
    "subway": [
      {
        "subway_lat": 37.6488498649136,
        "subway_lon": 127.034880717215,
        "subway_type": "지하철",
        "subway_name": "4호선-쌍문역",
        "distance": 206.86469984292492,
        "walking_time": "약 4분"
      },
      {
        "subway_lat": 37.6532084846758,
        "subway_lon": 127.04768378525,
        "subway_type": "지하철",
        "subway_name": "4호선-창동역",
        "distance": 1147.4320392601803,
        "walking_time": "약 18분"
      }
    ],
    "supermarket": [
      {
        "supermarket_lat": 37.64641958,
        "supermarket_lon": 127.0371393,
        "supermarket_type": "마트",
        "supermarket_name": "롯데프레쉬 창동점",
        "distance": 511.2301261325385,
        "walking_time": "약 8분"
      },
      {
        "supermarket_lat": 37.65371821,
        "supermarket_lon": 127.0413661,
        "supermarket_type": "마트",
        "supermarket_name": "GS THE FRESH 창동점",
        "distance": 649.9399103943381,
        "walking_time": "약 10분"
      },
      {
        "supermarket_lat": 37.64333589,
        "supermarket_lon": 127.0350214,
        "supermarket_type": "마트",
        "supermarket_name": "(주)에브리데이리테일 창동점",
        "distance": 819.5203783727045,
        "walking_time": "약 13분"
      },
      {
        "supermarket_lat": 37.64333589,
        "supermarket_lon": 127.0350214,
        "supermarket_type": "마트",
        "supermarket_name": "(주)이마트에브리데이 창동점",
        "distance": 819.5203783727045,
        "walking_time": "약 13분"
      },
      {
        "supermarket_lat": 37.64333589,
        "supermarket_lon": 127.0350214,
        "supermarket_type": "마트",
        "supermarket_name": "(주)에브리데이리테일 창동점",
        "distance": 819.5203783727045,
        "walking_time": "약 13분"
      },
      {
        "supermarket_lat": 37.64260638,
        "supermarket_lon": 127.0373306,
        "supermarket_type": "마트",
        "supermarket_name": "대우상가",
        "distance": 922.9527000414204,
        "walking_time": "약 14분"
      },
      {
        "supermarket_lat": 37.65909265,
        "supermarket_lon": 127.0353085,
        "supermarket_type": "마트",
        "supermarket_name": "롯데슈퍼 쌍문점",
        "distance": 932.8539141243758,
        "walking_time": "약 14분"
      },
      {
        "supermarket_lat": 37.65163612,
        "supermarket_lon": 127.0466993,
        "supermarket_type": "마트",
        "supermarket_name": "(주) 이마트 창동점",
        "distance": 1031.7166866904008,
        "walking_time": "약 16분"
      },
      {
        "supermarket_lat": 37.64003977,
        "supermarket_lon": 127.0372354,
        "supermarket_type": "마트",
        "supermarket_name": "삼익쇼핑",
        "distance": 1201.6879348314085,
        "walking_time": "약 18분"
      },
      {
        "supermarket_lat": 37.66141801,
        "supermarket_lon": 127.038134,
        "supermarket_type": "마트",
        "supermarket_name": "금강아미움쇼핑센터",
        "distance": 1221.8788013195028,
        "walking_time": "약 19분"
      }
    ],
    "theater": [
      {
        "theater_lat": 37.6546022496976,
        "theater_lon": 127.038732219793,
        "theater_type": "영화관",
        "theater_name": "메가박스 창동",
        "distance": 541.6591844375749,
        "walking_time": "약 9분"
      },
      {
        "theater_lat": 37.6424075100379,
        "theater_lon": 127.029806166339,
        "theater_type": "영화관",
        "theater_name": "CGV 수유",
        "distance": 1031.384708031438,
        "walking_time": "약 16분"
      }
    ]
  }
}