{
  "클러스터_위도": 37.56076350000678,
  "클러스터_경도": 127.04109049995166,
  "클러스터_level": 3.0,
  "facilities": {
    "bus": [
      {
        "bus_lat": 37.5609241,
        "bus_lon": 127.0414132,
        "bus_type": "버스정류장",
        "bus_name": "한양대부속고등학교",
        "distance": 33.58552049707908,
        "walking_time": "약 1분"
      },
      {
        "bus_lat": 37.56038812,
        "bus_lon": 127.0411546,
        "bus_type": "버스정류장",
        "bus_name": "한양대부속고등학교",
        "distance": 42.12102573898552,
        "walking_time": "약 1분"
      },
      {
        "bus_lat": 37.56024458,
        "bus_lon": 127.0419242,
        "bus_type": "버스정류장",
        "bus_name": "한양지구대",
        "distance": 93.43308978960124,
        "walking_time": "약 2분"
      },
      {
        "bus_lat": 37.56021435,
        "bus_lon": 127.0420211,
        "bus_type": "버스정류장",
        "bus_name": "한양지구대",
        "distance": 102.26073056345676,
        "walking_time": "약 2분"
      },
      {
        "bus_lat": 37.56000511,
        "bus_lon": 127.0419652,
        "bus_type": "버스정류장",
        "bus_name": "한양대병원후문",
        "distance": 114.26260222499742,
        "walking_time": "약 2분"
      },
      {
        "bus_lat": 37.56215772,
        "bus_lon": 127.0415812,
        "bus_type": "버스정류장",
        "bus_name": "마장동금호아파트",
        "distance": 160.9506970085503,
        "walking_time": "약 3분"
      },
      {
        "bus_lat": 37.55933134,
        "bus_lon": 127.042131,
        "bus_type": "버스정류장",
        "bus_name": "한양대학교제2의학관",
        "distance": 183.7716151215529,
        "walking_time": "약 3분"
      },
      {
        "bus_lat": 37.5585824,
        "bus_lon": 127.0409668,
        "bus_type": "버스정류장",
        "bus_name": "한양대앞.한양시장",
        "distance": 242.77223917963647,
        "walking_time": "약 4분"
      },
      {
        "bus_lat": 37.55852546,
        "bus_lon": 127.0406535,
        "bus_type": "버스정류장",
        "bus_name": "한양대앞",
        "distance": 251.8222318616121,
        "walking_time": "약 4분"
      },
      {
        "bus_lat": 37.55945161,
        "bus_lon": 127.0435712,
        "bus_type": "버스정류장",
        "bus_name": "한양대학교병원본관1층",
        "distance": 262.8560539257109,
        "walking_time": "약 4분"
      }
    ],
    "community_center": [
      {
        "community_center_lat": 37.56149957,
        "community_center_lon": 127.045326,
        "community_center_type": "주민센터",
        "community_center_name": "사근동 자치회관",
        "distance": 382.20290659359387,
        "walking_time": "약 6분"
      },
      {
        "community_center_lat": 37.55850972,
        "community_center_lon": 127.0361515,
        "community_center_type": "주민센터",
        "community_center_name": "행당제1동 자치회관",
        "distance": 502.33324730353735,
        "walking_time": "약 8분"
      },
      {
        "community_center_lat": 37.56631969,
        "community_center_lon": 127.0454073,
        "community_center_type": "주민센터",
        "community_center_name": "마장동 자치회관",
        "distance": 725.5856764231745,
        "walking_time": "약 11분"
      },
      {
        "community_center_lat": 37.56108275,
        "community_center_lon": 127.030513,
        "community_center_type": "주민센터",
        "community_center_name": "왕십리제2동 자치회관",
        "distance": 933.0276009121958,
        "walking_time": "약 14분"
      },
      {
        "community_center_lat": 37.55313923,
        "community_center_lon": 127.0334024,
        "community_center_type": "주민센터",
        "community_center_name": "응봉동 자치회관",
        "distance": 1085.3625200359447,
        "walking_time": "약 17분"
      },
      {
        "community_center_lat": 37.56406781,
        "community_center_lon": 127.0555683,
        "community_center_type": "주민센터",
        "community_center_name": "용답동 자치회관",
        "distance": 1327.9593151817191,
        "walking_time": "약 20분"
      },
      {
        "community_center_lat": 37.57182309,
        "community_center_lon": 127.0512749,
        "community_center_type": "주민센터",
        "community_center_name": "답십리1동 자치회관",
        "distance": 1522.526927956661,
        "walking_time": "약 23분"
      },
      {
        "community_center_lat": 37.57580011,
        "community_center_lon": 127.0372752,
        "community_center_type": "주민센터",
        "community_center_name": "용신동 자치회관",
        "distance": 1705.4738651186103,
        "walking_time": "약 26분"
      },
      {
        "community_center_lat": 37.57797071,
        "community_center_lon": 127.0477271,
        "community_center_type": "주민센터",
        "community_center_name": "전농1동 자치회관",
        "distance": 2000.762775389704,
        "walking_time": "약 30분"
      }
    ],
    "convenience_store": [
      {
        "convenience_store_lat": 37.56107408,
        "convenience_store_lon": 127.0412471,
        "convenience_store_type": "편의점",
        "convenience_store_name": "GS25 한양중앙점",
        "distance": 37.191355483445314,
        "walking_time": "약 1분"
      },
      {
        "convenience_store_lat": 37.55990528,
        "convenience_store_lon": 127.0408244,
        "convenience_store_type": "편의점",
        "convenience_store_name": "GS25 한양제일점",
        "distance": 98.26999156882532,
        "walking_time": "약 2분"
      },
      {
        "convenience_store_lat": 37.56118395,
        "convenience_store_lon": 127.0400965,
        "convenience_store_type": "편의점",
        "convenience_store_name": "세븐일레븐 행당미르점",
        "distance": 99.3090525435014,
        "walking_time": "약 2분"
      },
      {
        "convenience_store_lat": 37.56012532,
        "convenience_store_lon": 127.0402389,
        "convenience_store_type": "편의점",
        "convenience_store_name": "세븐일레븐 한양본점",
        "distance": 103.29742000125188,
        "walking_time": "약 2분"
      },
      {
        "convenience_store_lat": 37.56021392,
        "convenience_store_lon": 127.0422122,
        "convenience_store_type": "편의점",
        "convenience_store_name": "GS25 한양대후문점",
        "distance": 116.2337933855692,
        "walking_time": "약 2분"
      },
      {
        "convenience_store_lat": 37.55948082,
        "convenience_store_lon": 127.0413463,
        "convenience_store_type": "편의점",
        "convenience_store_name": "세븐일레븐 한양대학교병원점",
        "distance": 144.39877085868395,
        "walking_time": "약 3분"
      },
      {
        "convenience_store_lat": 37.5616983,
        "convenience_store_lon": 127.0393856,
        "convenience_store_type": "편의점",
        "convenience_store_name": "미니스톱 한양대학사점",
        "distance": 182.72355427277208,
        "walking_time": "약 3분"
      },
      {
        "convenience_store_lat": 37.55893703,
        "convenience_store_lon": 127.0406644,
        "convenience_store_type": "편의점",
        "convenience_store_name": "세븐일레븐 한양제일점",
        "distance": 206.5379768597801,
        "walking_time": "약 4분"
      },
      {
        "convenience_store_lat": 37.56046186,
        "convenience_store_lon": 127.0434883,
        "convenience_store_type": "편의점",
        "convenience_store_name": "세븐일레븐 한양대학교병원점",
        "distance": 213.9994094716509,
        "walking_time": "약 4분"
      },
      {
        "convenience_store_lat": 37.56277056,
        "convenience_store_lon": 127.0415294,
        "convenience_store_type": "편의점",
        "convenience_store_name": "GS25 마장어울림점",
        "distance": 226.5031204455562,
        "walking_time": "약 4분"
      }
    ],
    "daycare": [
      {
        "daycare_lat": 37.55944771,
        "daycare_lon": 127.0413251,
        "daycare_type": "어린이집",
        "daycare_name": "한양어린이복지쎈터부속어린이집",
        "distance": 147.7633096099522,
        "walking_time": "약 3분"
      },
      {
        "daycare_lat": 37.56095057,
        "daycare_lon": 127.043403,
        "daycare_type": "어린이집",
        "daycare_name": "에덴어린이집",
        "distance": 204.8937542828465,
        "walking_time": "약 4분"
      },
      {
        "daycare_lat": 37.56007991,
        "daycare_lon": 127.0374087,
        "daycare_type": "어린이집",
        "daycare_name": "예담어린이집",
        "distance": 333.3166745757342,
        "walking_time": "약 5분"
      },
      {
        "daycare_lat": 37.5636135,
        "daycare_lon": 127.0396961,
        "daycare_type": "어린이집",
        "daycare_name": "솔아어린이집",
        "distance": 339.9047955088558,
        "walking_time": "약 6분"
      },
      {
        "daycare_lat": 37.56105772,
        "daycare_lon": 127.0455332,
        "daycare_type": "어린이집",
        "daycare_name": "구립 사근다솜어린이집",
        "distance": 392.9653709175293,
        "walking_time": "약 6분"
      },
      {
        "daycare_lat": 37.55707596986649,
        "daycare_lon": 127.04002802387969,
        "daycare_type": "어린이집",
        "daycare_name": "구립 서울숲더샵어린이집",
        "distance": 420.5942664974699,
        "walking_time": "약 7분"
      },
      {
        "daycare_lat": 37.56236558379405,
        "daycare_lon": 127.03645438119608,
        "daycare_type": "어린이집",
        "daycare_name": "구립 왕십리어린이집",
        "distance": 445.788112411805,
        "walking_time": "약 7분"
      },
      {
        "daycare_lat": 37.55757773206525,
        "daycare_lon": 127.03757009709103,
        "daycare_type": "어린이집",
        "daycare_name": "구립 행당방과후교실어린이집",
        "distance": 470.9360771970366,
        "walking_time": "약 8분"
      },
      {
        "daycare_lat": 37.55889657,
        "daycare_lon": 127.0361608,
        "daycare_type": "어린이집",
        "daycare_name": "한양대학교 한양어린이집",
        "distance": 481.5752286610916,
        "walking_time": "약 8분"
      },
      {
        "daycare_lat": 37.55849856,
        "daycare_lon": 127.0360811,
        "daycare_type": "어린이집",
        "daycare_name": "구립 은행어린이집",
        "distance": 508.33447691357856,
        "walking_time": "약 8분"
      }
    ],
    "education": [
      {
        "education_lat": 37.56144175,
        "education_lon": 127.0383942,
        "education_type": "미술관/갤러리",
        "education_name": "갤러리 허브",
        "distance": 249.34356645401243,
        "walking_time": "약 4분"
      },
      {
        "education_lat": 37.55930723,
        "education_lon": 127.0360064,
        "education_type": "문화예술회관",
        "education_name": "소월아트홀",
        "distance": 476.5007731584207,
        "walking_time": "약 8분"
      },
      {
        "education_lat": 37.55917988,
        "education_lon": 127.0349607,
        "education_type": "도서관",
        "education_name": "성동구립도서관",
        "distance": 568.2873169805258,
        "walking_time": "약 9분"
      },
      {
        "education_lat": 37.55791759,
        "education_lon": 127.0493219,
        "education_type": "미술관/갤러리",
        "education_name": "한양여자대학교 미술관",
        "distance": 791.5769954488571,
        "walking_time": "약 12분"
      },
      {
        "education_lat": 37.55450355,
        "education_lon": 127.0466112,
        "education_type": "박물관/기념관",
        "education_name": "한양대학교 박물관",
        "distance": 849.3180124612423,
        "walking_time": "약 13분"
      },
      {
        "education_lat": 37.56669993,
        "education_lon": 127.0513042,
        "education_type": "도서관",
        "education_name": "성동구립용답도서관",
        "distance": 1116.3266039712985,
        "walking_time": "약 17분"
      },
      {
        "education_lat": 37.57126617,
        "education_lon": 127.0350432,
        "education_type": "박물관/기념관",
        "education_name": "청계천박물관 ",
        "distance": 1283.7249300718736,
        "walking_time": "약 20분"
      },
      {
        "education_lat": 37.57230934363784,
        "education_lon": 127.0301562,
        "education_type": "도서관",
        "education_name": "용두어울림작은도서관",
        "distance": 1605.3092300341038,
        "walking_time": "약 24분"
      },
      {
        "education_lat": 37.573193,
        "education_lon": 127.0503603,
        "education_type": "도서관",
        "education_name": "동대문구답십리도서관",
        "distance": 1605.5256129866725,
        "walking_time": "약 24분"
      },
      {
        "education_lat": 37.57610447,
        "education_lon": 127.0303279,
        "education_type": "도서관",
        "education_name": "용두어린이영어도서관",
        "distance": 1951.838167408573,
        "walking_time": "약 30분"
      }
    ],
    "electric_gas_station": [
      {
        "electric_gas_station_lat": 37.56581702,
        "electric_gas_station_lon": 127.0461132,
        "electric_gas_station_type": "전기차 충전소",
        "electric_gas_station_name": "마장동사무소 앞(공중전화부스)",
        "distance": 715.3695824946323,
        "walking_time": "약 11분"
      }
    ],
    "fitness": [
      {
        "fitness_lat": 37.5603733,
        "fitness_lon": 127.0414749,
        "fitness_type": "운동시설",
        "fitness_name": "에이블짐 한양대점",
        "distance": 55.05090138449224,
        "walking_time": "약 1분"
      },
      {
        "fitness_lat": 37.56144175,
        "fitness_lon": 127.0383942,
        "fitness_type": "운동시설",
        "fitness_name": "포시즌 휘트니스",
        "distance": 249.34356645401243,
        "walking_time": "약 4분"
      },
      {
        "fitness_lat": 37.55804427,
        "fitness_lon": 127.038691,
        "fitness_type": "운동시설",
        "fitness_name": "레이 휘트니스",
        "distance": 368.998524842901,
        "walking_time": "약 6분"
      },
      {
        "fitness_lat": 37.55989138,
        "fitness_lon": 127.0367759,
        "fitness_type": "운동시설",
        "fitness_name": "알엑스 퍼스널 트레이닝",
        "distance": 392.4818598628432,
        "walking_time": "약 6분"
      },
      {
        "fitness_lat": 37.55703467,
        "fitness_lon": 127.0424581,
        "fitness_type": "운동시설",
        "fitness_name": "파크짐 한양대점",
        "distance": 431.7961016002867,
        "walking_time": "약 7분"
      },
      {
        "fitness_lat": 37.56535724,
        "fitness_lon": 127.0412598,
        "fitness_type": "운동시설",
        "fitness_name": "리커버리PT",
        "distance": 511.0185075575272,
        "walking_time": "약 8분"
      },
      {
        "fitness_lat": 37.56258209,
        "fitness_lon": 127.0356991,
        "fitness_type": "운동시설",
        "fitness_name": "PT STUDIO RE ' ON",
        "distance": 516.4547402934965,
        "walking_time": "약 8분"
      },
      {
        "fitness_lat": 37.5582207,
        "fitness_lon": 127.0354825,
        "fitness_type": "운동시설",
        "fitness_name": "업타운휘트니스 왕십리점",
        "distance": 569.4765229256026,
        "walking_time": "약 9분"
      },
      {
        "fitness_lat": 37.56585228,
        "fitness_lon": 127.0419391,
        "fitness_type": "운동시설",
        "fitness_name": "굿타임 PT",
        "distance": 570.7687108147818,
        "walking_time": "약 9분"
      },
      {
        "fitness_lat": 37.5613777,
        "fitness_lon": 127.0345826,
        "fitness_type": "운동시설",
        "fitness_name": "파크짐",
        "distance": 577.6879396610508,
        "walking_time": "약 9분"
      }
    ],
    "gas_station": [
      {
        "gas_station_lat": 37.56412831,
        "gas_station_lon": 127.0359201,
        "gas_station_type": "주유소",
        "gas_station_name": "아이콘주유소",
        "distance": 589.6458645947588,
        "walking_time": "약 9분"
      },
      {
        "gas_station_lat": 37.56701689,
        "gas_station_lon": 127.0437206,
        "gas_station_type": "주유소",
        "gas_station_name": "현대오일뱅크㈜ 성동셀프주유소",
        "distance": 732.9705015308768,
        "walking_time": "약 11분"
      },
      {
        "gas_station_lat": 37.56720205,
        "gas_station_lon": 127.0365374,
        "gas_station_type": "주유소",
        "gas_station_name": "정호주유소",
        "distance": 820.741119877534,
        "walking_time": "약 13분"
      },
      {
        "gas_station_lat": 37.57052365,
        "gas_station_lon": 127.0380038,
        "gas_station_type": "주유소",
        "gas_station_name": "경진주유소",
        "distance": 1118.859774911332,
        "walking_time": "약 17분"
      },
      {
        "gas_station_lat": 37.56423394,
        "gas_station_lon": 127.0555933,
        "gas_station_type": "주유소",
        "gas_station_name": "㈜ 서울에너지",
        "distance": 1335.296634188743,
        "walking_time": "약 20분"
      },
      {
        "gas_station_lat": 37.55086023,
        "gas_station_lon": 127.0504365,
        "gas_station_type": "주유소",
        "gas_station_name": "세원주유소",
        "distance": 1375.2705832310878,
        "walking_time": "약 21분"
      },
      {
        "gas_station_lat": 37.57586502,
        "gas_station_lon": 127.0377188,
        "gas_station_type": "주유소",
        "gas_station_name": "대성산업㈜동마장 주유소",
        "distance": 1705.304491063624,
        "walking_time": "약 26분"
      },
      {
        "gas_station_lat": 37.5759083,
        "gas_station_lon": 127.0556315,
        "gas_station_type": "주유소",
        "gas_station_name": "㈜재건에너지 재정제2주유소",
        "distance": 2116.224019758059,
        "walking_time": "약 32분"
      },
      {
        "gas_station_lat": 37.57577532,
        "gas_station_lon": 127.0574925,
        "gas_station_type": "주유소",
        "gas_station_name": "재정주유소",
        "distance": 2208.1987887644364,
        "walking_time": "약 33분"
      },
      {
        "gas_station_lat": 37.57754919,
        "gas_station_lon": 127.059335,
        "gas_station_type": "주유소",
        "gas_station_name": "동일석유㈜강남주유소",
        "distance": 2463.607747683857,
        "walking_time": "약 37분"
      }
    ],
    "hospital": [
      {
        "hospital_lat": 37.5603733,
        "hospital_lon": 127.0414749,
        "hospital_type": "병원",
        "hospital_name": "신한철치과의원",
        "distance": 55.05090138449224,
        "walking_time": "약 1분"
      },
      {
        "hospital_lat": 37.56006048,
        "hospital_lon": 127.0409333,
        "hospital_type": "병원",
        "hospital_name": "삼기당한의원",
        "distance": 79.39082697404838,
        "walking_time": "약 2분"
      },
      {
        "hospital_lat": 37.56006048,
        "hospital_lon": 127.0409333,
        "hospital_type": "병원",
        "hospital_name": "나음치과의원",
        "distance": 79.39082697404838,
        "walking_time": "약 2분"
      },
      {
        "hospital_lat": 37.56006048,
        "hospital_lon": 127.0409333,
        "hospital_type": "병원",
        "hospital_name": "최대홍내과의원",
        "distance": 79.39082697404838,
        "walking_time": "약 2분"
      },
      {
        "hospital_lat": 37.56014435,
        "hospital_lon": 127.0420161,
        "hospital_type": "병원",
        "hospital_name": "김태화엔도내과의원",
        "distance": 106.75354497230482,
        "walking_time": "약 2분"
      },
      {
        "hospital_lat": 37.56144175,
        "hospital_lon": 127.0383942,
        "hospital_type": "병원",
        "hospital_name": "365다움의원",
        "distance": 249.34356645401243,
        "walking_time": "약 4분"
      },
      {
        "hospital_lat": 37.56144175,
        "hospital_lon": 127.0383942,
        "hospital_type": "병원",
        "hospital_name": "서울미래치과의원",
        "distance": 249.34356645401243,
        "walking_time": "약 4분"
      },
      {
        "hospital_lat": 37.56329273,
        "hospital_lon": 127.0419338,
        "hospital_type": "병원",
        "hospital_name": "우리가정의원",
        "distance": 290.8946882926997,
        "walking_time": "약 5분"
      },
      {
        "hospital_lat": 37.55860571,
        "hospital_lon": 127.0374791,
        "hospital_type": "병원",
        "hospital_name": "9988병원",
        "distance": 398.6275610898461,
        "walking_time": "약 6분"
      },
      {
        "hospital_lat": 37.56104051,
        "hospital_lon": 127.0365128,
        "hospital_type": "병원",
        "hospital_name": "동화한의원",
        "distance": 404.6747090416105,
        "walking_time": "약 7분"
      }
    ],
    "music_room": [
      {
        "music_room_lat": 37.56015679,
        "music_room_lon": 127.0404237,
        "music_room_type": "노래방",
        "music_room_name": "방가방가노래연습장",
        "distance": 89.47517572037832,
        "walking_time": "약 2분"
      },
      {
        "music_room_lat": 37.56012532,
        "music_room_lon": 127.0402389,
        "music_room_type": "노래방",
        "music_room_name": "짱노래연습장",
        "distance": 103.29742000125188,
        "walking_time": "약 2분"
      },
      {
        "music_room_lat": 37.55993646,
        "music_room_lon": 127.0405395,
        "music_room_type": "노래방",
        "music_room_name": "고래고래 코인노래연습장",
        "distance": 103.9999868402089,
        "walking_time": "약 2분"
      },
      {
        "music_room_lat": 37.55984269,
        "music_room_lon": 127.0407361,
        "music_room_type": "노래방",
        "music_room_name": "악쓰는 하마 코인노래연습장",
        "distance": 107.0488266238372,
        "walking_time": "약 2분"
      },
      {
        "music_room_lat": 37.55974964,
        "music_room_lon": 127.0406729,
        "music_room_type": "노래방",
        "music_room_name": "파티파티노래연습장",
        "distance": 118.59331003773868,
        "walking_time": "약 2분"
      },
      {
        "music_room_lat": 37.5597853,
        "music_room_lon": 127.0404768,
        "music_room_type": "노래방",
        "music_room_name": "리코스타 코인노래연습장 한양대2호점",
        "distance": 121.47990805078084,
        "walking_time": "약 2분"
      },
      {
        "music_room_lat": 37.55977336,
        "music_room_lon": 127.0400579,
        "music_room_type": "노래방",
        "music_room_name": "리코스타 코인노래연습장",
        "distance": 142.85018969660788,
        "walking_time": "약 3분"
      },
      {
        "music_room_lat": 37.56088406,
        "music_room_lon": 127.0394258,
        "music_room_type": "노래방",
        "music_room_name": "왕십리노래연습장",
        "distance": 147.34600263116698,
        "walking_time": "약 3분"
      },
      {
        "music_room_lat": 37.55926746,
        "music_room_lon": 127.0403069,
        "music_room_type": "노래방",
        "music_room_name": "슈퍼스타코인노래연습장",
        "distance": 180.1217060471218,
        "walking_time": "약 3분"
      },
      {
        "music_room_lat": 37.55928472,
        "music_room_lon": 127.0398992,
        "music_room_type": "노래방",
        "music_room_name": "킹노래방",
        "distance": 195.1022330021699,
        "walking_time": "약 3분"
      }
    ],
    "park": [
      {
        "park_lat": 37.5732791,
        "park_lon": 127.0390042,
        "park_type": "공원",
        "park_name": "용두근린공원",
        "distance": 1403.7667923615777,
        "walking_time": "약 21분"
      },
      {
        "park_lat": 37.5732438,
        "park_lon": 127.0488644,
        "park_type": "공원",
        "park_name": "간데메근린공원",
        "distance": 1547.676146111383,
        "walking_time": "약 24분"
      }
    ],
    "park_station": [
      {
        "park_station_lat": 37.56002837,
        "park_station_lon": 127.0394603,
        "park_station_type": "주차장",
        "park_station_name": "공유) 05-05",
        "distance": 165.31802397302525,
        "walking_time": "약 3분"
      },
      {
        "park_station_lat": 37.55845128,
        "park_station_lon": 127.0393965,
        "park_station_type": "주차장",
        "park_station_name": "공유) 05-04",
        "distance": 297.3222800702686,
        "walking_time": "약 5분"
      },
      {
        "park_station_lat": 37.56328819,
        "park_station_lon": 127.0396838,
        "park_station_type": "주차장",
        "park_station_name": "공유) 04-22",
        "distance": 306.8953454734745,
        "walking_time": "약 5분"
      },
      {
        "park_station_lat": 37.55696917,
        "park_station_lon": 127.0421935,
        "park_station_type": "주차장",
        "park_station_name": "동우주차장",
        "distance": 432.9679413597715,
        "walking_time": "약 7분"
      },
      {
        "park_station_lat": 37.56476891,
        "park_station_lon": 127.0419736,
        "park_station_type": "주차장",
        "park_station_name": "공유) 04-20",
        "distance": 452.1320080765222,
        "walking_time": "약 7분"
      },
      {
        "park_station_lat": 37.55852837,
        "park_station_lon": 127.0361349,
        "park_station_type": "주차장",
        "park_station_name": "공유) 06-02",
        "distance": 502.57309453436494,
        "walking_time": "약 8분"
      },
      {
        "park_station_lat": 37.56491064,
        "park_station_lon": 127.0387947,
        "park_station_type": "주차장",
        "park_station_name": "공유) 04-49",
        "distance": 503.5867372804217,
        "walking_time": "약 8분"
      },
      {
        "park_station_lat": 37.56533783,
        "park_station_lon": 127.0411006,
        "park_station_type": "주차장",
        "park_station_name": "마장동거주자우선주차장",
        "distance": 508.643067108374,
        "walking_time": "약 8분"
      },
      {
        "park_station_lat": 37.56535317,
        "park_station_lon": 127.0423033,
        "park_station_type": "주차장",
        "park_station_name": "공유) 04-19",
        "distance": 521.4235288189791,
        "walking_time": "약 8분"
      },
      {
        "park_station_lat": 37.56471181,
        "park_station_lon": 127.0373261,
        "park_station_type": "주차장",
        "park_station_name": "공유) 06-22",
        "distance": 550.3119649628383,
        "walking_time": "약 9분"
      }
    ],
    "pc_room": [
      {
        "pc_room_lat": 37.5599355242388,
        "pc_room_lon": 127.040381543832,
        "pc_room_type": "PC방",
        "pc_room_name": "TEN PC방",
        "distance": 111.27192506749266,
        "walking_time": "약 2분"
      },
      {
        "pc_room_lat": 37.5597496386723,
        "pc_room_lon": 127.040672881648,
        "pc_room_type": "PC방",
        "pc_room_name": "CYBER ZONE",
        "distance": 118.59395248391913,
        "walking_time": "약 2분"
      },
      {
        "pc_room_lat": 37.5602780838591,
        "pc_room_lon": 127.039581541457,
        "pc_room_type": "PC방",
        "pc_room_name": "도깨비 PC방",
        "distance": 143.5423847866805,
        "walking_time": "약 3분"
      },
      {
        "pc_room_lat": 37.5595557237992,
        "pc_room_lon": 127.040469845279,
        "pc_room_type": "PC방",
        "pc_room_name": "비원(BONE) PC",
        "distance": 145.01407882910965,
        "walking_time": "약 3분"
      },
      {
        "pc_room_lat": 37.5595557237992,
        "pc_room_lon": 127.040469845279,
        "pc_room_type": "PC방",
        "pc_room_name": "본스PC방 (BON'S PC)",
        "distance": 145.01407882910965,
        "walking_time": "약 3분"
      },
      {
        "pc_room_lat": 37.55928471794,
        "pc_room_lon": 127.03989916258,
        "pc_room_type": "PC방",
        "pc_room_name": "도깨비PC방Ⅱ",
        "distance": 195.1042013547613,
        "walking_time": "약 3분"
      },
      {
        "pc_room_lat": 37.5589370324066,
        "pc_room_lon": 127.040664404256,
        "pc_room_type": "PC방",
        "pc_room_name": "3POP PC2(쓰리팝 PC2)",
        "distance": 206.5376454999632,
        "walking_time": "약 4분"
      },
      {
        "pc_room_lat": 37.5587090278115,
        "pc_room_lon": 127.040554610589,
        "pc_room_type": "PC방",
        "pc_room_name": "G PLUS PC방",
        "distance": 233.2794010023005,
        "walking_time": "약 4분"
      },
      {
        "pc_room_lat": 37.5585875213707,
        "pc_room_lon": 127.040443630196,
        "pc_room_type": "PC방",
        "pc_room_name": "레벨업(LEVEL UP)PC CAFE",
        "distance": 248.58551283329024,
        "walking_time": "약 4분"
      },
      {
        "pc_room_lat": 37.5579403096281,
        "pc_room_lon": 127.041298107188,
        "pc_room_type": "PC방",
        "pc_room_name": "아이닉스 PC",
        "distance": 314.4573811006611,
        "walking_time": "약 5분"
      }
    ],
    "police_office": [
      {
        "police_office_lat": 37.56030192,
        "police_office_lon": 127.0417943,
        "police_office_type": "경찰소",
        "police_office_name": "한양지구대",
        "distance": 80.51608662397292,
        "walking_time": "약 2분"
      },
      {
        "police_office_lat": 37.5666689,
        "police_office_lon": 127.0326584,
        "police_office_type": "경찰소",
        "police_office_name": "왕십리파출소",
        "distance": 991.747573772893,
        "walking_time": "약 15분"
      },
      {
        "police_office_lat": 37.56478214,
        "police_office_lon": 127.0517587,
        "police_office_type": "경찰소",
        "police_office_name": "용답파출소",
        "distance": 1041.0980832174089,
        "walking_time": "약 16분"
      },
      {
        "police_office_lat": 37.57284342,
        "police_office_lon": 127.037209,
        "police_office_type": "경찰소",
        "police_office_name": "용신지구대",
        "distance": 1386.1071110134503,
        "walking_time": "약 21분"
      },
      {
        "police_office_lat": 37.5712943,
        "police_office_lon": 127.0510676,
        "police_office_type": "경찰소",
        "police_office_name": "답십리지구대",
        "distance": 1464.3992785806452,
        "walking_time": "약 22분"
      },
      {
        "police_office_lat": 37.57612945,
        "police_office_lon": 127.0479381,
        "police_office_type": "경찰소",
        "police_office_name": "전농1파출소",
        "distance": 1812.071610111861,
        "walking_time": "약 28분"
      }
    ],
    "post_office": [
      {
        "post_office_lat": 37.56086752,
        "post_office_lon": 127.0346966,
        "post_office_type": "우체국",
        "post_office_name": "서울성동우체국",
        "distance": 563.708778390155,
        "walking_time": "약 9분"
      },
      {
        "post_office_lat": 37.55450355,
        "post_office_lon": 127.0466112,
        "post_office_type": "우체국",
        "post_office_name": "서울한양대학교우체국",
        "distance": 849.3180124612423,
        "walking_time": "약 13분"
      },
      {
        "post_office_lat": 37.55386173,
        "post_office_lon": 127.0340559,
        "post_office_type": "우체국",
        "post_office_name": "서울대림아파트우편취급국",
        "distance": 986.6525064994288,
        "walking_time": "약 15분"
      },
      {
        "post_office_lat": 37.56646978,
        "post_office_lon": 127.0313313,
        "post_office_type": "우체국",
        "post_office_name": "서울왕십리우체국",
        "distance": 1068.893103045598,
        "walking_time": "약 16분"
      },
      {
        "post_office_lat": 37.570893,
        "post_office_lon": 127.0381863,
        "post_office_type": "우체국",
        "post_office_name": "서울마장동우체국",
        "distance": 1155.0690295668012,
        "walking_time": "약 18분"
      },
      {
        "post_office_lat": 37.56961978,
        "post_office_lon": 127.0515122,
        "post_office_type": "우체국",
        "post_office_name": "서울답십리우편취급국",
        "distance": 1346.678498208205,
        "walking_time": "약 21분"
      },
      {
        "post_office_lat": 37.57718679,
        "post_office_lon": 127.0362385,
        "post_office_type": "우체국",
        "post_office_name": "서울용두1동우편취급국",
        "distance": 1875.5870571355963,
        "walking_time": "약 28분"
      },
      {
        "post_office_lat": 37.5767537,
        "post_office_lon": 127.0575286,
        "post_office_type": "우체국",
        "post_office_name": "서울전농동우체국",
        "distance": 2293.5463284130064,
        "walking_time": "약 35분"
      }
    ],
    "public_health_center": [
      {
        "public_health_center_lat": 37.56708005,
        "public_health_center_lon": 127.0332143,
        "public_health_center_type": "보건소",
        "public_health_center_name": "성동구보건소",
        "distance": 987.5527785242142,
        "walking_time": "약 15분"
      },
      {
        "public_health_center_lat": 37.57439172,
        "public_health_center_lon": 127.0398966,
        "public_health_center_type": "보건소",
        "public_health_center_name": "동대문구청",
        "distance": 1519.0379352618245,
        "walking_time": "약 23분"
      }
    ],
    "school": [
      {
        "school_lat": 37.5619188387132,
        "school_lon": 127.042324044658,
        "school_type": "고등학교",
        "school_name": "한양대학교사범대학부속고등학교",
        "distance": 168.30385378420362,
        "walking_time": "약 3분"
      },
      {
        "school_lat": 37.5619188387132,
        "school_lon": 127.042324044658,
        "school_type": "중학교",
        "school_name": "한양대학교사범대학부속중학교",
        "distance": 168.30385378420362,
        "walking_time": "약 3분"
      },
      {
        "school_lat": 37.5628025060626,
        "school_lon": 127.040351173206,
        "school_type": "중학교",
        "school_name": "동마중학교",
        "distance": 235.90663402170028,
        "walking_time": "약 4분"
      },
      {
        "school_lat": 37.5626797138007,
        "school_lon": 127.047573849243,
        "school_type": "초등학교",
        "school_name": "서울사근초등학교",
        "distance": 609.8979409071221,
        "walking_time": "약 10분"
      },
      {
        "school_lat": 37.5552642216916,
        "school_lon": 127.041141809583,
        "school_type": "고등학교",
        "school_name": "서울온라인학교",
        "distance": 611.5085751154926,
        "walking_time": "약 10분"
      },
      {
        "school_lat": 37.5570191301189,
        "school_lon": 127.034873404864,
        "school_type": "초등학교",
        "school_name": "서울행당초등학교",
        "distance": 688.242056260537,
        "walking_time": "약 11분"
      },
      {
        "school_lat": 37.5545540364985,
        "school_lon": 127.041963387397,
        "school_type": "중학교",
        "school_name": "행당중학교",
        "distance": 694.7348656808853,
        "walking_time": "약 11분"
      },
      {
        "school_lat": 37.5576263308862,
        "school_lon": 127.033880902274,
        "school_type": "고등학교",
        "school_name": "무학여자고등학교",
        "distance": 724.9498238325929,
        "walking_time": "약 11분"
      },
      {
        "school_lat": 37.5683388716972,
        "school_lon": 127.041605053834,
        "school_type": "중학교",
        "school_name": "마장중학교",
        "distance": 843.5629557620755,
        "walking_time": "약 13분"
      },
      {
        "school_lat": 37.5683388716972,
        "school_lon": 127.041605053834,
        "school_type": "초등학교",
        "school_name": "서울마장초등학교",
        "distance": 843.5629557620755,
        "walking_time": "약 13분"
      }
    ],
    "self_laundromat": [
      {
        "self_laundromat_lat": 37.56143095,
        "self_laundromat_lon": 127.0410405,
        "self_laundromat_type": "셀프 빨래방",
        "self_laundromat_name": "크린토피아 코인워시 왕십리역점",
        "distance": 74.34779495727025,
        "walking_time": "약 2분"
      },
      {
        "self_laundromat_lat": 37.56143095,
        "self_laundromat_lon": 127.0410405,
        "self_laundromat_type": "셀프 빨래방",
        "self_laundromat_name": "크린토피아 코인워시 왕십리역점",
        "distance": 74.34779495727025,
        "walking_time": "약 2분"
      },
      {
        "self_laundromat_lat": 37.56117724,
        "self_laundromat_lon": 127.0402231,
        "self_laundromat_type": "셀프 빨래방",
        "self_laundromat_name": "코인워시24 한양대점",
        "distance": 89.23100344897745,
        "walking_time": "약 2분"
      },
      {
        "self_laundromat_lat": 37.56117724,
        "self_laundromat_lon": 127.0402231,
        "self_laundromat_type": "셀프 빨래방",
        "self_laundromat_name": "코인워시24 한양대점",
        "distance": 89.23100344897745,
        "walking_time": "약 2분"
      },
      {
        "self_laundromat_lat": 37.56106073,
        "self_laundromat_lon": 127.0475318,
        "self_laundromat_type": "셀프 빨래방",
        "self_laundromat_name": "런드리익스프레스샵 한양여대점",
        "distance": 568.7285871390835,
        "walking_time": "약 9분"
      },
      {
        "self_laundromat_lat": 37.56106073,
        "self_laundromat_lon": 127.0475318,
        "self_laundromat_type": "셀프 빨래방",
        "self_laundromat_name": "런드리익스프레스샵 한양여대점",
        "distance": 568.7285871390835,
        "walking_time": "약 9분"
      },
      {
        "self_laundromat_lat": 37.56110966,
        "self_laundromat_lon": 127.0477285,
        "self_laundromat_type": "셀프 빨래방",
        "self_laundromat_name": "화이트365 사근점",
        "distance": 586.3700549201552,
        "walking_time": "약 9분"
      },
      {
        "self_laundromat_lat": 37.56110966,
        "self_laundromat_lon": 127.0477285,
        "self_laundromat_type": "셀프 빨래방",
        "self_laundromat_name": "화이트365 사근점",
        "distance": 586.3700549201552,
        "walking_time": "약 9분"
      },
      {
        "self_laundromat_lat": 37.56124563,
        "self_laundromat_lon": 127.0342104,
        "self_laundromat_type": "셀프 빨래방",
        "self_laundromat_name": "런드리24 펭귄하우스 성동점",
        "distance": 608.8096458249807,
        "walking_time": "약 10분"
      },
      {
        "self_laundromat_lat": 37.56124563,
        "self_laundromat_lon": 127.0342104,
        "self_laundromat_type": "셀프 빨래방",
        "self_laundromat_name": "런드리24 펭귄하우스 성동점",
        "distance": 608.8096458249807,
        "walking_time": "약 10분"
      }
    ],
    "subway": [
      {
        "subway_lat": 37.5612217415191,
        "subway_lon": 127.036655378283,
        "subway_type": "지하철",
        "subway_name": "2호선-왕십리(성동구청)역",
        "distance": 394.2394183825445,
        "walking_time": "약 6분"
      },
      {
        "subway_lat": 37.5612217415191,
        "subway_lon": 127.036655378283,
        "subway_type": "지하철",
        "subway_name": "5호선-왕십리(성동구청)역",
        "distance": 394.2394183825445,
        "walking_time": "약 6분"
      },
      {
        "subway_lat": 37.5657022363224,
        "subway_lon": 127.042757434672,
        "subway_type": "지하철",
        "subway_name": "5호선-마장역",
        "distance": 568.4777482347212,
        "walking_time": "약 9분"
      },
      {
        "subway_lat": 37.55557788354,
        "subway_lon": 127.043584493543,
        "subway_type": "지하철",
        "subway_name": "2호선-한양대역",
        "distance": 617.1012529000237,
        "walking_time": "약 10분"
      },
      {
        "subway_lat": 37.5620049052662,
        "subway_lon": 127.050729309179,
        "subway_type": "지하철",
        "subway_name": "2호선-용답역",
        "distance": 860.7467112841484,
        "walking_time": "약 13분"
      },
      {
        "subway_lat": 37.5699910562183,
        "subway_lon": 127.046820203556,
        "subway_type": "지하철",
        "subway_name": "2호선-신답역",
        "distance": 1143.6050932922328,
        "walking_time": "약 18분"
      },
      {
        "subway_lat": 37.5664458277827,
        "subway_lon": 127.05318095956,
        "subway_type": "지하철",
        "subway_name": "5호선-답십리역",
        "distance": 1238.906335055944,
        "walking_time": "약 19분"
      },
      {
        "subway_lat": 37.5743674429059,
        "subway_lon": 127.037817612866,
        "subway_type": "지하철",
        "subway_name": "2호선-용두(동대문구청)역",
        "distance": 1539.9480080561195,
        "walking_time": "약 23분"
      },
      {
        "subway_lat": 37.5781967284885,
        "subway_lon": 127.034690599752,
        "subway_type": "지하철",
        "subway_name": "1호선-제기동역",
        "distance": 2018.8824542034963,
        "walking_time": "약 31분"
      }
    ],
    "supermarket": [
      {
        "supermarket_lat": 37.56144175,
        "supermarket_lon": 127.0383942,
        "supermarket_type": "마트",
        "supermarket_name": "ENTER-6",
        "distance": 249.34356645401243,
        "walking_time": "약 4분"
      },
      {
        "supermarket_lat": 37.56144175,
        "supermarket_lon": 127.0383942,
        "supermarket_type": "마트",
        "supermarket_name": "(주)이마트 왕십리점",
        "distance": 249.34356645401243,
        "walking_time": "약 4분"
      },
      {
        "supermarket_lat": 37.55713709,
        "supermarket_lon": 127.0401853,
        "supermarket_type": "마트",
        "supermarket_name": "파크에비뉴 엔터식스 한양대점",
        "distance": 411.0569030092411,
        "walking_time": "약 7분"
      },
      {
        "supermarket_lat": 37.5645962,
        "supermarket_lon": 127.0350239,
        "supermarket_type": "마트",
        "supermarket_name": "성동삼성쉐르빌상가",
        "distance": 683.7832177163754,
        "walking_time": "약 11분"
      },
      {
        "supermarket_lat": 37.562724,
        "supermarket_lon": 127.0325711,
        "supermarket_type": "마트",
        "supermarket_name": "홈플러스(주) 익스프레스 왕십리점",
        "distance": 781.9355201389175,
        "walking_time": "약 12분"
      },
      {
        "supermarket_lat": 37.56979398,
        "supermarket_lon": 127.0384065,
        "supermarket_type": "마트",
        "supermarket_name": "마장축산물시장",
        "distance": 1031.6337503238346,
        "walking_time": "약 16분"
      },
      {
        "supermarket_lat": 37.56757575,
        "supermarket_lon": 127.0522092,
        "supermarket_type": "마트",
        "supermarket_name": "동부시장",
        "distance": 1238.6337813528885,
        "walking_time": "약 19분"
      },
      {
        "supermarket_lat": 37.56745985,
        "supermarket_lon": 127.0534875,
        "supermarket_type": "마트",
        "supermarket_name": "이마트에브리데이 답십리점",
        "distance": 1322.2667981092482,
        "walking_time": "약 20분"
      },
      {
        "supermarket_lat": 37.57454832,
        "supermarket_lon": 127.0387678,
        "supermarket_type": "마트",
        "supermarket_name": "홈플러스(주) 동대문점",
        "distance": 1546.4121568672156,
        "walking_time": "약 24분"
      },
      {
        "supermarket_lat": 37.57457267,
        "supermarket_lon": 127.0469013,
        "supermarket_type": "마트",
        "supermarket_name": "전농프라자",
        "distance": 1618.6670595716723,
        "walking_time": "약 25분"
      }
    ],
    "theater": [
      {
        "theater_lat": 37.5614417528647,
        "theater_lon": 127.038394194396,
        "theater_type": "영화관",
        "theater_name": "CGV 왕십리",
        "distance": 249.34413362156985,
        "walking_time": "약 4분"
      }
    ],
    "university": [
      {
        "university_lat": 37.5545035492027,
        "university_lon": 127.046611216789,
        "university_type": "대학교",
        "university_name": "한양대학교",
        "distance": 849.3189330925786,
        "walking_time": "약 13분"
      },
      {
        "university_lat": 37.5545035492027,
        "university_lon": 127.046611216789,
        "university_type": "전문대학교(2년제)",
        "university_name": "한양여자대학교",
        "distance": 849.3189330925786,
        "walking_time": "약 13분"
      }
    ]
  }
}