{
  "클러스터_위도": 37.507235,
  "클러스터_경도": 126.95643499999998,
  "클러스터_level": 3.0,
  "facilities": {
    "bus": [
      {
        "bus_lat": 37.50673852,
        "bus_lon": 126.957288,
        "bus_type": "버스정류장",
        "bus_name": "중앙대중문",
        "distance": 93.32233987092854,
        "walking_time": "약 2분"
      },
      {
        "bus_lat": 37.50664283,
        "bus_lon": 126.9572653,
        "bus_type": "버스정류장",
        "bus_name": "중앙대중문",
        "distance": 98.48747404772617,
        "walking_time": "약 2분"
      },
      {
        "bus_lat": 37.50648935,
        "bus_lon": 126.9573559,
        "bus_type": "버스정류장",
        "bus_name": "중앙대중문",
        "distance": 116.07338178376344,
        "walking_time": "약 2분"
      },
      {
        "bus_lat": 37.50674377,
        "bus_lon": 126.9582233,
        "bus_type": "버스정류장",
        "bus_name": "중앙대정문",
        "distance": 166.93289445720814,
        "walking_time": "약 3분"
      },
      {
        "bus_lat": 37.50680989,
        "bus_lon": 126.9582944,
        "bus_type": "버스정류장",
        "bus_name": "중앙대정문",
        "distance": 170.69090405561138,
        "walking_time": "약 3분"
      },
      {
        "bus_lat": 37.50723139,
        "bus_lon": 126.9591142,
        "bus_type": "버스정류장",
        "bus_name": "중앙대정문",
        "distance": 236.32807246597525,
        "walking_time": "약 4분"
      },
      {
        "bus_lat": 37.50911421,
        "bus_lon": 126.9548037,
        "bus_type": "버스정류장",
        "bus_name": "동양중학교",
        "distance": 253.7099368660597,
        "walking_time": "약 4분"
      },
      {
        "bus_lat": 37.50501298,
        "bus_lon": 126.9539816,
        "bus_type": "버스정류장",
        "bus_name": "중앙대후문",
        "distance": 328.45399058445423,
        "walking_time": "약 5분"
      },
      {
        "bus_lat": 37.50948414,
        "bus_lon": 126.9537175,
        "bus_type": "버스정류장",
        "bus_name": "경동아파트",
        "distance": 346.4156067079058,
        "walking_time": "약 6분"
      },
      {
        "bus_lat": 37.50743565,
        "bus_lon": 126.9603642,
        "bus_type": "버스정류장",
        "bus_name": "중앙대병원",
        "distance": 347.3050486976641,
        "walking_time": "약 6분"
      }
    ],
    "community_center": [
      {
        "community_center_lat": 37.505777,
        "community_center_lon": 126.9665927,
        "community_center_type": "주민센터",
        "community_center_name": "흑석동 자치회관",
        "distance": 910.5514139442412,
        "walking_time": "약 14분"
      },
      {
        "community_center_lat": 37.49810133,
        "community_center_lon": 126.9530811,
        "community_center_type": "주민센터",
        "community_center_name": "상도1동 자치회관",
        "distance": 1057.8339050375455,
        "walking_time": "약 16분"
      },
      {
        "community_center_lat": 37.50546805,
        "community_center_lon": 126.9423012,
        "community_center_type": "주민센터",
        "community_center_name": "상도2동 자치회관",
        "distance": 1262.12009695547,
        "walking_time": "약 19분"
      },
      {
        "community_center_lat": 37.51230121,
        "community_center_lon": 126.9419936,
        "community_center_type": "주민센터",
        "community_center_name": "노량진1동 자치회관",
        "distance": 1392.815918672649,
        "walking_time": "약 21분"
      },
      {
        "community_center_lat": 37.49184717,
        "community_center_lon": 126.9586277,
        "community_center_type": "주민센터",
        "community_center_name": "청림동 자치회관",
        "distance": 1721.947804096633,
        "walking_time": "약 26분"
      }
    ],
    "convenience_store": [
      {
        "convenience_store_lat": 37.50566309,
        "convenience_store_lon": 126.956546,
        "convenience_store_type": "편의점",
        "convenience_store_name": "CU 중대청룡점",
        "distance": 175.06244280659982,
        "walking_time": "약 3분"
      },
      {
        "convenience_store_lat": 37.50716387,
        "convenience_store_lon": 126.9587406,
        "convenience_store_type": "편의점",
        "convenience_store_name": "세븐일레븐 중앙대점",
        "distance": 203.52693539968925,
        "walking_time": "약 4분"
      },
      {
        "convenience_store_lat": 37.50759633,
        "convenience_store_lon": 126.959736,
        "convenience_store_type": "편의점",
        "convenience_store_name": "CU 중대동양점",
        "distance": 293.9338874354077,
        "walking_time": "약 5분"
      },
      {
        "convenience_store_lat": 37.50472672,
        "convenience_store_lon": 126.9538339,
        "convenience_store_type": "편의점",
        "convenience_store_name": "세븐일레븐 중앙대도서관점",
        "distance": 361.1558446303374,
        "walking_time": "약 6분"
      },
      {
        "convenience_store_lat": 37.50603801,
        "convenience_store_lon": 126.9604218,
        "convenience_store_type": "편의점",
        "convenience_store_name": "세븐일레븐 중앙대병원2호점",
        "distance": 376.01650923276713,
        "walking_time": "약 6분"
      },
      {
        "convenience_store_lat": 37.50487214,
        "convenience_store_lon": 126.9533534,
        "convenience_store_type": "편의점",
        "convenience_store_name": "CU 중대후문점",
        "distance": 378.049239811998,
        "walking_time": "약 6분"
      },
      {
        "convenience_store_lat": 37.50800561,
        "convenience_store_lon": 126.9609387,
        "convenience_store_type": "편의점",
        "convenience_store_name": "GS25 중대점",
        "distance": 406.39798154399085,
        "walking_time": "약 7분"
      },
      {
        "convenience_store_lat": 37.50841781,
        "convenience_store_lon": 126.9611743,
        "convenience_store_type": "편의점",
        "convenience_store_name": "CU 흑석로점",
        "distance": 438.2437489622648,
        "walking_time": "약 7분"
      },
      {
        "convenience_store_lat": 37.50651622,
        "convenience_store_lon": 126.9616646,
        "convenience_store_type": "편의점",
        "convenience_store_name": "CU 중대행운점",
        "distance": 468.1691601637154,
        "walking_time": "약 7분"
      },
      {
        "convenience_store_lat": 37.50729047,
        "convenience_store_lon": 126.9509955,
        "convenience_store_type": "편의점",
        "convenience_store_name": "GS25 상도제일점",
        "distance": 479.84861128033873,
        "walking_time": "약 8분"
      }
    ],
    "daycare": [
      {
        "daycare_lat": 37.50839676385734,
        "daycare_lon": 126.95781018717004,
        "daycare_type": "어린이집",
        "daycare_name": "리아어린이집",
        "distance": 177.20674069099456,
        "walking_time": "약 3분"
      },
      {
        "daycare_lat": 37.50583991716357,
        "daycare_lon": 126.9545344323481,
        "daycare_type": "어린이집",
        "daycare_name": "중앙대학교어린이집",
        "distance": 228.40705400444585,
        "walking_time": "약 4분"
      },
      {
        "daycare_lat": 37.51052444,
        "daycare_lon": 126.9568818,
        "daycare_type": "어린이집",
        "daycare_name": "선혜방과후교실어린이집",
        "distance": 367.886105055874,
        "walking_time": "약 6분"
      },
      {
        "daycare_lat": 37.50988486750423,
        "daycare_lon": 126.95916360932294,
        "daycare_type": "어린이집",
        "daycare_name": "구립도레미어린이집",
        "distance": 380.45684339179377,
        "walking_time": "약 6분"
      },
      {
        "daycare_lat": 37.50401952076813,
        "daycare_lon": 126.95359401478522,
        "daycare_type": "어린이집",
        "daycare_name": "구립꿈담어린이집",
        "distance": 436.6242523943432,
        "walking_time": "약 7분"
      },
      {
        "daycare_lat": 37.504286433804666,
        "daycare_lon": 126.95970527890138,
        "daycare_type": "어린이집",
        "daycare_name": "구립이솔어린이집",
        "distance": 436.70545936355,
        "walking_time": "약 7분"
      },
      {
        "daycare_lat": 37.5051213,
        "daycare_lon": 126.96061385005932,
        "daycare_type": "어린이집",
        "daycare_name": "구립까망돌어린이집",
        "distance": 437.169380246656,
        "walking_time": "약 7분"
      },
      {
        "daycare_lat": 37.50739103,
        "daycare_lon": 126.9513323,
        "daycare_type": "어린이집",
        "daycare_name": "노들어린이집",
        "distance": 450.4343753925208,
        "walking_time": "약 7분"
      },
      {
        "daycare_lat": 37.50696762,
        "daycare_lon": 126.9512399,
        "daycare_type": "어린이집",
        "daycare_name": "구립예담어린이집",
        "distance": 459.2153218668584,
        "walking_time": "약 7분"
      },
      {
        "daycare_lat": 37.50810372,
        "daycare_lon": 126.9616298,
        "daycare_type": "어린이집",
        "daycare_name": "흑석중앙방과후교실어린이집",
        "distance": 468.29301061575046,
        "walking_time": "약 7분"
      }
    ],
    "education": [
      {
        "education_lat": 37.50512021,
        "education_lon": 126.960611,
        "education_type": "도서관",
        "education_name": "까망돌도서관",
        "distance": 437.0226295661262,
        "walking_time": "약 7분"
      },
      {
        "education_lat": 37.50547361,
        "education_lon": 126.9499672,
        "education_type": "도서관",
        "education_name": "김영삼도서관",
        "distance": 603.2029855700843,
        "walking_time": "약 10분"
      },
      {
        "education_lat": 37.50975909,
        "education_lon": 126.9638593,
        "education_type": "공연장",
        "education_name": "소태산홀",
        "distance": 712.4838856987665,
        "walking_time": "약 11분"
      },
      {
        "education_lat": 37.51345799,
        "education_lon": 126.9494111,
        "education_type": "박물관/기념관",
        "education_name": "사육신역사관",
        "distance": 928.7873681054208,
        "walking_time": "약 14분"
      },
      {
        "education_lat": 37.50920443,
        "education_lon": 126.9434315,
        "education_type": "도서관",
        "education_name": "동작영어마루도서관",
        "distance": 1167.719944336788,
        "walking_time": "약 18분"
      },
      {
        "education_lat": 37.49642897,
        "education_lon": 126.9551579,
        "education_type": "박물관/기념관",
        "education_name": "숭실대학교 한국기독교박물관",
        "distance": 1206.8455757700508,
        "walking_time": "약 19분"
      },
      {
        "education_lat": 37.49788488,
        "education_lon": 126.9474555,
        "education_type": "도서관",
        "education_name": "약수도서관",
        "distance": 1307.0557933679029,
        "walking_time": "약 20분"
      },
      {
        "education_lat": 37.50444553,
        "education_lon": 126.9410884,
        "education_type": "문화원",
        "education_name": "동작문화원 동작본원",
        "distance": 1388.803301772119,
        "walking_time": "약 21분"
      },
      {
        "education_lat": 37.50596845,
        "education_lon": 126.9401029,
        "education_type": "도서관",
        "education_name": "서울특별시교육청 동작도서관",
        "distance": 1447.5067407940098,
        "walking_time": "약 22분"
      },
      {
        "education_lat": 37.49925547,
        "education_lon": 126.9403722,
        "education_type": "공연장",
        "education_name": "상도어울마당 아트홀",
        "distance": 1671.829545367427,
        "walking_time": "약 25분"
      }
    ],
    "fitness": [
      {
        "fitness_lat": 37.50593791,
        "fitness_lon": 126.9558568,
        "fitness_type": "운동시설",
        "fitness_name": "헤라클레스",
        "distance": 152.9820164767633,
        "walking_time": "약 3분"
      },
      {
        "fitness_lat": 37.508571,
        "fitness_lon": 126.9612274,
        "fitness_type": "운동시설",
        "fitness_name": "본핏",
        "distance": 448.0692796258476,
        "walking_time": "약 7분"
      },
      {
        "fitness_lat": 37.50662658,
        "fitness_lon": 126.9621838,
        "fitness_type": "운동시설",
        "fitness_name": "해가든짐",
        "distance": 511.587068604743,
        "walking_time": "약 8분"
      },
      {
        "fitness_lat": 37.50776441,
        "fitness_lon": 126.9628813,
        "fitness_type": "운동시설",
        "fitness_name": "마크짐 휘트니스",
        "distance": 571.6543762587288,
        "walking_time": "약 9분"
      },
      {
        "fitness_lat": 37.51239821,
        "fitness_lon": 126.9523986,
        "fitness_type": "운동시설",
        "fitness_name": "스마트짐 PT&필라테스",
        "distance": 675.5557277046545,
        "walking_time": "약 11분"
      },
      {
        "fitness_lat": 37.50403979,
        "fitness_lon": 126.9487843,
        "fitness_type": "운동시설",
        "fitness_name": "더 본짐",
        "distance": 762.6801892634295,
        "walking_time": "약 12분"
      },
      {
        "fitness_lat": 37.50772682,
        "fitness_lon": 126.9476182,
        "fitness_type": "운동시설",
        "fitness_name": "Keep Fit studio",
        "distance": 779.6329617475219,
        "walking_time": "약 12분"
      },
      {
        "fitness_lat": 37.50349967,
        "fitness_lon": 126.9488562,
        "fitness_type": "운동시설",
        "fitness_name": "위드미짐",
        "distance": 787.0499811113522,
        "walking_time": "약 12분"
      },
      {
        "fitness_lat": 37.50587326,
        "fitness_lon": 126.9473777,
        "fitness_type": "운동시설",
        "fitness_name": "SMART GYM",
        "distance": 813.1587144423933,
        "walking_time": "약 13분"
      },
      {
        "fitness_lat": 37.50093239,
        "fitness_lon": 126.9502432,
        "fitness_type": "운동시설",
        "fitness_name": "LIKE PT STUDIO",
        "distance": 888.5219104019293,
        "walking_time": "약 14분"
      }
    ],
    "gas_station": [
      {
        "gas_station_lat": 37.50810003,
        "gas_station_lon": 126.9652391,
        "gas_station_type": "주유소",
        "gas_station_name": "현대오일뱅크㈜흑석셀프주유소",
        "distance": 782.524444364409,
        "walking_time": "약 12분"
      },
      {
        "gas_station_lat": 37.4983605,
        "gas_station_lon": 126.951389,
        "gas_station_type": "주유소",
        "gas_station_name": "살피재주유소",
        "distance": 1082.547843662195,
        "walking_time": "약 17분"
      },
      {
        "gas_station_lat": 37.49493633,
        "gas_station_lon": 126.9614459,
        "gas_station_type": "주유소",
        "gas_station_name": "㈜창원이엔지",
        "distance": 1437.216439911521,
        "walking_time": "약 22분"
      },
      {
        "gas_station_lat": 37.49347189,
        "gas_station_lon": 126.9564351,
        "gas_station_type": "주유소",
        "gas_station_name": "현대오일뱅크㈜직영동작주유소",
        "distance": 1530.3880068762587,
        "walking_time": "약 23분"
      }
    ],
    "hospital": [
      {
        "hospital_lat": 37.50761421,
        "hospital_lon": 126.9601112,
        "hospital_type": "병원",
        "hospital_name": "문성한의원",
        "distance": 327.00062660478,
        "walking_time": "약 5분"
      },
      {
        "hospital_lat": 37.50603801,
        "hospital_lon": 126.9604218,
        "hospital_type": "병원",
        "hospital_name": "중앙대학교병원",
        "distance": 376.01650923276713,
        "walking_time": "약 6분"
      },
      {
        "hospital_lat": 37.5066796,
        "hospital_lon": 126.9519079,
        "hospital_type": "병원",
        "hospital_name": "구나한의원",
        "distance": 404.0766616203298,
        "walking_time": "약 7분"
      },
      {
        "hospital_lat": 37.50800561,
        "hospital_lon": 126.9609387,
        "hospital_type": "병원",
        "hospital_name": "서울하늘치과의원",
        "distance": 406.39798154399085,
        "walking_time": "약 7분"
      },
      {
        "hospital_lat": 37.50811641,
        "hospital_lon": 126.9614233,
        "hospital_type": "병원",
        "hospital_name": "윤정형외과의원",
        "distance": 450.7901415110597,
        "walking_time": "약 7분"
      },
      {
        "hospital_lat": 37.50811641,
        "hospital_lon": 126.9614233,
        "hospital_type": "병원",
        "hospital_name": "동인한의원",
        "distance": 450.7901415110597,
        "walking_time": "약 7분"
      },
      {
        "hospital_lat": 37.50781641,
        "hospital_lon": 126.9615219,
        "hospital_type": "병원",
        "hospital_name": "삼성필의원",
        "distance": 453.3386262620701,
        "walking_time": "약 7분"
      },
      {
        "hospital_lat": 37.50717537,
        "hospital_lon": 126.9615799,
        "hospital_type": "병원",
        "hospital_name": "김연두내과의원",
        "distance": 453.8715920348045,
        "walking_time": "약 7분"
      },
      {
        "hospital_lat": 37.5083114,
        "hospital_lon": 126.9614437,
        "hospital_type": "병원",
        "hospital_name": "흑석메트로정형외과의원",
        "distance": 457.7315030566169,
        "walking_time": "약 7분"
      },
      {
        "hospital_lat": 37.50634236,
        "hospital_lon": 126.961503,
        "hospital_type": "병원",
        "hospital_name": "연세우수의원",
        "distance": 457.9289170033017,
        "walking_time": "약 7분"
      }
    ],
    "music_room": [
      {
        "music_room_lat": 37.50696756,
        "music_room_lon": 126.9580405,
        "music_room_type": "노래방",
        "music_room_name": "제이 노래연습장",
        "distance": 144.7073097490724,
        "walking_time": "약 3분"
      },
      {
        "music_room_lat": 37.50716974,
        "music_room_lon": 126.9585273,
        "music_room_type": "노래방",
        "music_room_name": "울트라모던2노래연습장",
        "distance": 184.7009489368439,
        "walking_time": "약 3분"
      },
      {
        "music_room_lat": 37.50706705,
        "music_room_lon": 126.958601,
        "music_room_type": "노래방",
        "music_room_name": "잇츠코인노래연습장",
        "distance": 191.969969452206,
        "walking_time": "약 3분"
      },
      {
        "music_room_lat": 37.50739395,
        "music_room_lon": 126.9591758,
        "music_room_type": "노래방",
        "music_room_name": "비트코인동전노래연습장",
        "distance": 242.40630248760647,
        "walking_time": "약 4분"
      },
      {
        "music_room_lat": 37.50756059,
        "music_room_lon": 126.9595427,
        "music_room_type": "노래방",
        "music_room_name": "코러스노래연습장",
        "distance": 276.5048081215545,
        "walking_time": "약 5분"
      },
      {
        "music_room_lat": 37.50759633,
        "music_room_lon": 126.959736,
        "music_room_type": "노래방",
        "music_room_name": "RICOSTAR코인노래연습장 중앙대점",
        "distance": 293.9338874354077,
        "walking_time": "약 5분"
      },
      {
        "music_room_lat": 37.50726881,
        "music_room_lon": 126.9599804,
        "music_room_type": "노래방",
        "music_room_name": "블라블라 코인노래연습장",
        "distance": 312.75629658299283,
        "walking_time": "약 5분"
      },
      {
        "music_room_lat": 37.508571,
        "music_room_lon": 126.9612274,
        "music_room_type": "노래방",
        "music_room_name": "S.F. 노래연습장",
        "distance": 448.0692796258476,
        "walking_time": "약 7분"
      },
      {
        "music_room_lat": 37.50440505,
        "music_room_lon": 126.9504522,
        "music_room_type": "노래방",
        "music_room_name": "신바람노래연습장",
        "distance": 614.4374859798529,
        "walking_time": "약 10분"
      },
      {
        "music_room_lat": 37.50318371,
        "music_room_lon": 126.9482871,
        "music_room_type": "노래방",
        "music_room_name": "로로코인노래연습장",
        "distance": 848.2397108466546,
        "walking_time": "약 13분"
      }
    ],
    "park": [
      {
        "park_lat": 37.5137049,
        "park_lon": 126.948636,
        "park_type": "공원",
        "park_name": "사육신공원",
        "distance": 995.3798587526386,
        "walking_time": "약 15분"
      }
    ],
    "park_station": [
      {
        "park_station_lat": 37.50856741,
        "park_station_lon": 126.9629645,
        "park_station_type": "주차장",
        "park_station_name": "흑석빗물펌프장공영주차장",
        "distance": 594.7017770938168,
        "walking_time": "약 9분"
      },
      {
        "park_station_lat": 37.50106976,
        "park_station_lon": 126.9536962,
        "park_station_type": "주차장",
        "park_station_name": "공유) 상도동 134번지 일대",
        "distance": 726.8685371581986,
        "walking_time": "약 11분"
      },
      {
        "park_station_lat": 37.49727728,
        "park_station_lon": 126.9540285,
        "park_station_type": "주차장",
        "park_station_name": "살피재 공유주차장",
        "distance": 1127.4147342999302,
        "walking_time": "약 17분"
      },
      {
        "park_station_lat": 37.49727728,
        "park_station_lon": 126.9540285,
        "park_station_type": "주차장",
        "park_station_name": "살피재 공유주차장",
        "distance": 1127.4147342999302,
        "walking_time": "약 17분"
      },
      {
        "park_station_lat": 37.50642272,
        "park_station_lon": 126.9418691,
        "park_station_type": "주차장",
        "park_station_name": "공유) 동작도서관",
        "distance": 1288.0113137315166,
        "walking_time": "약 20분"
      },
      {
        "park_station_lat": 37.50482472,
        "park_station_lon": 126.94137,
        "park_station_type": "주차장",
        "park_station_name": "공유) 상도2동 170-27",
        "distance": 1355.6368509277286,
        "walking_time": "약 21분"
      },
      {
        "park_station_lat": 37.501405,
        "park_station_lon": 126.9410975,
        "park_station_type": "주차장",
        "park_station_name": "공유) 장승배기로A",
        "distance": 1500.239108622847,
        "walking_time": "약 23분"
      },
      {
        "park_station_lat": 37.50250138,
        "park_station_lon": 126.9402727,
        "park_station_type": "주차장",
        "park_station_name": "공유) 장승배기로C",
        "distance": 1519.7545482954563,
        "walking_time": "약 23분"
      },
      {
        "park_station_lat": 37.51993817,
        "park_station_lon": 126.9692464,
        "park_station_type": "주차장",
        "park_station_name": "이촌로54길",
        "distance": 1808.889438072541,
        "walking_time": "약 27분"
      }
    ],
    "pc_room": [
      {
        "pc_room_lat": 37.5072843354434,
        "pc_room_lon": 126.958241333342,
        "pc_room_type": "PC방",
        "pc_room_name": "TOP PC방",
        "distance": 159.42798425792068,
        "walking_time": "약 3분"
      },
      {
        "pc_room_lat": 37.5070293244615,
        "pc_room_lon": 126.958421417835,
        "pc_room_type": "PC방",
        "pc_room_name": "에이플PC CAFE",
        "distance": 176.70504931126794,
        "walking_time": "약 3분"
      },
      {
        "pc_room_lat": 37.5073939540013,
        "pc_room_lon": 126.959175823917,
        "pc_room_type": "PC방",
        "pc_room_name": "사이버파크",
        "distance": 242.40843898336576,
        "walking_time": "약 4분"
      },
      {
        "pc_room_lat": 37.507432582948,
        "pc_room_lon": 126.959367056377,
        "pc_room_type": "PC방",
        "pc_room_name": "너구리와 여우소굴",
        "distance": 259.5629050531616,
        "walking_time": "약 4분"
      },
      {
        "pc_room_lat": 37.5072688094279,
        "pc_room_lon": 126.959980376481,
        "pc_room_type": "PC방",
        "pc_room_name": "늑대와여우PC라운지 중앙지점",
        "distance": 312.75422139789964,
        "walking_time": "약 5분"
      },
      {
        "pc_room_lat": 37.5076741719689,
        "pc_room_lon": 126.959981630398,
        "pc_room_type": "PC방",
        "pc_room_name": "헬로PC방",
        "distance": 316.62984711734424,
        "walking_time": "약 5분"
      },
      {
        "pc_room_lat": 37.5077968064111,
        "pc_room_lon": 126.960004298309,
        "pc_room_type": "PC방",
        "pc_room_name": "주식회사 명택",
        "distance": 320.9783748711799,
        "walking_time": "약 5분"
      },
      {
        "pc_room_lat": 37.5080056116351,
        "pc_room_lon": 126.960938746172,
        "pc_room_type": "PC방",
        "pc_room_name": "몬스터PC방 1호점",
        "distance": 406.4020010508311,
        "walking_time": "약 7분"
      },
      {
        "pc_room_lat": 37.507891625309,
        "pc_room_lon": 126.961459298755,
        "pc_room_type": "PC방",
        "pc_room_name": "이재승컴퍼니 PC방",
        "distance": 449.1571248883152,
        "walking_time": "약 7분"
      },
      {
        "pc_room_lat": 37.5081164142775,
        "pc_room_lon": 126.961423329898,
        "pc_room_type": "PC방",
        "pc_room_name": "슈프림 PC cafe 2",
        "distance": 450.7928190594629,
        "walking_time": "약 7분"
      }
    ],
    "police_office": [
      {
        "police_office_lat": 37.5093774,
        "police_office_lon": 126.9601456,
        "police_office_type": "경찰소",
        "police_office_name": "흑석지구대",
        "distance": 404.81684961152257,
        "walking_time": "약 7분"
      }
    ],
    "post_office": [
      {
        "post_office_lat": 37.50472672,
        "post_office_lon": 126.9538339,
        "post_office_type": "우체국",
        "post_office_name": "중앙대학교우편취급국",
        "distance": 361.1558446303374,
        "walking_time": "약 6분"
      },
      {
        "post_office_lat": 37.50838441,
        "post_office_lon": 126.9623867,
        "post_office_type": "우체국",
        "post_office_name": "서울흑석동우체국",
        "distance": 540.3190757275665,
        "walking_time": "약 9분"
      },
      {
        "post_office_lat": 37.51246533,
        "post_office_lon": 126.9506359,
        "post_office_type": "우체국",
        "post_office_name": "서울노량진우체국",
        "distance": 774.5230146460434,
        "walking_time": "약 12분"
      },
      {
        "post_office_lat": 37.50500444,
        "post_office_lon": 126.9448543,
        "post_office_type": "우체국",
        "post_office_name": "서울상도동우체국",
        "distance": 1051.2086104512343,
        "walking_time": "약 16분"
      },
      {
        "post_office_lat": 37.49642897,
        "post_office_lon": 126.9551579,
        "post_office_type": "우체국",
        "post_office_name": "숭실대학교우편취급국",
        "distance": 1206.8455757700508,
        "walking_time": "약 19분"
      },
      {
        "post_office_lat": 37.49941236,
        "post_office_lon": 126.9437362,
        "post_office_type": "우체국",
        "post_office_name": "서울동작약수우편취급국",
        "distance": 1418.260399639167,
        "walking_time": "약 22분"
      },
      {
        "post_office_lat": 37.50964891,
        "post_office_lon": 126.9403493,
        "post_office_type": "우체국",
        "post_office_name": "서울노량진1동우편취급국",
        "distance": 1444.0350783448273,
        "walking_time": "약 22분"
      }
    ],
    "public_health_center": [
      {
        "public_health_center_lat": 37.50444553,
        "public_health_center_lon": 126.9410884,
        "public_health_center_type": "보건소",
        "public_health_center_name": "동작문화복지센타",
        "distance": 1388.803301772119,
        "walking_time": "약 21분"
      }
    ],
    "school": [
      {
        "school_lat": 37.5062047182589,
        "school_lon": 126.953567101813,
        "school_type": "초등학교",
        "school_name": "서울강남초등학교",
        "distance": 277.70565706139786,
        "walking_time": "약 5분"
      },
      {
        "school_lat": 37.5102231403469,
        "school_lon": 126.957477481379,
        "school_type": "중학교",
        "school_name": "동양중학교",
        "distance": 344.7552851243191,
        "walking_time": "약 6분"
      },
      {
        "school_lat": 37.5052685494717,
        "school_lon": 126.960162287237,
        "school_type": "초등학교",
        "school_name": "중앙대학교사범대학부속초등학교",
        "distance": 394.8538309113379,
        "walking_time": "약 6분"
      },
      {
        "school_lat": 37.5106568125953,
        "school_lon": 126.953923907042,
        "school_type": "초등학교",
        "school_name": "서울본동초등학교",
        "distance": 440.2623713755376,
        "walking_time": "약 7분"
      },
      {
        "school_lat": 37.5033929766399,
        "school_lon": 126.959778422441,
        "school_type": "초등학교",
        "school_name": "서울은로초등학교",
        "distance": 519.1264662426995,
        "walking_time": "약 8분"
      },
      {
        "school_lat": 37.503629418993,
        "school_lon": 126.961732578732,
        "school_type": "중학교",
        "school_name": "중앙대학교사범대학부속중학교",
        "distance": 615.7188240332625,
        "walking_time": "약 10분"
      },
      {
        "school_lat": 37.5082970524535,
        "school_lon": 126.965149160443,
        "school_type": "초등학교",
        "school_name": "서울흑석초등학교",
        "distance": 777.6749896740077,
        "walking_time": "약 12분"
      },
      {
        "school_lat": 37.5113065101691,
        "school_lon": 126.94864052145,
        "school_type": "초등학교",
        "school_name": "서울영본초등학교",
        "distance": 823.193847006402,
        "walking_time": "약 13분"
      },
      {
        "school_lat": 37.5008246344742,
        "school_lon": 126.943817704578,
        "school_type": "초등학교",
        "school_name": "서울신상도초등학교",
        "distance": 1321.6841483536864,
        "walking_time": "약 20분"
      },
      {
        "school_lat": 37.4948743920855,
        "school_lon": 126.952669123087,
        "school_type": "초등학교",
        "school_name": "서울상현초등학교",
        "distance": 1414.015451043986,
        "walking_time": "약 22분"
      }
    ],
    "subway": [
      {
        "subway_lat": 37.5032080456431,
        "subway_lon": 126.947700373641,
        "subway_type": "지하철",
        "subway_name": "7호선-상도역",
        "distance": 891.1538052241867,
        "walking_time": "약 14분"
      },
      {
        "subway_lat": 37.4958143308836,
        "subway_lon": 126.954060246067,
        "subway_type": "지하철",
        "subway_name": "7호선-숭실대입구(살피재)역",
        "distance": 1287.0833919205577,
        "walking_time": "약 20분"
      }
    ],
    "supermarket": [
      {
        "supermarket_lat": 37.50662658,
        "supermarket_lon": 126.9621838,
        "supermarket_type": "마트",
        "supermarket_name": "해가든프라자",
        "distance": 511.587068604743,
        "walking_time": "약 8분"
      },
      {
        "supermarket_lat": 37.50762648,
        "supermarket_lon": 126.9495479,
        "supermarket_type": "마트",
        "supermarket_name": "홈플러스 익스프레스 상도2점",
        "distance": 609.0555215898496,
        "walking_time": "약 10분"
      },
      {
        "supermarket_lat": 37.50623587,
        "supermarket_lon": 126.9445418,
        "supermarket_type": "마트",
        "supermarket_name": "(주)이마트에브리데이 상도동점",
        "distance": 1054.9524341242736,
        "walking_time": "약 16분"
      },
      {
        "supermarket_lat": 37.49678998,
        "supermarket_lon": 126.9516675,
        "supermarket_type": "마트",
        "supermarket_name": "(주)지에스리테일 상도 엠코타운점",
        "distance": 1235.2327847047582,
        "walking_time": "약 19분"
      },
      {
        "supermarket_lat": 37.50431826,
        "supermarket_lon": 126.942467,
        "supermarket_type": "마트",
        "supermarket_name": "GS THE FRESH 동작구청점",
        "distance": 1274.0887772629403,
        "walking_time": "약 20분"
      },
      {
        "supermarket_lat": 37.49700194,
        "supermarket_lon": 126.9436426,
        "supermarket_type": "마트",
        "supermarket_name": "홈플러스 익스프레스 상도3점",
        "distance": 1602.556567402332,
        "walking_time": "약 24분"
      },
      {
        "supermarket_lat": 37.49205505,
        "supermarket_lon": 126.9589248,
        "supermarket_type": "마트",
        "supermarket_name": "관악현대상가",
        "distance": 1702.1640563347785,
        "walking_time": "약 26분"
      }
    ],
    "university": [
      {
        "university_lat": 37.5047267237807,
        "university_lon": 126.953833907628,
        "university_type": "대학교",
        "university_name": "중앙대학교 서울캠퍼스",
        "distance": 361.15509250024655,
        "walking_time": "약 6분"
      },
      {
        "university_lat": 37.4964019323152,
        "university_lon": 126.956588222367,
        "university_type": "대학교",
        "university_name": "숭실대학교",
        "distance": 1204.6579974692986,
        "walking_time": "약 18분"
      },
      {
        "university_lat": 37.4908791135567,
        "university_lon": 126.967182104111,
        "university_type": "대학교",
        "university_name": "총신대학교",
        "distance": 2050.977720380636,
        "walking_time": "약 31분"
      }
    ]
  }
}