{
  "클러스터_위도": 37.53841499999999,
  "클러스터_경도": 127.14122999999998,
  "클러스터_level": 3.0,
  "facilities": {
    "bus": [
      {
        "bus_lat": 37.53797243,
        "bus_lon": 127.1399401,
        "bus_type": "버스정류장",
        "bus_name": "길동역1번출구",
        "distance": 123.9229760506562,
        "walking_time": "약 2분"
      },
      {
        "bus_lat": 37.53731365,
        "bus_lon": 127.1400079,
        "bus_type": "버스정류장",
        "bus_name": "길동역3번출구",
        "distance": 163.1218310270539,
        "walking_time": "약 3분"
      },
      {
        "bus_lat": 37.53995537,
        "bus_lon": 127.141012,
        "bus_type": "버스정류장",
        "bus_name": "천동초교입구사거리",
        "distance": 172.35645472028042,
        "walking_time": "약 3분"
      },
      {
        "bus_lat": 37.53994047,
        "bus_lon": 127.1406623,
        "bus_type": "버스정류장",
        "bus_name": "천동초교입구사거리",
        "distance": 176.85566161811084,
        "walking_time": "약 3분"
      },
      {
        "bus_lat": 37.54093176,
        "bus_lon": 127.140039,
        "bus_type": "버스정류장",
        "bus_name": "참잘함한방병원",
        "distance": 298.9042369855821,
        "walking_time": "약 5분"
      },
      {
        "bus_lat": 37.54073313,
        "bus_lon": 127.1431647,
        "bus_type": "버스정류장",
        "bus_name": "강동농협",
        "distance": 309.0968798683909,
        "walking_time": "약 5분"
      },
      {
        "bus_lat": 37.54096431,
        "bus_lon": 127.1427532,
        "bus_type": "버스정류장",
        "bus_name": "강동농협",
        "distance": 313.6750712390798,
        "walking_time": "약 5분"
      },
      {
        "bus_lat": 37.54113355,
        "bus_lon": 127.1398826,
        "bus_type": "버스정류장",
        "bus_name": "참잘함한방병원",
        "distance": 324.7954353091575,
        "walking_time": "약 5분"
      },
      {
        "bus_lat": 37.53543646,
        "bus_lon": 127.139364,
        "bus_type": "버스정류장",
        "bus_name": "서울프라임한방병원",
        "distance": 369.8148153748657,
        "walking_time": "약 6분"
      },
      {
        "bus_lat": 37.53552534,
        "bus_lon": 127.1389352,
        "bus_type": "버스정류장",
        "bus_name": "서울프라임한방병원",
        "distance": 379.7170815300975,
        "walking_time": "약 6분"
      }
    ],
    "community_center": [
      {
        "community_center_lat": 37.53459123,
        "community_center_lon": 127.1391361,
        "community_center_type": "주민센터",
        "community_center_name": "길동 자치회관",
        "distance": 463.53899318759176,
        "walking_time": "약 7분"
      },
      {
        "community_center_lat": 37.53334613,
        "community_center_lon": 127.1419485,
        "community_center_type": "주민센터",
        "community_center_name": "둔촌2동 자치회관",
        "distance": 567.1819689557423,
        "walking_time": "약 9분"
      },
      {
        "community_center_lat": 37.53660488,
        "community_center_lon": 127.1331156,
        "community_center_type": "주민센터",
        "community_center_name": "천호3동 자치회관",
        "distance": 743.2397986237212,
        "walking_time": "약 12분"
      },
      {
        "community_center_lat": 37.54500381,
        "community_center_lon": 127.1368198,
        "community_center_type": "주민센터",
        "community_center_name": "천호1동 자치회관",
        "distance": 829.4326735559872,
        "walking_time": "약 13분"
      },
      {
        "community_center_lat": 37.5463638,
        "community_center_lon": 127.1513524,
        "community_center_type": "주민센터",
        "community_center_name": "명일2동 자치회관",
        "distance": 1256.0664770015771,
        "walking_time": "약 19분"
      },
      {
        "community_center_lat": 37.52604217,
        "community_center_lon": 127.1328839,
        "community_center_type": "주민센터",
        "community_center_name": "성내3동 자치회관",
        "distance": 1560.2676640579618,
        "walking_time": "약 24분"
      }
    ],
    "convenience_store": [
      {
        "convenience_store_lat": 37.53779052,
        "convenience_store_lon": 127.1409409,
        "convenience_store_type": "편의점",
        "convenience_store_name": "CU 길동우성점",
        "distance": 73.96985999724009,
        "walking_time": "약 2분"
      },
      {
        "convenience_store_lat": 37.53819129,
        "convenience_store_lon": 127.1420702,
        "convenience_store_type": "편의점",
        "convenience_store_name": "GS25 길동우성점",
        "distance": 78.1466283437095,
        "walking_time": "약 2분"
      },
      {
        "convenience_store_lat": 37.53761299,
        "convenience_store_lon": 127.1417999,
        "convenience_store_type": "편의점",
        "convenience_store_name": "GS25 우성스타점",
        "distance": 102.36187670880952,
        "walking_time": "약 2분"
      },
      {
        "convenience_store_lat": 37.53781156,
        "convenience_store_lon": 127.1399992,
        "convenience_store_type": "편의점",
        "convenience_store_name": "세븐일레븐 S길동역점",
        "distance": 127.59049975209815,
        "walking_time": "약 2분"
      },
      {
        "convenience_store_lat": 37.53806917,
        "convenience_store_lon": 127.14284,
        "convenience_store_type": "편의점",
        "convenience_store_name": "세븐일레븐 길동복조리점",
        "distance": 147.07265679258796,
        "walking_time": "약 3분"
      },
      {
        "convenience_store_lat": 37.53947582,
        "convenience_store_lon": 127.1426876,
        "convenience_store_type": "편의점",
        "convenience_store_name": "CU 강동천중로점",
        "distance": 174.44446165572256,
        "walking_time": "약 3분"
      },
      {
        "convenience_store_lat": 37.53698361,
        "convenience_store_lon": 127.1385615,
        "convenience_store_type": "편의점",
        "convenience_store_name": "세븐일레븐 길동스위트점",
        "distance": 284.06567695288646,
        "walking_time": "약 5분"
      },
      {
        "convenience_store_lat": 37.54115872,
        "convenience_store_lon": 127.1415503,
        "convenience_store_type": "편의점",
        "convenience_store_name": "GS25 길동타운점",
        "distance": 306.3920272869295,
        "walking_time": "약 5분"
      },
      {
        "convenience_store_lat": 37.54126225,
        "convenience_store_lon": 127.1408726,
        "convenience_store_type": "편의점",
        "convenience_store_name": "세븐일레븐 천호5호점",
        "distance": 318.1641137877667,
        "walking_time": "약 5분"
      },
      {
        "convenience_store_lat": 37.53548282,
        "convenience_store_lon": 127.1397802,
        "convenience_store_type": "편의점",
        "convenience_store_name": "GS25 길동미래점",
        "distance": 350.2082143121576,
        "walking_time": "약 6분"
      }
    ],
    "daycare": [
      {
        "daycare_lat": 37.53919318,
        "daycare_lon": 127.14184756861468,
        "daycare_type": "어린이집",
        "daycare_name": "라인어린이집",
        "distance": 102.23680804236535,
        "walking_time": "약 2분"
      },
      {
        "daycare_lat": 37.53709551486394,
        "daycare_lon": 127.14197488567405,
        "daycare_type": "어린이집",
        "daycare_name": "그리새어린이집",
        "distance": 160.74951048918888,
        "walking_time": "약 3분"
      },
      {
        "daycare_lat": 37.53935815412059,
        "daycare_lon": 127.13947176890082,
        "daycare_type": "어린이집",
        "daycare_name": "왕눈이어린이집",
        "distance": 187.16635035678547,
        "walking_time": "약 3분"
      },
      {
        "daycare_lat": 37.53943917435434,
        "daycare_lon": 127.13934598288614,
        "daycare_type": "어린이집",
        "daycare_name": "구립연두어린이집",
        "distance": 201.4042273254673,
        "walking_time": "약 4분"
      },
      {
        "daycare_lat": 37.54002122998828,
        "daycare_lon": 127.1425687482794,
        "daycare_type": "어린이집",
        "daycare_name": "해피아이어린이집",
        "distance": 214.08552135671903,
        "walking_time": "약 4분"
      },
      {
        "daycare_lat": 37.53720971,
        "daycare_lon": 127.1434371,
        "daycare_type": "어린이집",
        "daycare_name": "우성어린이집",
        "distance": 236.28999722211205,
        "walking_time": "약 4분"
      },
      {
        "daycare_lat": 37.53908272,
        "daycare_lon": 127.14380255254466,
        "daycare_type": "어린이집",
        "daycare_name": "길동어린이집",
        "distance": 238.6672877499979,
        "walking_time": "약 4분"
      },
      {
        "daycare_lat": 37.53882320487883,
        "daycare_lon": 127.13831235981446,
        "daycare_type": "어린이집",
        "daycare_name": "봄햇살어린이집",
        "distance": 261.2256083798296,
        "walking_time": "약 4분"
      },
      {
        "daycare_lat": 37.53570085737785,
        "daycare_lon": 127.14242501353094,
        "daycare_type": "어린이집",
        "daycare_name": "방주어린이집",
        "distance": 319.6638654609927,
        "walking_time": "약 5분"
      },
      {
        "daycare_lat": 37.53610181627788,
        "daycare_lon": 127.14414989563926,
        "daycare_type": "어린이집",
        "daycare_name": "꼬마요정어린이집",
        "distance": 363.9265134544079,
        "walking_time": "약 6분"
      }
    ],
    "education": [
      {
        "education_lat": 37.53808297,
        "education_lon": 127.1435009,
        "education_type": "도서관",
        "education_name": "서울특별시교육청 강동도서관",
        "distance": 203.60439599175209,
        "walking_time": "약 4분"
      },
      {
        "education_lat": 37.54052322,
        "education_lon": 127.1340815,
        "education_type": "도서관",
        "education_name": "강동구립천호도서관",
        "distance": 672.4680105441444,
        "walking_time": "약 11분"
      },
      {
        "education_lat": 37.53284547,
        "education_lon": 127.133343,
        "education_type": "도서관",
        "education_name": "강동구립성내도서관",
        "distance": 931.2172949191248,
        "walking_time": "약 14분"
      }
    ],
    "fitness": [
      {
        "fitness_lat": 37.53857528,
        "fitness_lon": 127.1405763,
        "fitness_type": "운동시설",
        "fitness_name": "휘트니스피플 우먼 길동점",
        "distance": 60.33018099448639,
        "walking_time": "약 1분"
      },
      {
        "fitness_lat": 37.53822358,
        "fitness_lon": 127.1404595,
        "fitness_type": "운동시설",
        "fitness_name": "커브스 길동클럽",
        "distance": 71.19252378053207,
        "walking_time": "약 2분"
      },
      {
        "fitness_lat": 37.53930372,
        "fitness_lon": 127.1402894,
        "fitness_type": "운동시설",
        "fitness_name": "스포애니 길동역점",
        "distance": 129.01007662904732,
        "walking_time": "약 2분"
      },
      {
        "fitness_lat": 37.53736075,
        "fitness_lon": 127.1392685,
        "fitness_type": "운동시설",
        "fitness_name": "에이블짐 길동역점",
        "distance": 208.93485493351983,
        "walking_time": "약 4분"
      },
      {
        "fitness_lat": 37.53683992,
        "fitness_lon": 127.1393143,
        "fitness_type": "운동시설",
        "fitness_name": "화이트짐 길동점",
        "distance": 243.3219078814219,
        "walking_time": "약 4분"
      },
      {
        "fitness_lat": 37.53622894,
        "fitness_lon": 127.139777,
        "fitness_type": "운동시설",
        "fitness_name": "라이프체인지 PT",
        "distance": 274.77399847551743,
        "walking_time": "약 5분"
      },
      {
        "fitness_lat": 37.53719198,
        "fitness_lon": 127.1380541,
        "fitness_type": "운동시설",
        "fitness_name": "모두의운동",
        "distance": 311.3018611272076,
        "walking_time": "약 5분"
      },
      {
        "fitness_lat": 37.54126225,
        "fitness_lon": 127.1408726,
        "fitness_type": "운동시설",
        "fitness_name": "김현진153GYM",
        "distance": 318.1641137877667,
        "walking_time": "약 5분"
      },
      {
        "fitness_lat": 37.5359335,
        "fitness_lon": 127.1390221,
        "fitness_type": "운동시설",
        "fitness_name": "짐구공 24시 헬스 PT 길동점",
        "distance": 337.69308435188265,
        "walking_time": "약 6분"
      },
      {
        "fitness_lat": 37.53528703,
        "fitness_lon": 127.139476,
        "fitness_type": "운동시설",
        "fitness_name": "와이키키휘트니스",
        "distance": 380.6485619458861,
        "walking_time": "약 6분"
      }
    ],
    "gas_station": [
      {
        "gas_station_lat": 37.53341993,
        "gas_station_lon": 127.1411846,
        "gas_station_type": "주유소",
        "gas_station_name": "대성석유㈜ 길동주유소",
        "distance": 555.440867859801,
        "walking_time": "약 9분"
      },
      {
        "gas_station_lat": 37.53641686,
        "gas_station_lon": 127.1493724,
        "gas_station_type": "주유소",
        "gas_station_name": "재건에너지 재정제2주유소 고속셀프지점",
        "distance": 751.5309270633642,
        "walking_time": "약 12분"
      },
      {
        "gas_station_lat": 37.53232065,
        "gas_station_lon": 127.1330903,
        "gas_station_type": "주유소",
        "gas_station_name": "㈜지유에너지 직영오렌지주유소",
        "distance": 987.0887062740966,
        "walking_time": "약 15분"
      },
      {
        "gas_station_lat": 37.54606064,
        "gas_station_lon": 127.1554951,
        "gas_station_type": "주유소",
        "gas_station_name": "방아다리주유소",
        "distance": 1518.0912005515847,
        "walking_time": "약 23분"
      },
      {
        "gas_station_lat": 37.52453521,
        "gas_station_lon": 127.1344215,
        "gas_station_type": "주유소",
        "gas_station_name": "지에스칼텍스(주) 신월주유소",
        "distance": 1656.0231360687565,
        "walking_time": "약 25분"
      }
    ],
    "hospital": [
      {
        "hospital_lat": 37.53870566,
        "hospital_lon": 127.1410216,
        "hospital_type": "병원",
        "hospital_name": "이상우치과의원",
        "distance": 37.17813730119671,
        "walking_time": "약 1분"
      },
      {
        "hospital_lat": 37.53857528,
        "hospital_lon": 127.1405763,
        "hospital_type": "병원",
        "hospital_name": "봄으로가는의원",
        "distance": 60.33018099448639,
        "walking_time": "약 1분"
      },
      {
        "hospital_lat": 37.53857528,
        "hospital_lon": 127.1405763,
        "hospital_type": "병원",
        "hospital_name": "웃는얼굴한의원",
        "distance": 60.33018099448639,
        "walking_time": "약 1분"
      },
      {
        "hospital_lat": 37.53857528,
        "hospital_lon": 127.1405763,
        "hospital_type": "병원",
        "hospital_name": "으샤신경외과의원",
        "distance": 60.33018099448639,
        "walking_time": "약 1분"
      },
      {
        "hospital_lat": 37.53857528,
        "hospital_lon": 127.1405763,
        "hospital_type": "병원",
        "hospital_name": "한빛치과의원",
        "distance": 60.33018099448639,
        "walking_time": "약 1분"
      },
      {
        "hospital_lat": 37.53857528,
        "hospital_lon": 127.1405763,
        "hospital_type": "병원",
        "hospital_name": "훈훈한내과의원",
        "distance": 60.33018099448639,
        "walking_time": "약 1분"
      },
      {
        "hospital_lat": 37.53837539,
        "hospital_lon": 127.140544,
        "hospital_type": "병원",
        "hospital_name": "연세제일정형외과의원",
        "distance": 60.64578737319353,
        "walking_time": "약 1분"
      },
      {
        "hospital_lat": 37.53837539,
        "hospital_lon": 127.140544,
        "hospital_type": "병원",
        "hospital_name": "연세한마음내과의원",
        "distance": 60.64578737319353,
        "walking_time": "약 1분"
      },
      {
        "hospital_lat": 37.53837539,
        "hospital_lon": 127.140544,
        "hospital_type": "병원",
        "hospital_name": "우리들치과의원",
        "distance": 60.64578737319353,
        "walking_time": "약 1분"
      },
      {
        "hospital_lat": 37.53822699,
        "hospital_lon": 127.1419003,
        "hospital_type": "병원",
        "hospital_name": "경희우리한의원",
        "distance": 62.68992617841911,
        "walking_time": "약 1분"
      }
    ],
    "music_room": [
      {
        "music_room_lat": 37.53857528,
        "music_room_lon": 127.1405763,
        "music_room_type": "노래방",
        "music_room_name": "파도노래연습장",
        "distance": 60.33018099448639,
        "walking_time": "약 1분"
      },
      {
        "music_room_lat": 37.53822699,
        "music_room_lon": 127.1419003,
        "music_room_type": "노래방",
        "music_room_name": "장희빈노래연습장",
        "distance": 62.68992617841911,
        "walking_time": "약 1분"
      },
      {
        "music_room_lat": 37.53810546,
        "music_room_lon": 127.1403843,
        "music_room_type": "노래방",
        "music_room_name": "케이스타코인동전노래연습장",
        "distance": 82.12726938894524,
        "walking_time": "약 2분"
      },
      {
        "music_room_lat": 37.53792639,
        "music_room_lon": 127.1403367,
        "music_room_type": "노래방",
        "music_room_name": "팡팡노래연습장",
        "distance": 95.68486078934832,
        "walking_time": "약 2분"
      },
      {
        "music_room_lat": 37.53891648,
        "music_room_lon": 127.1401323,
        "music_room_type": "노래방",
        "music_room_name": "영심 노래연습장",
        "distance": 111.69975346058084,
        "walking_time": "약 2분"
      },
      {
        "music_room_lat": 37.53827109,
        "music_room_lon": 127.1399012,
        "music_room_type": "노래방",
        "music_room_name": "판타스틱 코인노래연습장 길동역점",
        "distance": 118.2500850467635,
        "walking_time": "약 2분"
      },
      {
        "music_room_lat": 37.53930372,
        "music_room_lon": 127.1402894,
        "music_room_type": "노래방",
        "music_room_name": "오투 노래연습장",
        "distance": 129.01007662904732,
        "walking_time": "약 2분"
      },
      {
        "music_room_lat": 37.53808758,
        "music_room_lon": 127.1398094,
        "music_room_type": "노래방",
        "music_room_name": "MBC노래연습장",
        "distance": 130.4405274407862,
        "walking_time": "약 2분"
      },
      {
        "music_room_lat": 37.53750663,
        "music_room_lon": 127.1401712,
        "music_room_type": "노래방",
        "music_room_name": "금빛노래연습장",
        "distance": 137.5415494645917,
        "walking_time": "약 3분"
      },
      {
        "music_room_lat": 37.53731633,
        "music_room_lon": 127.1400339,
        "music_room_type": "노래방",
        "music_room_name": "킹스타일",
        "distance": 161.39093605858335,
        "walking_time": "약 3분"
      }
    ],
    "park": [
      {
        "park_lat": 37.5372715,
        "park_lon": 127.1533951,
        "park_type": "공원",
        "park_name": "허브천문공원",
        "distance": 1080.1330051718285,
        "walking_time": "약 17분"
      },
      {
        "park_lat": 37.5403935,
        "park_lon": 127.1547791,
        "park_type": "공원",
        "park_name": "길동생태공원",
        "distance": 1214.7164018870064,
        "walking_time": "약 19분"
      },
      {
        "park_lat": 37.5431657,
        "park_lon": 127.1574587,
        "park_type": "공원",
        "park_name": "일자산근린공원",
        "distance": 1525.2605805359285,
        "walking_time": "약 23분"
      }
    ],
    "park_station": [
      {
        "park_station_lat": 37.54071205,
        "park_station_lon": 127.1341864,
        "park_station_type": "주차장",
        "park_station_name": "천호3동 제2공영주차장",
        "distance": 671.5086989095973,
        "walking_time": "약 11분"
      },
      {
        "park_station_lat": 37.53891769,
        "park_station_lon": 127.1332432,
        "park_station_type": "주차장",
        "park_station_name": "천호3동 주차장",
        "distance": 706.4203805100398,
        "walking_time": "약 11분"
      },
      {
        "park_station_lat": 37.54459923,
        "park_station_lon": 127.1366199,
        "park_station_type": "주차장",
        "park_station_name": "천호1동 주차장",
        "distance": 798.7997762954859,
        "walking_time": "약 12분"
      },
      {
        "park_station_lat": 37.54307844,
        "park_station_lon": 127.1321772,
        "park_station_type": "주차장",
        "park_station_name": "고분다리 전통시장 공영주차장",
        "distance": 951.8278080149609,
        "walking_time": "약 15분"
      },
      {
        "park_station_lat": 37.52857926,
        "park_station_lon": 127.1337128,
        "park_station_type": "주차장",
        "park_station_name": "둔촌역전통시장",
        "distance": 1278.8708514285497,
        "walking_time": "약 20분"
      }
    ],
    "pc_room": [
      {
        "pc_room_lat": 37.5384040731489,
        "pc_room_lon": 127.141194244696,
        "pc_room_type": "PC방",
        "pc_room_name": "The Seven PC",
        "distance": 3.378627272998403,
        "walking_time": "약 1분"
      },
      {
        "pc_room_lat": 37.5382235781836,
        "pc_room_lon": 127.140459465668,
        "pc_room_type": "PC방",
        "pc_room_name": "미스테리PC",
        "distance": 71.1954728183495,
        "walking_time": "약 2분"
      },
      {
        "pc_room_lat": 37.5377905247848,
        "pc_room_lon": 127.140940884103,
        "pc_room_type": "PC방",
        "pc_room_name": "스타캐슬 PC방",
        "distance": 73.96984357845201,
        "walking_time": "약 2분"
      },
      {
        "pc_room_lat": 37.5381912877155,
        "pc_room_lon": 127.142070168416,
        "pc_room_type": "PC방",
        "pc_room_name": "별",
        "distance": 78.14406925362066,
        "walking_time": "약 2분"
      },
      {
        "pc_room_lat": 37.537700616138,
        "pc_room_lon": 127.141308553969,
        "pc_room_type": "PC방",
        "pc_room_name": "ZIO",
        "distance": 79.73724971985162,
        "walking_time": "약 2분"
      },
      {
        "pc_room_lat": 37.538271092885,
        "pc_room_lon": 127.139901172837,
        "pc_room_type": "PC방",
        "pc_room_name": "이츠PC방",
        "distance": 118.25241460618564,
        "walking_time": "약 2분"
      },
      {
        "pc_room_lat": 37.5373193268984,
        "pc_room_lon": 127.142048034723,
        "pc_room_type": "PC방",
        "pc_room_name": "스위티",
        "distance": 141.58310968122345,
        "walking_time": "약 3분"
      },
      {
        "pc_room_lat": 37.5366477499805,
        "pc_room_lon": 127.140593867789,
        "pc_room_type": "PC방",
        "pc_room_name": "한게임 PC",
        "distance": 204.35727917982064,
        "walking_time": "약 4분"
      },
      {
        "pc_room_lat": 37.537211279292,
        "pc_room_lon": 127.139111133009,
        "pc_room_type": "PC방",
        "pc_room_name": "최PC",
        "distance": 229.823433539736,
        "walking_time": "약 4분"
      },
      {
        "pc_room_lat": 37.5365014909044,
        "pc_room_lon": 127.139781554171,
        "pc_room_type": "PC방",
        "pc_room_name": "포텐PC 길동점",
        "distance": 248.1588322916071,
        "walking_time": "약 4분"
      }
    ],
    "police_office": [
      {
        "police_office_lat": 37.52945078,
        "police_office_lon": 127.1391886,
        "police_office_type": "경찰소",
        "police_office_name": "길동지구대",
        "distance": 1012.8985244350864,
        "walking_time": "약 16분"
      },
      {
        "police_office_lat": 37.52533433,
        "police_office_lon": 127.1456541,
        "police_office_type": "경찰소",
        "police_office_name": "둔촌파출소",
        "distance": 1505.9119819387408,
        "walking_time": "약 23분"
      }
    ],
    "post_office": [
      {
        "post_office_lat": 37.53637593,
        "post_office_lon": 127.1432061,
        "post_office_type": "우체국",
        "post_office_name": "서울강동우체국",
        "distance": 285.9498183574556,
        "walking_time": "약 5분"
      },
      {
        "post_office_lat": 37.5401163,
        "post_office_lon": 127.136473,
        "post_office_type": "우체국",
        "post_office_name": "서울천호3동우편취급국",
        "distance": 460.1156616534513,
        "walking_time": "약 7분"
      },
      {
        "post_office_lat": 37.53279964,
        "post_office_lon": 127.1390214,
        "post_office_type": "우체국",
        "post_office_name": "서울둔촌2동우편취급국",
        "distance": 654.0638781178711,
        "walking_time": "약 10분"
      },
      {
        "post_office_lat": 37.54537547,
        "post_office_lon": 127.1452012,
        "post_office_type": "우체국",
        "post_office_name": "서울명일삼익우편취급국",
        "distance": 849.4816478613039,
        "walking_time": "약 13분"
      },
      {
        "post_office_lat": 37.52342373,
        "post_office_lon": 127.1341876,
        "post_office_type": "우체국",
        "post_office_name": "서울성내동우체국",
        "distance": 1778.8690915961065,
        "walking_time": "약 27분"
      }
    ],
    "public_health_center": [
      {
        "public_health_center_lat": 37.54684651,
        "public_health_center_lon": 127.1337755,
        "public_health_center_type": "보건소",
        "public_health_center_name": "천호보건지소",
        "distance": 1144.9645643097456,
        "walking_time": "약 18분"
      }
    ],
    "school": [
      {
        "school_lat": 37.5385916779149,
        "school_lon": 127.144972942492,
        "school_type": "초등학교",
        "school_name": "서울길동초등학교",
        "distance": 330.60454441974275,
        "walking_time": "약 5분"
      },
      {
        "school_lat": 37.541015901733,
        "school_lon": 127.137828727405,
        "school_type": "초등학교",
        "school_name": "서울천동초등학교",
        "distance": 416.6229873846731,
        "walking_time": "약 7분"
      },
      {
        "school_lat": 37.5367695166843,
        "school_lon": 127.134366593349,
        "school_type": "중학교",
        "school_name": "동신중학교",
        "distance": 632.2186244712232,
        "walking_time": "약 10분"
      },
      {
        "school_lat": 37.5418144867925,
        "school_lon": 127.149291882662,
        "school_type": "중학교",
        "school_name": "신명중학교",
        "distance": 805.0724672702329,
        "walking_time": "약 13분"
      },
      {
        "school_lat": 37.531432583881,
        "school_lon": 127.143808707936,
        "school_type": "고등학교",
        "school_name": "둔촌고등학교",
        "distance": 809.0195131220798,
        "walking_time": "약 13분"
      },
      {
        "school_lat": 37.5409268527757,
        "school_lon": 127.149979091111,
        "school_type": "초등학교",
        "school_name": "서울신명초등학교",
        "distance": 820.4148023497173,
        "walking_time": "약 13분"
      },
      {
        "school_lat": 37.5465192580007,
        "school_lon": 127.139697961268,
        "school_type": "중학교",
        "school_name": "천호중학교",
        "distance": 911.219397255909,
        "walking_time": "약 14분"
      },
      {
        "school_lat": 37.5443612197289,
        "school_lon": 127.133436718515,
        "school_type": "초등학교",
        "school_name": "서울천일초등학교",
        "distance": 953.57335117741,
        "walking_time": "약 15분"
      },
      {
        "school_lat": 37.5308360856293,
        "school_lon": 127.146331741485,
        "school_type": "중학교",
        "school_name": "둔촌중학교",
        "distance": 955.2859046329576,
        "walking_time": "약 15분"
      },
      {
        "school_lat": 37.5297601213047,
        "school_lon": 127.145594039357,
        "school_type": "초등학교",
        "school_name": "서울선린초등학교",
        "distance": 1036.4594905902757,
        "walking_time": "약 16분"
      }
    ],
    "subway": [
      {
        "subway_lat": 37.5378115570072,
        "subway_lon": 127.13999920444,
        "subway_type": "지하철",
        "subway_name": "5호선-길동역",
        "distance": 127.59034178978538,
        "walking_time": "약 2분"
      },
      {
        "subway_lat": 37.5357793773303,
        "subway_lon": 127.132720388453,
        "subway_type": "지하철",
        "subway_name": "5호선-강동역",
        "distance": 805.522254019626,
        "walking_time": "약 13분"
      },
      {
        "subway_lat": 37.5457314720664,
        "subway_lon": 127.142970847846,
        "subway_type": "지하철",
        "subway_name": "5호선-굽은다리(강동구민회관앞)역",
        "distance": 827.9063146030934,
        "walking_time": "약 13분"
      },
      {
        "subway_lat": 37.5288957241892,
        "subway_lon": 127.148541966332,
        "subway_type": "지하철",
        "subway_name": "9호선-중앙보훈병원역",
        "distance": 1239.3998153647804,
        "walking_time": "약 19분"
      },
      {
        "subway_lat": 37.5276413733277,
        "subway_lon": 127.136190298465,
        "subway_type": "지하철",
        "subway_name": "5호선-둔촌동역",
        "distance": 1277.740522719101,
        "walking_time": "약 20분"
      }
    ],
    "supermarket": [
      {
        "supermarket_lat": 37.53837539,
        "supermarket_lon": 127.140544,
        "supermarket_type": "마트",
        "supermarket_name": "홈플러스(주)익스프레스 길동점",
        "distance": 60.64578737319353,
        "walking_time": "약 1분"
      },
      {
        "supermarket_lat": 37.53608469,
        "supermarket_lon": 127.137474,
        "supermarket_type": "마트",
        "supermarket_name": "강동한신휴플러스",
        "distance": 420.5006571858432,
        "walking_time": "약 7분"
      },
      {
        "supermarket_lat": 37.5385076,
        "supermarket_lon": 127.1363642,
        "supermarket_type": "마트",
        "supermarket_name": "롯데쇼핑㈜롯데슈퍼길동점",
        "distance": 429.1479754795744,
        "walking_time": "약 7분"
      },
      {
        "supermarket_lat": 37.54260895,
        "supermarket_lon": 127.1436538,
        "supermarket_type": "마트",
        "supermarket_name": "동서울오네뜨상가",
        "distance": 512.9794805313092,
        "walking_time": "약 8분"
      },
      {
        "supermarket_lat": 37.54571459,
        "supermarket_lon": 127.1422553,
        "supermarket_type": "마트",
        "supermarket_name": "홈플러스 강동점",
        "distance": 816.6957316282118,
        "walking_time": "약 13분"
      },
      {
        "supermarket_lat": 37.52688264,
        "supermarket_lon": 127.1346956,
        "supermarket_type": "마트",
        "supermarket_name": "파크프라자 상가",
        "distance": 1405.8424780212524,
        "walking_time": "약 21분"
      }
    ],
    "tax_office": [
      {
        "tax_office_lat": 37.53459594,
        "tax_office_lon": 127.1381166,
        "tax_office_type": "세무서",
        "tax_office_name": "강동세무서",
        "distance": 505.6653640333699,
        "walking_time": "약 8분"
      }
    ],
    "theater": [
      {
        "theater_lat": 37.5457145865749,
        "theater_lon": 127.14225531407,
        "theater_type": "영화관",
        "theater_name": "CGV 천호",
        "distance": 816.6954904244418,
        "walking_time": "약 13분"
      }
    ]
  }
}