{
  "클러스터_위도": 37.563129,
  "클러스터_경도": 127.009255,
  "클러스터_level": 3.0,
  "facilities": {
    "bus": [
      {
        "bus_lat": 37.56440161,
        "bus_lon": 127.0096779,
        "bus_type": "버스정류장",
        "bus_name": "광희문.광희동사거리",
        "distance": 146.33481634090998,
        "walking_time": "약 3분"
      },
      {
        "bus_lat": 37.56459135,
        "bus_lon": 127.0089473,
        "bus_type": "버스정류장",
        "bus_name": "토요코인호텔.이비스버젯호텔",
        "distance": 164.8521549510168,
        "walking_time": "약 3분"
      },
      {
        "bus_lat": 37.56454992,
        "bus_lon": 127.008611,
        "bus_type": "버스정류장",
        "bus_name": "광희문.광희동사거리",
        "distance": 167.8861473634504,
        "walking_time": "약 3분"
      },
      {
        "bus_lat": 37.56473333,
        "bus_lon": 127.0075553,
        "bus_type": "버스정류장",
        "bus_name": "광희동더스프라지르서울동대문",
        "distance": 232.9556718536693,
        "walking_time": "약 4분"
      },
      {
        "bus_lat": 37.56227366,
        "bus_lon": 127.006675,
        "bus_type": "버스정류장",
        "bus_name": "장충동써미트호텔",
        "distance": 246.49610022490893,
        "walking_time": "약 4분"
      },
      {
        "bus_lat": 37.56538519,
        "bus_lon": 127.0092451,
        "bus_type": "버스정류장",
        "bus_name": "동대문역사문화공원",
        "distance": 250.87839906207023,
        "walking_time": "약 4분"
      },
      {
        "bus_lat": 37.56541133,
        "bus_lon": 127.0091092,
        "bus_type": "버스정류장",
        "bus_name": "동대문역사문화공원",
        "distance": 254.10867779638323,
        "walking_time": "약 4분"
      },
      {
        "bus_lat": 37.56517255,
        "bus_lon": 127.0077223,
        "bus_type": "버스정류장",
        "bus_name": "광희동",
        "distance": 264.35748450146974,
        "walking_time": "약 4분"
      },
      {
        "bus_lat": 37.56505283,
        "bus_lon": 127.0072097,
        "bus_type": "버스정류장",
        "bus_name": "광희동",
        "distance": 279.7514813607105,
        "walking_time": "약 5분"
      },
      {
        "bus_lat": 37.56062132,
        "bus_lon": 127.0059098,
        "bus_type": "버스정류장",
        "bus_name": "장충동.동국대입구",
        "distance": 405.82497958634985,
        "walking_time": "약 7분"
      }
    ],
    "community_center": [
      {
        "community_center_lat": 37.56190715,
        "community_center_lon": 127.0078401,
        "community_center_type": "주민센터",
        "community_center_name": "장충동 자치회관",
        "distance": 184.42435988962112,
        "walking_time": "약 3분"
      },
      {
        "community_center_lat": 37.56446028,
        "community_center_lon": 127.005037,
        "community_center_type": "주민센터",
        "community_center_name": "광희동 자치회관",
        "distance": 400.1676742915874,
        "walking_time": "약 6분"
      },
      {
        "community_center_lat": 37.56203798,
        "community_center_lon": 127.0144679,
        "community_center_type": "주민센터",
        "community_center_name": "신당동 자치회관",
        "distance": 475.2256429900584,
        "walking_time": "약 8분"
      },
      {
        "community_center_lat": 37.55706761,
        "community_center_lon": 127.0146854,
        "community_center_type": "주민센터",
        "community_center_name": "청구동 자치회관",
        "distance": 826.6755670551631,
        "walking_time": "약 13분"
      },
      {
        "community_center_lat": 37.55986467,
        "community_center_lon": 127.0190343,
        "community_center_type": "주민센터",
        "community_center_name": "동화동 자치회관",
        "distance": 935.2945545921116,
        "walking_time": "약 14분"
      },
      {
        "community_center_lat": 37.55433289,
        "community_center_lon": 127.0082945,
        "community_center_type": "주민센터",
        "community_center_name": "다산동 자치회관",
        "distance": 981.740414387672,
        "walking_time": "약 15분"
      },
      {
        "community_center_lat": 37.57071856,
        "community_center_lon": 127.0163431,
        "community_center_type": "주민센터",
        "community_center_name": "창신제1동 자치회관",
        "distance": 1049.994472348361,
        "walking_time": "약 16분"
      },
      {
        "community_center_lat": 37.57206117,
        "community_center_lon": 127.0050313,
        "community_center_type": "주민센터",
        "community_center_name": "종로5.6가동 자치회관",
        "distance": 1060.6840018483338,
        "walking_time": "약 16분"
      },
      {
        "community_center_lat": 37.55247345,
        "community_center_lon": 127.0089948,
        "community_center_type": "주민센터",
        "community_center_name": "약수동 자치회관",
        "distance": 1185.065080298034,
        "walking_time": "약 18분"
      },
      {
        "community_center_lat": 37.56015769,
        "community_center_lon": 126.9955974,
        "community_center_type": "주민센터",
        "community_center_name": "필동 자치회관",
        "distance": 1248.3509466411474,
        "walking_time": "약 19분"
      }
    ],
    "convenience_store": [
      {
        "convenience_store_lat": 37.56426901,
        "convenience_store_lon": 127.0092491,
        "convenience_store_type": "편의점",
        "convenience_store_name": "GS25 광희제일점",
        "distance": 126.7643950175312,
        "walking_time": "약 2분"
      },
      {
        "convenience_store_lat": 37.56415528,
        "convenience_store_lon": 127.0083529,
        "convenience_store_type": "편의점",
        "convenience_store_name": "세븐일레븐 광희이비스점",
        "distance": 139.08618231650186,
        "walking_time": "약 3분"
      },
      {
        "convenience_store_lat": 37.56213715,
        "convenience_store_lon": 127.0105484,
        "convenience_store_type": "편의점",
        "convenience_store_name": "GS25 광희문점",
        "distance": 158.62057982270062,
        "walking_time": "약 3분"
      },
      {
        "convenience_store_lat": 37.56449868,
        "convenience_store_lon": 127.0080135,
        "convenience_store_type": "편의점",
        "convenience_store_name": "세븐일레븐 광희재형점",
        "distance": 187.5370112454065,
        "walking_time": "약 3분"
      },
      {
        "convenience_store_lat": 37.56169258,
        "convenience_store_lon": 127.0071161,
        "convenience_store_type": "편의점",
        "convenience_store_name": "CU 중구장충점",
        "distance": 247.0922624582089,
        "walking_time": "약 4분"
      },
      {
        "convenience_store_lat": 37.56547043,
        "convenience_store_lon": 127.008947,
        "convenience_store_type": "편의점",
        "convenience_store_name": "CU 동대문APM점",
        "distance": 261.7666473531728,
        "walking_time": "약 4분"
      },
      {
        "convenience_store_lat": 37.56340819,
        "convenience_store_lon": 127.0123525,
        "convenience_store_type": "편의점",
        "convenience_store_name": "CU 신당광희문점",
        "distance": 274.7793796110468,
        "walking_time": "약 5분"
      },
      {
        "convenience_store_lat": 37.56157546,
        "convenience_store_lon": 127.0124121,
        "convenience_store_type": "편의점",
        "convenience_store_name": "GS25 광희청구점",
        "distance": 327.5347947504809,
        "walking_time": "약 5분"
      },
      {
        "convenience_store_lat": 37.56430347,
        "convenience_store_lon": 127.0057284,
        "convenience_store_type": "편의점",
        "convenience_store_name": "GS25 광희빌딩점",
        "distance": 337.1595306585571,
        "walking_time": "약 6분"
      },
      {
        "convenience_store_lat": 37.56365738,
        "convenience_store_lon": 127.0054305,
        "convenience_store_type": "편의점",
        "convenience_store_name": "세븐일레븐 중구디자이너스호텔점",
        "distance": 342.1805258298572,
        "walking_time": "약 6분"
      }
    ],
    "daycare": [
      {
        "daycare_lat": 37.56319426,
        "daycare_lon": 127.0073109,
        "daycare_type": "어린이집",
        "daycare_name": "경동어린이집",
        "distance": 171.51081552095687,
        "walking_time": "약 3분"
      },
      {
        "daycare_lat": 37.56313332,
        "daycare_lon": 127.0123996,
        "daycare_type": "어린이집",
        "daycare_name": "예랑어린이집",
        "distance": 277.17246528369674,
        "walking_time": "약 5분"
      },
      {
        "daycare_lat": 37.56223299,
        "daycare_lon": 127.0141014,
        "daycare_type": "어린이집",
        "daycare_name": "신당동어린이집",
        "distance": 438.6399799268842,
        "walking_time": "약 7분"
      },
      {
        "daycare_lat": 37.56396399,
        "daycare_lon": 127.0032756,
        "daycare_type": "어린이집",
        "daycare_name": "CJ키즈빌 어린이집",
        "distance": 535.1505145494798,
        "walking_time": "약 8분"
      },
      {
        "daycare_lat": 37.56125887,
        "daycare_lon": 127.0152778,
        "daycare_type": "어린이집",
        "daycare_name": "예지어린이집",
        "distance": 570.145067310078,
        "walking_time": "약 9분"
      },
      {
        "daycare_lat": 37.55831345,
        "daycare_lon": 127.0121588,
        "daycare_type": "어린이집",
        "daycare_name": "신당중앙어린이집",
        "distance": 593.4945542894196,
        "walking_time": "약 9분"
      },
      {
        "daycare_lat": 37.56085349,
        "daycare_lon": 127.0158287,
        "daycare_type": "어린이집",
        "daycare_name": "아기사랑어린이집",
        "distance": 632.2659223499813,
        "walking_time": "약 10분"
      },
      {
        "daycare_lat": 37.56000212173593,
        "daycare_lon": 127.0155196287449,
        "daycare_type": "어린이집",
        "daycare_name": "동화어린이집",
        "distance": 652.5367021115745,
        "walking_time": "약 10분"
      },
      {
        "daycare_lat": 37.56384837392489,
        "daycare_lon": 127.00120016320808,
        "daycare_type": "어린이집",
        "daycare_name": "중구청직장어린이집",
        "distance": 714.4598421347181,
        "walking_time": "약 11분"
      },
      {
        "daycare_lat": 37.56024397,
        "daycare_lon": 127.0017202,
        "daycare_type": "어린이집",
        "daycare_name": "충무어린이집",
        "distance": 737.566430848979,
        "walking_time": "약 12분"
      }
    ],
    "education": [
      {
        "education_lat": 37.55968044,
        "education_lon": 127.0062029,
        "education_type": "박물관/기념관",
        "education_name": "종이나라박물관",
        "distance": 468.4206580867232,
        "walking_time": "약 7분"
      },
      {
        "education_lat": 37.56689793,
        "education_lon": 127.0068075,
        "education_type": "미술관/갤러리",
        "education_name": "YK Presents",
        "distance": 471.3483314657807,
        "walking_time": "약 8분"
      },
      {
        "education_lat": 37.56710262553757,
        "education_lon": 127.01153416188669,
        "education_type": "박물관/기념관",
        "education_name": "동대문역사관",
        "distance": 485.3695256575325,
        "walking_time": "약 8분"
      },
      {
        "education_lat": 37.56781670060353,
        "education_lon": 127.01116073816152,
        "education_type": "박물관/기념관",
        "education_name": "동대문운동장기념관",
        "distance": 547.6442180559808,
        "walking_time": "약 9분"
      },
      {
        "education_lat": 37.56594097,
        "education_lon": 127.0147909,
        "education_type": "문화예술회관",
        "education_name": "충무아트센터",
        "distance": 579.5253662923935,
        "walking_time": "약 9분"
      },
      {
        "education_lat": 37.55962115,
        "education_lon": 127.0041031,
        "education_type": "박물관/기념관",
        "education_name": "한국현대문학관",
        "distance": 598.6313374845726,
        "walking_time": "약 9분"
      },
      {
        "education_lat": 37.55604739,
        "education_lon": 127.0116293,
        "education_type": "미술관/갤러리",
        "education_name": "RNL 로즈앤라임 갤러리",
        "distance": 814.7766509908782,
        "walking_time": "약 13분"
      },
      {
        "education_lat": 37.55821033013079,
        "education_lon": 127.00232862783749,
        "education_type": "박물관/기념관",
        "education_name": "동국대학교 박물관",
        "distance": 819.6802515934655,
        "walking_time": "약 13분"
      },
      {
        "education_lat": 37.57081871,
        "education_lon": 127.0080914,
        "education_type": "공연장",
        "education_name": "전통공연창작마루",
        "distance": 861.1852105688705,
        "walking_time": "약 13분"
      },
      {
        "education_lat": 37.56146912,
        "education_lon": 127.0198549,
        "education_type": "박물관/기념관",
        "education_name": "박정희 가옥",
        "distance": 952.3654316576412,
        "walking_time": "약 15분"
      }
    ],
    "electric_gas_station": [
      {
        "electric_gas_station_lat": 37.56059897,
        "electric_gas_station_lon": 127.002136,
        "electric_gas_station_type": "전기차 충전소",
        "electric_gas_station_name": "그랜드앰배서더 서울",
        "distance": 687.6734797097222,
        "walking_time": "약 11분"
      },
      {
        "electric_gas_station_lat": 37.5731338,
        "electric_gas_station_lon": 126.9948635,
        "electric_gas_station_type": "전기차 충전소",
        "electric_gas_station_name": "종묘 공영주차장",
        "distance": 1687.1549405914163,
        "walking_time": "약 26분"
      }
    ],
    "fitness": [
      {
        "fitness_lat": 37.56447664,
        "fitness_lon": 127.0108796,
        "fitness_type": "운동시설",
        "fitness_name": "피엘유",
        "distance": 207.267766462808,
        "walking_time": "약 4분"
      },
      {
        "fitness_lat": 37.56430347,
        "fitness_lon": 127.0057284,
        "fitness_type": "운동시설",
        "fitness_name": "파크짐",
        "distance": 337.1595306585571,
        "walking_time": "약 6분"
      },
      {
        "fitness_lat": 37.56455582,
        "fitness_lon": 127.0041723,
        "fitness_type": "운동시설",
        "fitness_name": "스카이 P.P",
        "distance": 475.2600037106672,
        "walking_time": "약 8분"
      },
      {
        "fitness_lat": 37.56099748,
        "fitness_lon": 127.0139787,
        "fitness_type": "운동시설",
        "fitness_name": "DDPT&PILATES",
        "distance": 479.0973011892607,
        "walking_time": "약 8분"
      },
      {
        "fitness_lat": 37.56017367,
        "fitness_lon": 127.0134438,
        "fitness_type": "운동시설",
        "fitness_name": "파크짐 청구점",
        "distance": 494.2784178301144,
        "walking_time": "약 8분"
      },
      {
        "fitness_lat": 37.5674871,
        "fitness_lon": 127.0080789,
        "fitness_type": "운동시설",
        "fitness_name": "시그니쳐 GYM",
        "distance": 495.56172654360256,
        "walking_time": "약 8분"
      },
      {
        "fitness_lat": 37.56067225,
        "fitness_lon": 127.0152204,
        "fitness_type": "운동시설",
        "fitness_name": "3S gym",
        "distance": 592.5410532047594,
        "walking_time": "약 9분"
      },
      {
        "fitness_lat": 37.55844227,
        "fitness_lon": 127.0130234,
        "fitness_type": "운동시설",
        "fitness_name": "Medi & Fit (메디 앤 핏)",
        "distance": 617.997999703581,
        "walking_time": "약 10분"
      },
      {
        "fitness_lat": 37.56241761,
        "fitness_lon": 127.0162507,
        "fitness_type": "운동시설",
        "fitness_name": "그로브짐",
        "distance": 621.6726950060465,
        "walking_time": "약 10분"
      },
      {
        "fitness_lat": 37.56101777,
        "fitness_lon": 127.0160023,
        "fitness_type": "운동시설",
        "fitness_name": "MONDO",
        "distance": 639.386981735531,
        "walking_time": "약 10분"
      }
    ],
    "gas_station": [
      {
        "gas_station_lat": 37.56275432,
        "gas_station_lon": 127.0070337,
        "gas_station_type": "주유소",
        "gas_station_name": "서울석유(주) 장충주유소",
        "distance": 200.1744579186107,
        "walking_time": "약 3분"
      },
      {
        "gas_station_lat": 37.55903679,
        "gas_station_lon": 127.012668,
        "gas_station_type": "주유소",
        "gas_station_name": "약수주유소",
        "distance": 545.4890837695611,
        "walking_time": "약 9분"
      },
      {
        "gas_station_lat": 37.56084671,
        "gas_station_lon": 127.0034149,
        "gas_station_type": "주유소",
        "gas_station_name": "씨앤에스유통(주) 장충드림주유소",
        "distance": 573.9243965101958,
        "walking_time": "약 9분"
      },
      {
        "gas_station_lat": 37.56396821,
        "gas_station_lon": 127.0157064,
        "gas_station_type": "주유소",
        "gas_station_name": "주식회사 타이거통상 다산주유소",
        "distance": 576.243485555358,
        "walking_time": "약 9분"
      },
      {
        "gas_station_lat": 37.56460799,
        "gas_station_lon": 127.016496,
        "gas_station_type": "주유소",
        "gas_station_name": "신당동주유소",
        "distance": 659.079169969533,
        "walking_time": "약 10분"
      },
      {
        "gas_station_lat": 37.55603768,
        "gas_station_lon": 127.0092769,
        "gas_station_type": "주유소",
        "gas_station_name": "현대오일뱅크(주) 직영장원주유소",
        "distance": 788.52117016528,
        "walking_time": "약 12분"
      },
      {
        "gas_station_lat": 37.5617133,
        "gas_station_lon": 126.9971343,
        "gas_station_type": "주유소",
        "gas_station_name": "SK에너지 직영 퇴계로주유소",
        "distance": 1079.8909628565746,
        "walking_time": "약 17분"
      },
      {
        "gas_station_lat": 37.56087822,
        "gas_station_lon": 126.9936634,
        "gas_station_type": "주유소",
        "gas_station_name": "필동주유소",
        "distance": 1396.9022512457357,
        "walking_time": "약 21분"
      }
    ],
    "hospital": [
      {
        "hospital_lat": 37.5640163,
        "hospital_lon": 127.0077253,
        "hospital_type": "병원",
        "hospital_name": "리쥬엘의원",
        "distance": 167.07383492004453,
        "walking_time": "약 3분"
      },
      {
        "hospital_lat": 37.56390306,
        "hospital_lon": 127.0074812,
        "hospital_type": "병원",
        "hospital_name": "선우엔조신경과의원",
        "distance": 178.47224906646534,
        "walking_time": "약 3분"
      },
      {
        "hospital_lat": 37.56390306,
        "hospital_lon": 127.0074812,
        "hospital_type": "병원",
        "hospital_name": "수려한치과의원",
        "distance": 178.47224906646534,
        "walking_time": "약 3분"
      },
      {
        "hospital_lat": 37.56335843,
        "hospital_lon": 127.0071542,
        "hospital_type": "병원",
        "hospital_name": "민일치과의원",
        "distance": 186.9180573952568,
        "walking_time": "약 3분"
      },
      {
        "hospital_lat": 37.56377144,
        "hospital_lon": 127.007274,
        "hospital_type": "병원",
        "hospital_name": "최정형외과의원",
        "distance": 188.65687526459607,
        "walking_time": "약 3분"
      },
      {
        "hospital_lat": 37.56277489,
        "hospital_lon": 127.0064992,
        "hospital_type": "병원",
        "hospital_name": "청아치과의원",
        "distance": 246.07365791796863,
        "walking_time": "약 4분"
      },
      {
        "hospital_lat": 37.56277489,
        "hospital_lon": 127.0064992,
        "hospital_type": "병원",
        "hospital_name": "한사랑의원",
        "distance": 246.07365791796863,
        "walking_time": "약 4분"
      },
      {
        "hospital_lat": 37.56536942,
        "hospital_lon": 127.0090411,
        "hospital_type": "병원",
        "hospital_name": "동대문삼성내과의원",
        "distance": 249.8357174732852,
        "walking_time": "약 4분"
      },
      {
        "hospital_lat": 37.5624373,
        "hospital_lon": 127.0063431,
        "hospital_type": "병원",
        "hospital_name": "수내과의원",
        "distance": 267.9390912269947,
        "walking_time": "약 4분"
      },
      {
        "hospital_lat": 37.5624373,
        "hospital_lon": 127.0063431,
        "hospital_type": "병원",
        "hospital_name": "장충한의원",
        "distance": 267.9390912269947,
        "walking_time": "약 4분"
      }
    ],
    "music_room": [
      {
        "music_room_lat": 37.56120181,
        "music_room_lon": 127.0053783,
        "music_room_type": "노래방",
        "music_room_name": "대박 노래연습장",
        "distance": 403.3415355012929,
        "walking_time": "약 7분"
      },
      {
        "music_room_lat": 37.56599299,
        "music_room_lon": 127.0062974,
        "music_room_type": "노래방",
        "music_room_name": "캐슬 노래연습장",
        "distance": 411.5505935800563,
        "walking_time": "약 7분"
      },
      {
        "music_room_lat": 37.56066337,
        "music_room_lon": 127.0055621,
        "music_room_type": "노래방",
        "music_room_name": "특급노래연습장",
        "distance": 425.582884162236,
        "walking_time": "약 7분"
      },
      {
        "music_room_lat": 37.56073564,
        "music_room_lon": 127.0052163,
        "music_room_type": "노래방",
        "music_room_name": "천수",
        "distance": 444.4668204609325,
        "walking_time": "약 7분"
      },
      {
        "music_room_lat": 37.56314383,
        "music_room_lon": 127.0147397,
        "music_room_type": "노래방",
        "music_room_name": "악쓰는 하마",
        "distance": 483.4364542263511,
        "walking_time": "약 8분"
      },
      {
        "music_room_lat": 37.56371945,
        "music_room_lon": 127.0149436,
        "music_room_type": "노래방",
        "music_room_name": "다온다 노래연습장",
        "distance": 505.6841498910246,
        "walking_time": "약 8분"
      },
      {
        "music_room_lat": 37.56383566,
        "music_room_lon": 127.0151166,
        "music_room_type": "노래방",
        "music_room_name": "그리스",
        "distance": 522.5932287303197,
        "walking_time": "약 8분"
      },
      {
        "music_room_lat": 37.56383566,
        "music_room_lon": 127.0151166,
        "music_room_type": "노래방",
        "music_room_name": "쭈쭈바 노래연습장",
        "distance": 522.5932287303197,
        "walking_time": "약 8분"
      },
      {
        "music_room_lat": 37.56771138,
        "music_room_lon": 127.007766,
        "music_room_type": "노래방",
        "music_room_name": "뮤직이너스 노래연습장",
        "distance": 526.1675023881701,
        "walking_time": "약 8분"
      },
      {
        "music_room_lat": 37.56350354,
        "music_room_lon": 127.0152527,
        "music_room_type": "노래방",
        "music_room_name": "우리노래연습장",
        "distance": 530.2872591096742,
        "walking_time": "약 8분"
      }
    ],
    "outdoor_sports": [
      {
        "outdoor_sports_lat": 37.5673947880932,
        "outdoor_sports_lon": 127.003544929278,
        "outdoor_sports_type": "야외 체육시설",
        "outdoor_sports_name": "훈련원근린공원",
        "distance": 691.5833140773668,
        "walking_time": "약 11분"
      },
      {
        "outdoor_sports_lat": 37.56375032,
        "outdoor_sports_lon": 127.0186793,
        "outdoor_sports_type": "야외 체육시설",
        "outdoor_sports_name": "충현어린이공원",
        "distance": 833.5434287139439,
        "walking_time": "약 13분"
      },
      {
        "outdoor_sports_lat": 37.5637804953142,
        "outdoor_sports_lon": 126.999800113588,
        "outdoor_sports_type": "야외 체육시설",
        "outdoor_sports_name": "신당동 산 49",
        "distance": 836.5138524079792,
        "walking_time": "약 13분"
      },
      {
        "outdoor_sports_lat": 37.5602724243742,
        "outdoor_sports_lon": 127.018131314772,
        "outdoor_sports_type": "야외 체육시설",
        "outdoor_sports_name": "동화어린이공원",
        "distance": 844.412322481873,
        "walking_time": "약 13분"
      },
      {
        "outdoor_sports_lat": 37.5577182811759,
        "outdoor_sports_lon": 127.016893786719,
        "outdoor_sports_type": "야외 체육시설",
        "outdoor_sports_name": "응봉근린공원 삼성아파트 데크운동기구",
        "distance": 902.9626177909944,
        "walking_time": "약 14분"
      },
      {
        "outdoor_sports_lat": 37.56748267,
        "outdoor_sports_lon": 127.0180129,
        "outdoor_sports_type": "야외 체육시설",
        "outdoor_sports_name": "쌍림어린이공원",
        "distance": 911.1621519275784,
        "walking_time": "약 14분"
      },
      {
        "outdoor_sports_lat": 37.56753166289,
        "outdoor_sports_lon": 127.018124132041,
        "outdoor_sports_type": "야외 체육시설",
        "outdoor_sports_name": "황학어린이공원",
        "distance": 922.362266395099,
        "walking_time": "약 14분"
      },
      {
        "outdoor_sports_lat": 37.5516395461676,
        "outdoor_sports_lon": 127.014673197932,
        "outdoor_sports_type": "야외 체육시설",
        "outdoor_sports_name": "응봉근린공원신당동 309-61",
        "distance": 1363.925482632231,
        "walking_time": "약 21분"
      },
      {
        "outdoor_sports_lat": 37.5511796049381,
        "outdoor_sports_lon": 127.004411924978,
        "outdoor_sports_type": "야외 체육시설",
        "outdoor_sports_name": "마루소공원",
        "distance": 1395.6113859641623,
        "walking_time": "약 21분"
      }
    ],
    "park": [
      {
        "park_lat": 37.5675245,
        "park_lon": 127.0038188,
        "park_type": "공원",
        "park_name": "훈련원근린공원",
        "distance": 684.4437883948602,
        "walking_time": "약 11분"
      },
      {
        "park_lat": 37.5764419,
        "park_lon": 127.0178267,
        "park_type": "공원",
        "park_name": "숭인근린공원",
        "distance": 1661.953527956565,
        "walking_time": "약 25분"
      },
      {
        "park_lat": 37.5501402,
        "park_lon": 126.9903773,
        "park_type": "공원",
        "park_name": "남산공원",
        "distance": 2203.4270448135294,
        "walking_time": "약 33분"
      }
    ],
    "park_station": [
      {
        "park_station_lat": 37.56324343,
        "park_station_lon": 127.0101518,
        "park_station_type": "주차장",
        "park_station_name": "공유) 광희동 01",
        "distance": 80.0634374433566,
        "walking_time": "약 2분"
      },
      {
        "park_station_lat": 37.56577472,
        "park_station_lon": 127.0085615,
        "park_station_type": "주차장",
        "park_station_name": "APM플레이스 앞 관광버스 주차허용 구간",
        "distance": 300.473736707214,
        "walking_time": "약 5분"
      },
      {
        "park_station_lat": 37.56333914,
        "park_station_lon": 127.0056706,
        "park_station_type": "주차장",
        "park_station_name": "공유) 광희동 01",
        "distance": 316.7994729840187,
        "walking_time": "약 5분"
      },
      {
        "park_station_lat": 37.56596125,
        "park_station_lon": 127.0105164,
        "park_station_type": "주차장",
        "park_station_name": "DDP동측 관광버스전용 주차장",
        "distance": 333.98077907258687,
        "walking_time": "약 5분"
      },
      {
        "park_station_lat": 37.56206528,
        "park_station_lon": 127.0144554,
        "park_station_type": "주차장",
        "park_station_name": "신당동 공영주차장",
        "distance": 473.3927843251118,
        "walking_time": "약 8분"
      },
      {
        "park_station_lat": 37.56707821,
        "park_station_lon": 127.0069386,
        "park_station_type": "주차장",
        "park_station_name": "공유) 국립중앙의료원",
        "distance": 484.2739736688541,
        "walking_time": "약 8분"
      },
      {
        "park_station_lat": 37.56705256,
        "park_station_lon": 127.0120886,
        "park_station_type": "주차장",
        "park_station_name": "동대문 공영주차장",
        "distance": 502.7095514370182,
        "walking_time": "약 8분"
      },
      {
        "park_station_lat": 37.56774375,
        "park_station_lon": 127.0118089,
        "park_station_type": "주차장",
        "park_station_name": "DDP 유어스빌딩 앞 관광버스 주차허용 구간",
        "distance": 560.3384102892453,
        "walking_time": "약 9분"
      },
      {
        "park_station_lat": 37.55896481,
        "park_station_lon": 127.0133931,
        "park_station_type": "주차장",
        "park_station_name": "청구 공영주차장",
        "distance": 589.4461614530433,
        "walking_time": "약 9분"
      },
      {
        "park_station_lat": 37.56826217,
        "park_station_lon": 127.0109305,
        "park_station_type": "주차장",
        "park_station_name": "DDP북측 마장로 관광버스전용 주차장",
        "distance": 589.5771190969142,
        "walking_time": "약 9분"
      }
    ],
    "pc_room": [
      {
        "pc_room_lat": 37.5677456759075,
        "pc_room_lon": 127.008181175525,
        "pc_room_type": "PC방",
        "pc_room_name": "긱스타PC카페",
        "distance": 522.0029868186887,
        "walking_time": "약 8분"
      },
      {
        "pc_room_lat": 37.5628525208577,
        "pc_room_lon": 127.015591399432,
        "pc_room_type": "PC방",
        "pc_room_name": "긱스타PC",
        "distance": 559.3509040539097,
        "walking_time": "약 9분"
      },
      {
        "pc_room_lat": 37.5650353249966,
        "pc_room_lon": 127.016545009327,
        "pc_room_type": "PC방",
        "pc_room_name": "액션pc방",
        "distance": 676.6111461342517,
        "walking_time": "약 11분"
      },
      {
        "pc_room_lat": 37.557547102304,
        "pc_room_lon": 127.012459378311,
        "pc_room_type": "PC방",
        "pc_room_name": "W 피씨방",
        "distance": 681.9244669021481,
        "walking_time": "약 11분"
      },
      {
        "pc_room_lat": 37.5648330408316,
        "pc_room_lon": 127.017248085681,
        "pc_room_type": "PC방",
        "pc_room_name": "놀이터 PC",
        "distance": 729.5559222970115,
        "walking_time": "약 11분"
      },
      {
        "pc_room_lat": 37.5615295383478,
        "pc_room_lon": 127.017847531193,
        "pc_room_type": "PC방",
        "pc_room_name": "제로백 신당점 주식회사",
        "distance": 777.9750578211325,
        "walking_time": "약 12분"
      },
      {
        "pc_room_lat": 37.564876288419,
        "pc_room_lon": 127.017855686798,
        "pc_room_type": "PC방",
        "pc_room_name": "둥이PC방",
        "distance": 782.5764449736599,
        "walking_time": "약 12분"
      },
      {
        "pc_room_lat": 37.5597118609575,
        "pc_room_lon": 127.000948559978,
        "pc_room_type": "PC방",
        "pc_room_name": "SPACE PC",
        "distance": 824.8888275008719,
        "walking_time": "약 13분"
      },
      {
        "pc_room_lat": 37.5626194326071,
        "pc_room_lon": 127.018696899098,
        "pc_room_type": "PC방",
        "pc_room_name": "HARU PC",
        "distance": 834.159509019592,
        "walking_time": "약 13분"
      },
      {
        "pc_room_lat": 37.5556464697381,
        "pc_room_lon": 127.010372365931,
        "pc_room_type": "PC방",
        "pc_room_name": "THE RED'S PC방",
        "distance": 837.8287270800865,
        "walking_time": "약 13분"
      }
    ],
    "police_office": [
      {
        "police_office_lat": 37.56526845,
        "police_office_lon": 127.0133764,
        "police_office_type": "경찰소",
        "police_office_name": "광희지구대",
        "distance": 434.2296145755989,
        "walking_time": "약 7분"
      },
      {
        "police_office_lat": 37.56647342,
        "police_office_lon": 127.0039437,
        "police_office_type": "경찰소",
        "police_office_name": "을지지구대",
        "distance": 597.8720956224826,
        "walking_time": "약 9분"
      },
      {
        "police_office_lat": 37.55876338,
        "police_office_lon": 127.004802,
        "police_office_type": "경찰소",
        "police_office_name": "장충파출소",
        "distance": 624.2676818565016,
        "walking_time": "약 10분"
      },
      {
        "police_office_lat": 37.56504427,
        "police_office_lon": 127.016385,
        "police_office_type": "경찰소",
        "police_office_name": "신당파출소",
        "distance": 663.5509801372596,
        "walking_time": "약 10분"
      },
      {
        "police_office_lat": 37.57073671,
        "police_office_lon": 127.0016317,
        "police_office_type": "경찰소",
        "police_office_name": "종로5가파출소",
        "distance": 1080.306651389307,
        "walking_time": "약 17분"
      },
      {
        "police_office_lat": 37.57294307,
        "police_office_lon": 127.0048665,
        "police_office_type": "경찰소",
        "police_office_name": "효제파출소",
        "distance": 1157.7929969948786,
        "walking_time": "약 18분"
      },
      {
        "police_office_lat": 37.55214428,
        "police_office_lon": 127.0123821,
        "police_office_type": "경찰소",
        "police_office_name": "약수지구대",
        "distance": 1252.1625599499798,
        "walking_time": "약 19분"
      },
      {
        "police_office_lat": 37.57269632,
        "police_office_lon": 127.0171175,
        "police_office_type": "경찰소",
        "police_office_name": "동묘파출소",
        "distance": 1269.6309587640294,
        "walking_time": "약 19분"
      },
      {
        "police_office_lat": 37.5547388,
        "police_office_lon": 127.0196183,
        "police_office_type": "경찰소",
        "police_office_name": "금호파출소",
        "distance": 1305.7051537642044,
        "walking_time": "약 20분"
      },
      {
        "police_office_lat": 37.57598518,
        "police_office_lon": 127.0105262,
        "police_office_type": "경찰소",
        "police_office_name": "덕산파출소",
        "distance": 1433.925568747818,
        "walking_time": "약 22분"
      }
    ],
    "post_office": [
      {
        "post_office_lat": 37.56122837,
        "post_office_lon": 127.0126796,
        "post_office_type": "우체국",
        "post_office_name": "서울신당1동우편취급국",
        "distance": 368.4856214477144,
        "walking_time": "약 6분"
      },
      {
        "post_office_lat": 37.56565287,
        "post_office_lon": 127.0159078,
        "post_office_type": "우체국",
        "post_office_name": "서울흥인동우체국",
        "distance": 650.0802563135168,
        "walking_time": "약 10분"
      },
      {
        "post_office_lat": 37.5627438,
        "post_office_lon": 127.0016523,
        "post_office_type": "우체국",
        "post_office_name": "서울퇴계로5가우체국",
        "distance": 671.4881319790496,
        "walking_time": "약 11분"
      },
      {
        "post_office_lat": 37.55489649,
        "post_office_lon": 127.0112731,
        "post_office_type": "우체국",
        "post_office_name": "서울신당동우체국",
        "distance": 932.5375730308612,
        "walking_time": "약 14분"
      },
      {
        "post_office_lat": 37.56052979,
        "post_office_lon": 127.0195396,
        "post_office_type": "우체국",
        "post_office_name": "서울신당현대우편취급국",
        "distance": 951.4812794187768,
        "walking_time": "약 15분"
      },
      {
        "post_office_lat": 37.55893664,
        "post_office_lon": 126.9987376,
        "post_office_type": "우체국",
        "post_office_name": "동국대학교우편취급국",
        "distance": 1037.6614455013291,
        "walking_time": "약 16분"
      },
      {
        "post_office_lat": 37.5728892,
        "post_office_lon": 127.0065961,
        "post_office_type": "우체국",
        "post_office_name": "서울종로6가우편취급국",
        "distance": 1110.2977025194048,
        "walking_time": "약 17분"
      },
      {
        "post_office_lat": 37.57237657,
        "post_office_lon": 127.0142845,
        "post_office_type": "우체국",
        "post_office_name": "서울창신1동우편취급국",
        "distance": 1119.761675547193,
        "walking_time": "약 17분"
      },
      {
        "post_office_lat": 37.5711774,
        "post_office_lon": 127.0008747,
        "post_office_type": "우체국",
        "post_office_name": "서울종로5가우체국",
        "distance": 1160.37796385485,
        "walking_time": "약 18분"
      },
      {
        "post_office_lat": 37.56620281,
        "post_office_lon": 126.9951631,
        "post_office_type": "우체국",
        "post_office_name": "서울을지로4가우체국",
        "distance": 1288.2350110230243,
        "walking_time": "약 20분"
      }
    ],
    "public_health_center": [
      {
        "public_health_center_lat": 37.56458574,
        "public_health_center_lon": 127.0150951,
        "public_health_center_type": "보건소",
        "public_health_center_name": "중구보건소",
        "distance": 539.6390442235906,
        "walking_time": "약 9분"
      },
      {
        "public_health_center_lat": 37.55433289,
        "public_health_center_lon": 127.0082945,
        "public_health_center_type": "보건소",
        "public_health_center_name": "다산동 주민센터",
        "distance": 981.740414387672,
        "walking_time": "약 15분"
      },
      {
        "public_health_center_lat": 37.55247345,
        "public_health_center_lon": 127.0089948,
        "public_health_center_type": "보건소",
        "public_health_center_name": "약수동주민센터",
        "distance": 1185.065080298034,
        "walking_time": "약 18분"
      }
    ],
    "school": [
      {
        "school_lat": 37.5658716036039,
        "school_lon": 127.011443307588,
        "school_type": "고등학교",
        "school_name": "한양공업고등학교",
        "distance": 360.83932385942455,
        "walking_time": "약 6분"
      },
      {
        "school_lat": 37.5658716036039,
        "school_lon": 127.011443307588,
        "school_type": "중학교",
        "school_name": "한양중학교",
        "distance": 360.83932385942455,
        "walking_time": "약 6분"
      },
      {
        "school_lat": 37.559971222213,
        "school_lon": 127.01170475684,
        "school_type": "초등학교",
        "school_name": "서울장충초등학교",
        "distance": 412.2110405857964,
        "walking_time": "약 7분"
      },
      {
        "school_lat": 37.5658547150955,
        "school_lon": 127.0135246262,
        "school_type": "고등학교",
        "school_name": "성동글로벌경영고등학교",
        "distance": 483.2011131517198,
        "walking_time": "약 8분"
      },
      {
        "school_lat": 37.5609374871352,
        "school_lon": 127.014616166709,
        "school_type": "초등학교",
        "school_name": "서울흥인초등학교",
        "distance": 531.6840784035782,
        "walking_time": "약 8분"
      },
      {
        "school_lat": 37.5591166793514,
        "school_lon": 127.013724413955,
        "school_type": "초등학교",
        "school_name": "서울청구초등학교",
        "distance": 595.1889427787452,
        "walking_time": "약 9분"
      },
      {
        "school_lat": 37.5619494839149,
        "school_lon": 127.001235055009,
        "school_type": "초등학교",
        "school_name": "서울충무초등학교",
        "distance": 718.965636430822,
        "walking_time": "약 11분"
      },
      {
        "school_lat": 37.5672992845452,
        "school_lon": 127.015687859678,
        "school_type": "초등학교",
        "school_name": "서울광희초등학교",
        "distance": 732.4681619640481,
        "walking_time": "약 11분"
      },
      {
        "school_lat": 37.5693631529572,
        "school_lon": 127.017281730243,
        "school_type": "고등학교",
        "school_name": "성동공업고등학교",
        "distance": 990.4749092741029,
        "walking_time": "약 15분"
      },
      {
        "school_lat": 37.5562046295135,
        "school_lon": 127.016725380867,
        "school_type": "초등학교",
        "school_name": "동산초등학교",
        "distance": 1013.1313529203964,
        "walking_time": "약 16분"
      }
    ],
    "self_laundromat": [
      {
        "self_laundromat_lat": 37.56242386,
        "self_laundromat_lon": 127.0172987,
        "self_laundromat_type": "셀프 빨래방",
        "self_laundromat_name": "크린토피아 코인워시365 신당6동점",
        "distance": 713.3154310789885,
        "walking_time": "약 11분"
      },
      {
        "self_laundromat_lat": 37.56242386,
        "self_laundromat_lon": 127.0172987,
        "self_laundromat_type": "셀프 빨래방",
        "self_laundromat_name": "크린토피아 코인워시365 신당6동점",
        "distance": 713.3154310789885,
        "walking_time": "약 11분"
      },
      {
        "self_laundromat_lat": 37.55871985,
        "self_laundromat_lon": 127.0022129,
        "self_laundromat_type": "셀프 빨래방",
        "self_laundromat_name": "워시프렌즈 장충동국대점",
        "distance": 790.99236379637,
        "walking_time": "약 12분"
      },
      {
        "self_laundromat_lat": 37.55871985,
        "self_laundromat_lon": 127.0022129,
        "self_laundromat_type": "셀프 빨래방",
        "self_laundromat_name": "워시프렌즈 장충동국대점",
        "distance": 790.99236379637,
        "walking_time": "약 12분"
      },
      {
        "self_laundromat_lat": 37.56138472,
        "self_laundromat_lon": 127.0180287,
        "self_laundromat_type": "셀프 빨래방",
        "self_laundromat_name": "화이트365 신당점",
        "distance": 797.293707760288,
        "walking_time": "약 12분"
      },
      {
        "self_laundromat_lat": 37.56138472,
        "self_laundromat_lon": 127.0180287,
        "self_laundromat_type": "셀프 빨래방",
        "self_laundromat_name": "화이트365 신당점",
        "distance": 797.293707760288,
        "walking_time": "약 12분"
      },
      {
        "self_laundromat_lat": 37.5668676,
        "self_laundromat_lon": 127.0171229,
        "self_laundromat_type": "셀프 빨래방",
        "self_laundromat_name": "화이트365 신당역점",
        "distance": 808.5343127144063,
        "walking_time": "약 13분"
      },
      {
        "self_laundromat_lat": 37.5668676,
        "self_laundromat_lon": 127.0171229,
        "self_laundromat_type": "셀프 빨래방",
        "self_laundromat_name": "화이트365 신당역점",
        "distance": 808.5343127144063,
        "walking_time": "약 13분"
      },
      {
        "self_laundromat_lat": 37.56132626,
        "self_laundromat_lon": 126.9985982,
        "self_laundromat_type": "셀프 빨래방",
        "self_laundromat_name": "마이리틀빨래방",
        "distance": 960.4763334309554,
        "walking_time": "약 15분"
      },
      {
        "self_laundromat_lat": 37.56132626,
        "self_laundromat_lon": 126.9985982,
        "self_laundromat_type": "셀프 빨래방",
        "self_laundromat_name": "마이리틀빨래방",
        "distance": 960.4763334309554,
        "walking_time": "약 15분"
      }
    ],
    "subway": [
      {
        "subway_lat": 37.5650787698586,
        "subway_lon": 127.007550653481,
        "subway_type": "지하철",
        "subway_name": "4호선-동대문역사문화공원(DDP)역",
        "distance": 263.7633963190043,
        "walking_time": "약 4분"
      },
      {
        "subway_lat": 37.5655895229776,
        "subway_lon": 127.009131498424,
        "subway_type": "지하철",
        "subway_name": "2호선-동대문역사문화공원(DDP)역",
        "distance": 273.8141354451586,
        "walking_time": "약 5분"
      },
      {
        "subway_lat": 37.5645770081888,
        "subway_lon": 127.005916180124,
        "subway_type": "지하철",
        "subway_name": "5호선-동대문역사문화공원(DDP)역",
        "distance": 335.4550969402171,
        "walking_time": "약 6분"
      },
      {
        "subway_lat": 37.5602939125022,
        "subway_lon": 127.013806006802,
        "subway_type": "지하철",
        "subway_name": "5호선-청구역",
        "distance": 510.1931146869963,
        "walking_time": "약 8분"
      },
      {
        "subway_lat": 37.5602939125022,
        "subway_lon": 127.013806006802,
        "subway_type": "지하철",
        "subway_name": "6호선-청구역",
        "distance": 510.1931146869963,
        "walking_time": "약 8분"
      },
      {
        "subway_lat": 37.559030224347,
        "subway_lon": 127.005460196954,
        "subway_type": "지하철",
        "subway_name": "3호선-동대입구역",
        "distance": 565.3358280978127,
        "walking_time": "약 9분"
      },
      {
        "subway_lat": 37.5662738884121,
        "subway_lon": 127.016153533586,
        "subway_type": "지하철",
        "subway_name": "6호선-신당역",
        "distance": 701.4262821248963,
        "walking_time": "약 11분"
      },
      {
        "subway_lat": 37.5704117093421,
        "subway_lon": 127.009546610861,
        "subway_type": "지하철",
        "subway_name": "4호선-동대문역",
        "distance": 810.2081014951724,
        "walking_time": "약 13분"
      },
      {
        "subway_lat": 37.5656540317328,
        "subway_lon": 127.019540574485,
        "subway_type": "지하철",
        "subway_name": "2호선-신당역",
        "distance": 949.0606221789092,
        "walking_time": "약 15분"
      },
      {
        "subway_lat": 37.5545595558163,
        "subway_lon": 127.010822526737,
        "subway_type": "지하철",
        "subway_name": "3호선-약수역",
        "distance": 962.8445858810172,
        "walking_time": "약 15분"
      }
    ],
    "supermarket": [
      {
        "supermarket_lat": 37.56531919,
        "supermarket_lon": 127.0084303,
        "supermarket_type": "마트",
        "supermarket_name": "에이피엠플레이스",
        "distance": 254.15463132191857,
        "walking_time": "약 4분"
      },
      {
        "supermarket_lat": 37.56576004,
        "supermarket_lon": 127.0070796,
        "supermarket_type": "마트",
        "supermarket_name": "던던 동대문점",
        "distance": 349.7928742060321,
        "walking_time": "약 6분"
      },
      {
        "supermarket_lat": 37.56680212,
        "supermarket_lon": 127.0073582,
        "supermarket_type": "마트",
        "supermarket_name": "굿모닝시티 쇼핑몰",
        "distance": 441.3246663129119,
        "walking_time": "약 7분"
      },
      {
        "supermarket_lat": 37.5674871,
        "supermarket_lon": 127.0080789,
        "supermarket_type": "마트",
        "supermarket_name": "헬로우에이피엠",
        "distance": 495.56172654360256,
        "walking_time": "약 8분"
      },
      {
        "supermarket_lat": 37.56730196,
        "supermarket_lon": 127.0121279,
        "supermarket_type": "마트",
        "supermarket_name": "DDP FASHION MALL",
        "distance": 528.6074406426945,
        "walking_time": "약 8분"
      },
      {
        "supermarket_lat": 37.56694777,
        "supermarket_lon": 127.0130083,
        "supermarket_type": "마트",
        "supermarket_name": "누죤",
        "distance": 538.282336387513,
        "walking_time": "약 9분"
      },
      {
        "supermarket_lat": 37.56811569,
        "supermarket_lon": 127.0084727,
        "supermarket_type": "마트",
        "supermarket_name": "밀리오레",
        "distance": 558.7652308377387,
        "walking_time": "약 9분"
      },
      {
        "supermarket_lat": 37.56285252,
        "supermarket_lon": 127.0155914,
        "supermarket_type": "마트",
        "supermarket_name": "홈플러스익스프레스 신당점",
        "distance": 559.3509592878313,
        "walking_time": "약 9분"
      },
      {
        "supermarket_lat": 37.56740493,
        "supermarket_lon": 127.013071,
        "supermarket_type": "마트",
        "supermarket_name": "디자이너크럽",
        "distance": 582.3995051154811,
        "walking_time": "약 9분"
      },
      {
        "supermarket_lat": 37.56813557,
        "supermarket_lon": 127.0119908,
        "supermarket_type": "마트",
        "supermarket_name": "(주)에리어식스",
        "distance": 606.6836233098666,
        "walking_time": "약 10분"
      }
    ],
    "tax_office": [
      {
        "tax_office_lat": 37.56074026,
        "tax_office_lon": 126.9907276,
        "tax_office_type": "세무서",
        "tax_office_name": "중부세무서",
        "distance": 1654.5324524294304,
        "walking_time": "약 25분"
      }
    ],
    "theater": [
      {
        "theater_lat": 37.5668021171335,
        "theater_lon": 127.007358177138,
        "theater_type": "영화관",
        "theater_name": "(주)지원엠엠시네마 동대문지점",
        "distance": 441.3251346845384,
        "walking_time": "약 7분"
      },
      {
        "theater_lat": 37.568734553218,
        "theater_lon": 127.007666479829,
        "theater_type": "영화관",
        "theater_name": "CGV 동대문",
        "distance": 638.840458848849,
        "walking_time": "약 10분"
      },
      {
        "theater_lat": 37.561929293405,
        "theater_lon": 126.995026731814,
        "theater_type": "영화관",
        "theater_name": "극동극장",
        "distance": 1261.1963982238142,
        "walking_time": "약 19분"
      },
      {
        "theater_lat": 37.5516383586201,
        "theater_lon": 127.002523184791,
        "theater_type": "영화관",
        "theater_name": "씨너스 이오이(EOE)4 남산자동차극장",
        "distance": 1408.7749934257354,
        "walking_time": "약 22분"
      },
      {
        "theater_lat": 37.5647056236712,
        "theater_lon": 126.993214191194,
        "theater_type": "영화관",
        "theater_name": "명보아트홀",
        "distance": 1424.6852585132697,
        "walking_time": "약 22분"
      },
      {
        "theater_lat": 37.5645459184175,
        "theater_lon": 126.992413746356,
        "theater_type": "영화관",
        "theater_name": "시네아스트극장",
        "distance": 1492.749449164508,
        "walking_time": "약 23분"
      },
      {
        "theater_lat": 37.5710275098022,
        "theater_lon": 126.991230294263,
        "theater_type": "영화관",
        "theater_name": "CGV 피카디리1958",
        "distance": 1815.2646221685472,
        "walking_time": "약 28분"
      }
    ],
    "university": [
      {
        "university_lat": 37.5589366401553,
        "university_lon": 126.998737605491,
        "university_type": "대학교",
        "university_name": "동국대학교",
        "distance": 1037.6610053307531,
        "walking_time": "약 16분"
      },
      {
        "university_lat": 37.5791954862382,
        "university_lon": 127.003290880975,
        "university_type": "대학교",
        "university_name": "한국방송통신대학교",
        "distance": 1862.2339878813048,
        "walking_time": "약 28분"
      }
    ]
  }
}