{
  "클러스터_위도": 37.480034,
  "클러스터_경도": 126.938991,
  "클러스터_level": 3.0,
  "facilities": {
    "bus": [
      {
        "bus_lat": 37.47862692,
        "bus_lon": 126.9401212,
        "bus_type": "버스정류장",
        "bus_name": "쑥고개",
        "distance": 185.54221249204863,
        "walking_time": "약 3분"
      },
      {
        "bus_lat": 37.47853539,
        "bus_lon": 126.9403975,
        "bus_type": "버스정류장",
        "bus_name": "쑥고개",
        "distance": 207.77828288176792,
        "walking_time": "약 4분"
      },
      {
        "bus_lat": 37.477526,
        "bus_lon": 126.93678,
        "bus_type": "버스정류장",
        "bus_name": "신림2교",
        "distance": 340.34902198409355,
        "walking_time": "약 6분"
      },
      {
        "bus_lat": 37.47953218,
        "bus_lon": 126.942829,
        "bus_type": "버스정류장",
        "bus_name": "e편한세상서울대입구아파트",
        "distance": 343.23406669560194,
        "walking_time": "약 6분"
      },
      {
        "bus_lat": 37.47973045,
        "bus_lon": 126.9429334,
        "bus_type": "버스정류장",
        "bus_name": "e편한세상서울대입구아파트",
        "distance": 349.5134811604678,
        "walking_time": "약 6분"
      },
      {
        "bus_lat": 37.48271209,
        "bus_lon": 126.9415037,
        "bus_type": "버스정류장",
        "bus_name": "봉천역",
        "distance": 371.26497471675685,
        "walking_time": "약 6분"
      },
      {
        "bus_lat": 37.48205514,
        "bus_lon": 126.9431154,
        "bus_type": "버스정류장",
        "bus_name": "봉천역.관악초등학교",
        "distance": 427.7338501055484,
        "walking_time": "약 7분"
      },
      {
        "bus_lat": 37.48359028,
        "bus_lon": 126.940901,
        "bus_type": "버스정류장",
        "bus_name": "봉천역",
        "distance": 429.8571340894523,
        "walking_time": "약 7분"
      },
      {
        "bus_lat": 37.48333412,
        "bus_lon": 126.941712,
        "bus_type": "버스정류장",
        "bus_name": "봉천역",
        "distance": 438.5244554722704,
        "walking_time": "약 7분"
      },
      {
        "bus_lat": 37.47619171,
        "bus_lon": 126.9374951,
        "bus_type": "버스정류장",
        "bus_name": "쑥고개입구",
        "distance": 447.1703430837656,
        "walking_time": "약 7분"
      }
    ],
    "community_center": [
      {
        "community_center_lat": 37.4791175,
        "community_center_lon": 126.9416407,
        "community_center_type": "주민센터",
        "community_center_name": "청룡동 자치회관",
        "distance": 255.0564677317664,
        "walking_time": "약 4분"
      },
      {
        "community_center_lat": 37.47499588,
        "community_center_lon": 126.9349996,
        "community_center_type": "주민센터",
        "community_center_name": "서림동 자치회관",
        "distance": 661.7358258051814,
        "walking_time": "약 10분"
      },
      {
        "community_center_lat": 37.48533865,
        "community_center_lon": 126.9424717,
        "community_center_type": "주민센터",
        "community_center_name": "은천동 자치회관",
        "distance": 665.0192490465612,
        "walking_time": "약 10분"
      },
      {
        "community_center_lat": 37.47976918,
        "community_center_lon": 126.9313747,
        "community_center_type": "주민센터",
        "community_center_name": "서원동 자치회관",
        "distance": 672.7117208229062,
        "walking_time": "약 11분"
      },
      {
        "community_center_lat": 37.48161061,
        "community_center_lon": 126.9273799,
        "community_center_type": "주민센터",
        "community_center_name": "신원동 자치회관",
        "distance": 1039.4483140905402,
        "walking_time": "약 16분"
      },
      {
        "community_center_lat": 37.48419282,
        "community_center_lon": 126.9497511,
        "community_center_type": "주민센터",
        "community_center_name": "중앙동 자치회관",
        "distance": 1056.0800526258154,
        "walking_time": "약 16분"
      },
      {
        "community_center_lat": 37.48817585,
        "community_center_lon": 126.932778,
        "community_center_type": "주민센터",
        "community_center_name": "보라매동 자치회관",
        "distance": 1058.3755652372326,
        "walking_time": "약 16분"
      },
      {
        "community_center_lat": 37.47059604,
        "community_center_lon": 126.9369573,
        "community_center_type": "주민센터",
        "community_center_name": "대학동 자치회관",
        "distance": 1064.6878355771264,
        "walking_time": "약 16분"
      },
      {
        "community_center_lat": 37.487396,
        "community_center_lon": 126.9271139,
        "community_center_type": "주민센터",
        "community_center_name": "신림동 자치회관",
        "distance": 1329.817597216245,
        "walking_time": "약 20분"
      },
      {
        "community_center_lat": 37.47102189,
        "community_center_lon": 126.9216418,
        "community_center_type": "주민센터",
        "community_center_name": "난곡동 자치회관",
        "distance": 1829.7943546024776,
        "walking_time": "약 28분"
      }
    ],
    "convenience_store": [
      {
        "convenience_store_lat": 37.48058116,
        "convenience_store_lon": 126.9394385,
        "convenience_store_type": "편의점",
        "convenience_store_name": "GS25 관악봉림점",
        "distance": 72.53231790069204,
        "walking_time": "약 2분"
      },
      {
        "convenience_store_lat": 37.48129172,
        "convenience_store_lon": 126.9394869,
        "convenience_store_type": "편의점",
        "convenience_store_name": "CU 관악청룡점",
        "distance": 146.53796064472888,
        "walking_time": "약 3분"
      },
      {
        "convenience_store_lat": 37.4818341,
        "convenience_store_lon": 126.9408657,
        "convenience_store_type": "편의점",
        "convenience_store_name": "GS25 관악아미움점",
        "distance": 259.671685927659,
        "walking_time": "약 4분"
      },
      {
        "convenience_store_lat": 37.47764482,
        "convenience_store_lon": 126.9384979,
        "convenience_store_type": "편의점",
        "convenience_store_name": "CU 관악소망점",
        "distance": 269.2044382318454,
        "walking_time": "약 5분"
      },
      {
        "convenience_store_lat": 37.48102874,
        "convenience_store_lon": 126.9420592,
        "convenience_store_type": "편의점",
        "convenience_store_name": "CU 관악장군점",
        "distance": 292.46093714535414,
        "walking_time": "약 5분"
      },
      {
        "convenience_store_lat": 37.48253974,
        "convenience_store_lon": 126.9406137,
        "convenience_store_type": "편의점",
        "convenience_store_name": "미니스톱 봉천남부점",
        "distance": 313.26388785118223,
        "walking_time": "약 5분"
      },
      {
        "convenience_store_lat": 37.48285957,
        "convenience_store_lon": 126.9386315,
        "convenience_store_type": "편의점",
        "convenience_store_name": "CU 관악장군점",
        "distance": 315.78637349576314,
        "walking_time": "약 5분"
      },
      {
        "convenience_store_lat": 37.47738508,
        "convenience_store_lon": 126.9374975,
        "convenience_store_type": "편의점",
        "convenience_store_name": "GS25 서원쑥고개점",
        "distance": 322.6857271911426,
        "walking_time": "약 5분"
      },
      {
        "convenience_store_lat": 37.47982753,
        "convenience_store_lon": 126.9426421,
        "convenience_store_type": "편의점",
        "convenience_store_name": "CU 관악써니점",
        "distance": 322.9921309248275,
        "walking_time": "약 5분"
      },
      {
        "convenience_store_lat": 37.48317376,
        "convenience_store_lon": 126.9391642,
        "convenience_store_type": "편의점",
        "convenience_store_name": "세븐일레븐 봉천5호점",
        "distance": 349.459726952536,
        "walking_time": "약 6분"
      }
    ],
    "daycare": [
      {
        "daycare_lat": 37.47983527,
        "daycare_lon": 126.9396209,
        "daycare_type": "어린이집",
        "daycare_name": "아이좋아어린이집",
        "distance": 59.81430901779008,
        "walking_time": "약 1분"
      },
      {
        "daycare_lat": 37.48046051708736,
        "daycare_lon": 126.93979772499284,
        "daycare_type": "어린이집",
        "daycare_name": "떡잎어린이집",
        "distance": 85.53748963851707,
        "walking_time": "약 2분"
      },
      {
        "daycare_lat": 37.47875556,
        "daycare_lon": 126.9393062,
        "daycare_type": "어린이집",
        "daycare_name": "구립장군봉어린이집",
        "distance": 144.8514348073513,
        "walking_time": "약 3분"
      },
      {
        "daycare_lat": 37.47976784,
        "daycare_lon": 126.9407423,
        "daycare_type": "어린이집",
        "daycare_name": "재롱이어린이집",
        "distance": 157.34423299235354,
        "walking_time": "약 3분"
      },
      {
        "daycare_lat": 37.48161359062606,
        "daycare_lon": 126.93937168718102,
        "daycare_type": "어린이집",
        "daycare_name": "구립비안어린이집",
        "distance": 178.82582094293417,
        "walking_time": "약 3분"
      },
      {
        "daycare_lat": 37.48007212,
        "daycare_lon": 126.9414713,
        "daycare_type": "어린이집",
        "daycare_name": "행복나라어린이집",
        "distance": 218.9037738315052,
        "walking_time": "약 4분"
      },
      {
        "daycare_lat": 37.47885648,
        "daycare_lon": 126.9422057,
        "daycare_type": "어린이집",
        "daycare_name": "구립청룡어린이집",
        "distance": 312.42882504733944,
        "walking_time": "약 5분"
      },
      {
        "daycare_lat": 37.47736001849813,
        "daycare_lon": 126.93781495804652,
        "daycare_type": "어린이집",
        "daycare_name": "딩동댕어린이집",
        "distance": 314.9230767403073,
        "walking_time": "약 5분"
      },
      {
        "daycare_lat": 37.48292163,
        "daycare_lon": 126.9384477,
        "daycare_type": "어린이집",
        "daycare_name": "내친구어린이집",
        "distance": 324.64891448137683,
        "walking_time": "약 5분"
      },
      {
        "daycare_lat": 37.4775927,
        "daycare_lon": 126.9365275,
        "daycare_type": "어린이집",
        "daycare_name": "은빛어린이집",
        "distance": 347.7734688984209,
        "walking_time": "약 6분"
      }
    ],
    "education": [
      {
        "education_lat": 37.49543351,
        "education_lon": 126.9405902,
        "education_type": "도서관",
        "education_name": "국사봉숲속작은도서관",
        "distance": 1718.150941793761,
        "walking_time": "약 26분"
      },
      {
        "education_lat": 37.49379251,
        "education_lon": 126.9231084,
        "education_type": "미술관/갤러리",
        "education_name": "동작아트갤러리",
        "distance": 2074.687541617862,
        "walking_time": "약 31분"
      },
      {
        "education_lat": 37.49788488,
        "education_lon": 126.9474555,
        "education_type": "도서관",
        "education_name": "약수도서관",
        "distance": 2120.77333364211,
        "walking_time": "약 32분"
      },
      {
        "education_lat": 37.49925547,
        "education_lon": 126.9403722,
        "education_type": "공연장",
        "education_name": "상도어울마당 아트홀",
        "distance": 2140.8011713436367,
        "walking_time": "약 32분"
      }
    ],
    "fitness": [
      {
        "fitness_lat": 37.47947399,
        "fitness_lon": 126.942303,
        "fitness_type": "운동시설",
        "fitness_name": "온핸드짐",
        "distance": 298.8137781731212,
        "walking_time": "약 5분"
      },
      {
        "fitness_lat": 37.48327253,
        "fitness_lon": 126.9402662,
        "fitness_type": "운동시설",
        "fitness_name": "핏티",
        "distance": 377.27841108587,
        "walking_time": "약 6분"
      },
      {
        "fitness_lat": 37.48175846,
        "fitness_lon": 126.9427794,
        "fitness_type": "운동시설",
        "fitness_name": "천샘PT",
        "distance": 385.37751470261486,
        "walking_time": "약 6분"
      },
      {
        "fitness_lat": 37.48198569,
        "fitness_lon": 126.9427729,
        "fitness_type": "운동시설",
        "fitness_name": "더 스페셜 짐",
        "distance": 398.0711682527012,
        "walking_time": "약 6분"
      },
      {
        "fitness_lat": 37.48369573,
        "fitness_lon": 126.9379889,
        "fitness_type": "운동시설",
        "fitness_name": "메이크타임PT",
        "distance": 416.6565954829808,
        "walking_time": "약 7분"
      },
      {
        "fitness_lat": 37.48255359,
        "fitness_lon": 126.9427597,
        "fitness_type": "운동시설",
        "fitness_name": "휘트니스 에일린 2호점",
        "distance": 434.8329984354412,
        "walking_time": "약 7분"
      },
      {
        "fitness_lat": 37.48438657,
        "fitness_lon": 126.9378705,
        "fitness_type": "운동시설",
        "fitness_name": "쿠타(본점)",
        "distance": 493.9793600409123,
        "walking_time": "약 8분"
      },
      {
        "fitness_lat": 37.48398984,
        "fitness_lon": 126.9415579,
        "fitness_type": "운동시설",
        "fitness_name": "인바이트짐",
        "distance": 494.75909971453,
        "walking_time": "약 8분"
      },
      {
        "fitness_lat": 37.4756288,
        "fitness_lon": 126.9374469,
        "fitness_type": "운동시설",
        "fitness_name": "월드짐 휘트니스",
        "distance": 508.433794331374,
        "walking_time": "약 8분"
      },
      {
        "fitness_lat": 37.47966365,
        "fitness_lon": 126.9449325,
        "fitness_type": "운동시설",
        "fitness_name": "운동하는날 서울대봉천점",
        "distance": 525.8967778351509,
        "walking_time": "약 8분"
      }
    ],
    "gas_station": [
      {
        "gas_station_lat": 37.48233196,
        "gas_station_lon": 126.9450663,
        "gas_station_type": "주유소",
        "gas_station_name": "시몬주유소",
        "distance": 593.8618402374,
        "walking_time": "약 9분"
      },
      {
        "gas_station_lat": 37.48041974,
        "gas_station_lon": 126.9306687,
        "gas_station_type": "주유소",
        "gas_station_name": "신관주유소",
        "distance": 735.6131517482949,
        "walking_time": "약 11분"
      },
      {
        "gas_station_lat": 37.4737677,
        "gas_station_lon": 126.9348256,
        "gas_station_type": "주유소",
        "gas_station_name": "유림주유소",
        "distance": 787.7897860165185,
        "walking_time": "약 12분"
      },
      {
        "gas_station_lat": 37.49159774,
        "gas_station_lon": 126.927219,
        "gas_station_type": "주유소",
        "gas_station_name": "대양석유㈜보라매주유소",
        "distance": 1652.944577852481,
        "walking_time": "약 25분"
      },
      {
        "gas_station_lat": 37.49322282,
        "gas_station_lon": 126.9266746,
        "gas_station_type": "주유소",
        "gas_station_name": "㈜엠오티이엔지직영삼화주유소",
        "distance": 1825.279641190674,
        "walking_time": "약 28분"
      }
    ],
    "hospital": [
      {
        "hospital_lat": 37.479746,
        "hospital_lon": 126.9419227,
        "hospital_type": "병원",
        "hospital_name": "장한의원",
        "distance": 260.6696401183879,
        "walking_time": "약 4분"
      },
      {
        "hospital_lat": 37.4797987,
        "hospital_lon": 126.9422831,
        "hospital_type": "병원",
        "hospital_name": "관악성모의원",
        "distance": 291.67272510984446,
        "walking_time": "약 5분"
      },
      {
        "hospital_lat": 37.48275064,
        "hospital_lon": 126.9398511,
        "hospital_type": "병원",
        "hospital_name": "이너스치과의원",
        "distance": 311.46460124125485,
        "walking_time": "약 5분"
      },
      {
        "hospital_lat": 37.48253974,
        "hospital_lon": 126.9406137,
        "hospital_type": "병원",
        "hospital_name": "아침햇살한의원",
        "distance": 313.26388785118223,
        "walking_time": "약 5분"
      },
      {
        "hospital_lat": 37.479516,
        "hospital_lon": 126.9425342,
        "hospital_type": "병원",
        "hospital_name": "관악서울치과의원",
        "distance": 317.9159770998791,
        "walking_time": "약 5분"
      },
      {
        "hospital_lat": 37.48217786,
        "hospital_lon": 126.9416321,
        "hospital_type": "병원",
        "hospital_name": "성모척바른의원",
        "distance": 333.3761563841135,
        "walking_time": "약 5분"
      },
      {
        "hospital_lat": 37.48304414,
        "hospital_lon": 126.9393971,
        "hospital_type": "병원",
        "hospital_name": "강남효요양병원",
        "distance": 336.6249801395966,
        "walking_time": "약 6분"
      },
      {
        "hospital_lat": 37.4815584,
        "hospital_lon": 126.9425115,
        "hospital_type": "병원",
        "hospital_name": "다미한의원",
        "distance": 353.88401543897186,
        "walking_time": "약 6분"
      },
      {
        "hospital_lat": 37.47973998,
        "hospital_lon": 126.9430749,
        "hospital_type": "병원",
        "hospital_name": "서울의원",
        "distance": 361.8458724224976,
        "walking_time": "약 6분"
      },
      {
        "hospital_lat": 37.48206617,
        "hospital_lon": 126.9422508,
        "hospital_type": "병원",
        "hospital_name": "더나은치과의원",
        "distance": 365.7857005524275,
        "walking_time": "약 6분"
      }
    ],
    "music_room": [
      {
        "music_room_lat": 37.48229543,
        "music_room_lon": 126.9403552,
        "music_room_type": "노래방",
        "music_room_name": "신세대노래연습장",
        "distance": 278.7870781069456,
        "walking_time": "약 5분"
      },
      {
        "music_room_lat": 37.47739869,
        "music_room_lon": 126.9376734,
        "music_room_type": "노래방",
        "music_room_name": "카멜레온",
        "distance": 315.25635479623867,
        "walking_time": "약 5분"
      },
      {
        "music_room_lat": 37.48208252,
        "music_room_lon": 126.9417972,
        "music_room_type": "노래방",
        "music_room_name": "한마음",
        "distance": 336.45233990794475,
        "walking_time": "약 6분"
      },
      {
        "music_room_lat": 37.48206617,
        "music_room_lon": 126.9422508,
        "music_room_type": "노래방",
        "music_room_name": "윙크노래연습장",
        "distance": 365.7857005524275,
        "walking_time": "약 6분"
      },
      {
        "music_room_lat": 37.483203,
        "music_room_lon": 126.9404859,
        "music_room_type": "노래방",
        "music_room_name": "코캉스코인노래연습장",
        "distance": 376.2566088656442,
        "walking_time": "약 6분"
      },
      {
        "music_room_lat": 37.47676406,
        "music_room_lon": 126.9375925,
        "music_room_type": "노래방",
        "music_room_name": "오디션노래연습장",
        "distance": 383.9723648220164,
        "walking_time": "약 6분"
      },
      {
        "music_room_lat": 37.47943773,
        "music_room_lon": 126.9433308,
        "music_room_type": "노래방",
        "music_room_name": "둘리",
        "distance": 388.6447177292512,
        "walking_time": "약 6분"
      },
      {
        "music_room_lat": 37.4832355,
        "music_room_lon": 126.9409841,
        "music_room_type": "노래방",
        "music_room_name": "24시 노래연습장",
        "distance": 397.0628745967268,
        "walking_time": "약 6분"
      },
      {
        "music_room_lat": 37.48198569,
        "music_room_lon": 126.9427729,
        "music_room_type": "노래방",
        "music_room_name": "용가리",
        "distance": 398.0711682527012,
        "walking_time": "약 6분"
      },
      {
        "music_room_lat": 37.48258361,
        "music_room_lon": 126.942236,
        "music_room_type": "노래방",
        "music_room_name": "코인쏭동전노래연습장",
        "distance": 402.9420460545044,
        "walking_time": "약 7분"
      }
    ],
    "park": [
      {
        "park_lat": 37.492299,
        "park_lon": 126.9385469,
        "park_type": "공원",
        "park_name": "상도근린공원",
        "distance": 1364.3685746005,
        "walking_time": "약 21분"
      }
    ],
    "park_station": [
      {
        "park_station_lat": 37.48685341,
        "park_station_lon": 126.9331906,
        "park_station_type": "주차장",
        "park_station_name": "봉천복개3 공영주차장",
        "distance": 914.844388247615,
        "walking_time": "약 14분"
      },
      {
        "park_station_lat": 37.48271916,
        "park_station_lon": 126.9275934,
        "park_station_type": "주차장",
        "park_station_name": "서원동제1공영",
        "distance": 1049.0962310666573,
        "walking_time": "약 16분"
      },
      {
        "park_station_lat": 37.48462415,
        "park_station_lon": 126.9252587,
        "park_station_type": "주차장",
        "park_station_name": "신림동제2공영",
        "distance": 1314.8169801344843,
        "walking_time": "약 20분"
      },
      {
        "park_station_lat": 37.47001309,
        "park_station_lon": 126.9293131,
        "park_station_type": "주차장",
        "park_station_name": "원신공영주차장",
        "distance": 1403.9198002856822,
        "walking_time": "약 21분"
      },
      {
        "park_station_lat": 37.49193146,
        "park_station_lon": 126.9331501,
        "park_station_type": "주차장",
        "park_station_name": "당곡중학교공영 ",
        "distance": 1419.7751332352427,
        "walking_time": "약 22분"
      },
      {
        "park_station_lat": 37.49330922,
        "park_station_lon": 126.9336841,
        "park_station_type": "주차장",
        "park_station_name": "빙수골장미",
        "distance": 1548.6222947778206,
        "walking_time": "약 24분"
      },
      {
        "park_station_lat": 37.4848902,
        "park_station_lon": 126.9221482,
        "park_station_type": "주차장",
        "park_station_name": "남부초등학교",
        "distance": 1581.2269769084,
        "walking_time": "약 24분"
      },
      {
        "park_station_lat": 37.48736362,
        "park_station_lon": 126.9234863,
        "park_station_type": "주차장",
        "park_station_name": "신림동공영주차장",
        "distance": 1592.4446862881564,
        "walking_time": "약 24분"
      },
      {
        "park_station_lat": 37.47224069,
        "park_station_lon": 126.923162,
        "park_station_type": "주차장",
        "park_station_name": "난곡동제1공영주차장",
        "distance": 1643.8039641224618,
        "walking_time": "약 25분"
      },
      {
        "park_station_lat": 37.490363,
        "park_station_lon": 126.9232398,
        "park_station_type": "주차장",
        "park_station_name": "보라매상업 공영주차장",
        "distance": 1802.9592556786115,
        "walking_time": "약 27분"
      }
    ],
    "pc_room": [
      {
        "pc_room_lat": 37.4825397376028,
        "pc_room_lon": 126.940613730465,
        "pc_room_type": "PC방",
        "pc_room_name": "3POP PC방",
        "distance": 313.2648794911186,
        "walking_time": "약 5분"
      },
      {
        "pc_room_lat": 37.4776103633224,
        "pc_room_lon": 126.936542759177,
        "pc_room_type": "PC방",
        "pc_room_name": "신림 PC",
        "distance": 345.39874994121715,
        "walking_time": "약 6분"
      },
      {
        "pc_room_lat": 37.4840824266542,
        "pc_room_lon": 126.937097299683,
        "pc_room_type": "PC방",
        "pc_room_name": "에이스피시방",
        "distance": 480.1763237225971,
        "walking_time": "약 8분"
      },
      {
        "pc_room_lat": 37.4841495810369,
        "pc_room_lon": 126.941358237708,
        "pc_room_type": "PC방",
        "pc_room_name": "스타덤PC 봉천점",
        "distance": 503.0485159401936,
        "walking_time": "약 8분"
      },
      {
        "pc_room_lat": 37.4756288046285,
        "pc_room_lon": 126.937446935701,
        "pc_room_type": "PC방",
        "pc_room_name": "보야르",
        "distance": 508.4324542266901,
        "walking_time": "약 8분"
      },
      {
        "pc_room_lat": 37.4792117658952,
        "pc_room_lon": 126.945267468435,
        "pc_room_type": "PC방",
        "pc_room_name": "Q PC",
        "distance": 561.3372175380867,
        "walking_time": "약 9분"
      },
      {
        "pc_room_lat": 37.4742646022584,
        "pc_room_lon": 126.937819783753,
        "pc_room_type": "PC방",
        "pc_room_name": "시즌PC방",
        "distance": 649.7996867261654,
        "walking_time": "약 10분"
      },
      {
        "pc_room_lat": 37.4815170316646,
        "pc_room_lon": 126.946522694417,
        "pc_room_type": "PC방",
        "pc_room_name": "브라보PC",
        "distance": 684.746949407792,
        "walking_time": "약 11분"
      },
      {
        "pc_room_lat": 37.486362897773,
        "pc_room_lon": 126.938850219252,
        "pc_room_type": "PC방",
        "pc_room_name": "강남PC",
        "distance": 703.8509482797381,
        "walking_time": "약 11분"
      },
      {
        "pc_room_lat": 37.4861307788499,
        "pc_room_lon": 126.936759768287,
        "pc_room_type": "PC방",
        "pc_room_name": "키키슬롯",
        "distance": 705.9396367821344,
        "walking_time": "약 11분"
      }
    ],
    "police_office": [
      {
        "police_office_lat": 37.48401647,
        "police_office_lon": 126.9333173,
        "police_office_type": "경찰소",
        "police_office_name": "신림지구대",
        "distance": 668.3829127311403,
        "walking_time": "약 10분"
      },
      {
        "police_office_lat": 37.4738594,
        "police_office_lon": 126.9352631,
        "police_office_type": "경찰소",
        "police_office_name": "관악산지구대",
        "distance": 761.3251168722766,
        "walking_time": "약 12분"
      },
      {
        "police_office_lat": 37.48600685,
        "police_office_lon": 126.9343644,
        "police_office_type": "경찰소",
        "police_office_name": "당곡지구대",
        "distance": 779.5854331155233,
        "walking_time": "약 12분"
      },
      {
        "police_office_lat": 37.48735272,
        "police_office_lon": 126.9454289,
        "police_office_type": "경찰소",
        "police_office_name": "구암지구대",
        "distance": 992.4538880895216,
        "walking_time": "약 15분"
      },
      {
        "police_office_lat": 37.49856527,
        "police_office_lon": 126.920574,
        "police_office_type": "경찰소",
        "police_office_name": "대방파출소",
        "distance": 2624.1907845757364,
        "walking_time": "약 40분"
      }
    ],
    "post_office": [
      {
        "post_office_lat": 37.48227075,
        "post_office_lon": 126.9412539,
        "post_office_type": "우체국",
        "post_office_name": "서울봉천역전우편취급국",
        "distance": 318.95126799291387,
        "walking_time": "약 5분"
      },
      {
        "post_office_lat": 37.48582895,
        "post_office_lon": 126.9416713,
        "post_office_type": "우체국",
        "post_office_name": "서울은천동우체국",
        "distance": 686.3996770549711,
        "walking_time": "약 11분"
      },
      {
        "post_office_lat": 37.47864491,
        "post_office_lon": 126.947376,
        "post_office_type": "우체국",
        "post_office_name": "서울청룡동우편취급국",
        "distance": 755.8533830922175,
        "walking_time": "약 12분"
      },
      {
        "post_office_lat": 37.48501424,
        "post_office_lon": 126.9331367,
        "post_office_type": "우체국",
        "post_office_name": "서울관악우체국",
        "distance": 757.3062838146626,
        "walking_time": "약 12분"
      },
      {
        "post_office_lat": 37.48066748,
        "post_office_lon": 126.9284834,
        "post_office_type": "우체국",
        "post_office_name": "서울신림동부우편취급국",
        "distance": 929.8632616342186,
        "walking_time": "약 14분"
      },
      {
        "post_office_lat": 37.49121134,
        "post_office_lon": 126.9249903,
        "post_office_type": "우체국",
        "post_office_name": "서울보라매우편취급국",
        "distance": 1752.3595104473743,
        "walking_time": "약 27분"
      },
      {
        "post_office_lat": 37.49941236,
        "post_office_lon": 126.9437362,
        "post_office_type": "우체국",
        "post_office_name": "서울동작약수우편취급국",
        "distance": 2195.0709441564422,
        "walking_time": "약 33분"
      },
      {
        "post_office_lat": 37.49791931,
        "post_office_lon": 126.9245212,
        "post_office_type": "우체국",
        "post_office_name": "서울동작우체국",
        "distance": 2363.2673663932464,
        "walking_time": "약 36분"
      }
    ],
    "public_health_center": [
      {
        "public_health_center_lat": 37.48784455,
        "public_health_center_lon": 126.932302,
        "public_health_center_type": "보건소",
        "public_health_center_name": "관악구보건지소",
        "distance": 1050.0610901504374,
        "walking_time": "약 16분"
      },
      {
        "public_health_center_lat": 37.49961665,
        "public_health_center_lon": 126.9242845,
        "public_health_center_type": "보건소",
        "public_health_center_name": "동작구보건지소",
        "distance": 2534.772887002156,
        "walking_time": "약 38분"
      }
    ],
    "school": [
      {
        "school_lat": 37.4811981682395,
        "school_lon": 126.937702673305,
        "school_type": "중학교",
        "school_name": "봉림중학교",
        "distance": 172.28091889275788,
        "walking_time": "약 3분"
      },
      {
        "school_lat": 37.4810297131995,
        "school_lon": 126.942570541831,
        "school_type": "초등학교",
        "school_name": "서울관악초등학교",
        "distance": 334.7013338004961,
        "walking_time": "약 5분"
      },
      {
        "school_lat": 37.4802012453571,
        "school_lon": 126.934452241482,
        "school_type": "중학교",
        "school_name": "신관중학교",
        "distance": 400.9331730499212,
        "walking_time": "약 6분"
      },
      {
        "school_lat": 37.476541242971,
        "school_lon": 126.945416499639,
        "school_type": "고등학교",
        "school_name": "영락고등학교",
        "distance": 687.2613135456395,
        "walking_time": "약 11분"
      },
      {
        "school_lat": 37.476541242971,
        "school_lon": 126.945416499639,
        "school_type": "고등학교",
        "school_name": "영락의료과학고등학교",
        "distance": 687.2613135456395,
        "walking_time": "약 11분"
      },
      {
        "school_lat": 37.4865852040387,
        "school_lon": 126.942679132637,
        "school_type": "초등학교",
        "school_name": "서울은천초등학교",
        "distance": 797.8461288465973,
        "walking_time": "약 12분"
      },
      {
        "school_lat": 37.472003312266,
        "school_lon": 126.936754150323,
        "school_type": "초등학교",
        "school_name": "서울신성초등학교",
        "distance": 914.5281915999926,
        "walking_time": "약 14분"
      },
      {
        "school_lat": 37.4878154195732,
        "school_lon": 126.943760849751,
        "school_type": "고등학교",
        "school_name": "서울관광고등학교",
        "distance": 962.1840708373244,
        "walking_time": "약 15분"
      },
      {
        "school_lat": 37.4855779476851,
        "school_lon": 126.949130876206,
        "school_type": "초등학교",
        "school_name": "서울신봉초등학교",
        "distance": 1086.524153787362,
        "walking_time": "약 17분"
      },
      {
        "school_lat": 37.4705041702937,
        "school_lon": 126.941940568518,
        "school_type": "고등학교",
        "school_name": "꿈타래학교",
        "distance": 1091.1679748349134,
        "walking_time": "약 17분"
      }
    ],
    "subway": [
      {
        "subway_lat": 37.4825562153548,
        "subway_lon": 126.941495272047,
        "subway_type": "지하철",
        "subway_name": "2호선-봉천역",
        "distance": 357.0519664046545,
        "walking_time": "약 6분"
      },
      {
        "subway_lat": 37.4842176141092,
        "subway_lon": 126.92980331103,
        "subway_type": "지하철",
        "subway_name": "2호선-신림역",
        "distance": 934.6911077874188,
        "walking_time": "약 14분"
      },
      {
        "subway_lat": 37.4997218266711,
        "subway_lon": 126.928222967016,
        "subway_type": "지하철",
        "subway_name": "7호선-신대방삼거리역",
        "distance": 2386.44797463733,
        "walking_time": "약 36분"
      },
      {
        "subway_lat": 37.499910050321,
        "subway_lon": 126.920489390309,
        "subway_type": "지하철",
        "subway_name": "7호선-보라매역",
        "distance": 2747.59071462415,
        "walking_time": "약 42분"
      }
    ],
    "supermarket": [
      {
        "supermarket_lat": 37.48629672,
        "supermarket_lon": 126.9412497,
        "supermarket_type": "마트",
        "supermarket_name": "(주)이마트에브리데이 봉천동점",
        "distance": 724.3407224003191,
        "walking_time": "약 11분"
      },
      {
        "supermarket_lat": 37.48665276,
        "supermarket_lon": 126.9392236,
        "supermarket_type": "마트",
        "supermarket_name": "GS THE FRESH 관악은천점",
        "distance": 736.2586475030025,
        "walking_time": "약 11분"
      },
      {
        "supermarket_lat": 37.4755685,
        "supermarket_lon": 126.9328111,
        "supermarket_type": "마트",
        "supermarket_name": "신림현대종합상가",
        "distance": 737.5238840291848,
        "walking_time": "약 12분"
      },
      {
        "supermarket_lat": 37.48385134,
        "supermarket_lon": 126.9302345,
        "supermarket_type": "마트",
        "supermarket_name": "타임스트림",
        "distance": 881.5746198935547,
        "walking_time": "약 14분"
      },
      {
        "supermarket_lat": 37.47933913,
        "supermarket_lon": 126.9490155,
        "supermarket_type": "마트",
        "supermarket_name": "(주)지에스리테일 관악점",
        "distance": 887.9386277975929,
        "walking_time": "약 14분"
      },
      {
        "supermarket_lat": 37.48476254,
        "supermarket_lon": 126.9300965,
        "supermarket_type": "마트",
        "supermarket_name": "르네상스쇼핑몰(주)",
        "distance": 944.6759496580848,
        "walking_time": "약 15분"
      },
      {
        "supermarket_lat": 37.48658496,
        "supermarket_lon": 126.9465719,
        "supermarket_type": "마트",
        "supermarket_name": "봉천현대시장",
        "distance": 988.9689517644516,
        "walking_time": "약 15분"
      },
      {
        "supermarket_lat": 37.48615809,
        "supermarket_lon": 126.9472386,
        "supermarket_type": "마트",
        "supermarket_name": "홈플러스 익스프레스 봉천점",
        "distance": 996.657230520177,
        "walking_time": "약 15분"
      },
      {
        "supermarket_lat": 37.47048117,
        "supermarket_lon": 126.9344768,
        "supermarket_type": "마트",
        "supermarket_name": "일성트루엘상가",
        "distance": 1134.4671223724906,
        "walking_time": "약 17분"
      },
      {
        "supermarket_lat": 37.49049549,
        "supermarket_lon": 126.9249817,
        "supermarket_type": "마트",
        "supermarket_name": "롯데쇼핑(주) 관악점",
        "distance": 1697.3887951130644,
        "walking_time": "약 26분"
      }
    ],
    "tax_office": [
      {
        "tax_office_lat": 37.47933644,
        "tax_office_lon": 126.9243295,
        "tax_office_type": "세무서",
        "tax_office_name": "관악세무서",
        "distance": 1296.0664751477302,
        "walking_time": "약 20분"
      }
    ],
    "theater": [
      {
        "theater_lat": 37.4838513393186,
        "theater_lon": 126.930234545397,
        "theater_type": "영화관",
        "theater_name": "롯데시네마 신림",
        "distance": 881.5710725703482,
        "walking_time": "약 14분"
      }
    ]
  }
}