{
  "클러스터_위도": 37.4904490000522,
  "클러스터_경도": 126.92664759991202,
  "클러스터_level": 3.0,
  "facilities": {
    "bus": [
      {
        "bus_lat": 37.49009166,
        "bus_lon": 126.9259813,
        "bus_type": "버스정류장",
        "bus_name": "롯데백화점관악점",
        "distance": 70.95548542954853,
        "walking_time": "약 2분"
      },
      {
        "bus_lat": 37.49100414,
        "bus_lon": 126.9270747,
        "bus_type": "버스정류장",
        "bus_name": "당곡역.당곡사거리.롯데백화점",
        "distance": 72.32136258232842,
        "walking_time": "약 2분"
      },
      {
        "bus_lat": 37.49044181,
        "bus_lon": 126.9276206,
        "bus_type": "버스정류장",
        "bus_name": "당곡역.보라매공원.보라매병원",
        "distance": 85.84972383712707,
        "walking_time": "약 2분"
      },
      {
        "bus_lat": 37.49000924,
        "bus_lon": 126.9274853,
        "bus_type": "버스정류장",
        "bus_name": "당곡역2번출구.롯데백화점관악점",
        "distance": 88.62083818821662,
        "walking_time": "약 2분"
      },
      {
        "bus_lat": 37.49012978,
        "bus_lon": 126.9257071,
        "bus_type": "버스정류장",
        "bus_name": "롯데관악점",
        "distance": 90.25194242997362,
        "walking_time": "약 2분"
      },
      {
        "bus_lat": 37.48929951,
        "bus_lon": 126.9270622,
        "bus_type": "버스정류장",
        "bus_name": "당곡역",
        "distance": 132.9487742646453,
        "walking_time": "약 2분"
      },
      {
        "bus_lat": 37.48972623,
        "bus_lon": 126.9251647,
        "bus_type": "버스정류장",
        "bus_name": "롯데관악점",
        "distance": 153.54689163062363,
        "walking_time": "약 3분"
      },
      {
        "bus_lat": 37.4897441,
        "bus_lon": 126.9249188,
        "bus_type": "버스정류장",
        "bus_name": "롯데백화점관악점",
        "distance": 171.4902011548018,
        "walking_time": "약 3분"
      },
      {
        "bus_lat": 37.4910939,
        "bus_lon": 126.9246607,
        "bus_type": "버스정류장",
        "bus_name": "해태타워앞",
        "distance": 189.39975624049944,
        "walking_time": "약 3분"
      },
      {
        "bus_lat": 37.49042787,
        "bus_lon": 126.9244827,
        "bus_type": "버스정류장",
        "bus_name": "롯데백화점",
        "distance": 191.019589687295,
        "walking_time": "약 3분"
      }
    ],
    "community_center": [
      {
        "community_center_lat": 37.487396,
        "community_center_lon": 126.9271139,
        "community_center_type": "주민센터",
        "community_center_name": "신림동 자치회관",
        "distance": 341.9620240686829,
        "walking_time": "약 6분"
      },
      {
        "community_center_lat": 37.48817585,
        "community_center_lon": 126.932778,
        "community_center_type": "주민센터",
        "community_center_name": "보라매동 자치회관",
        "distance": 597.0280035960119,
        "walking_time": "약 9분"
      },
      {
        "community_center_lat": 37.48595224,
        "community_center_lon": 126.9191029,
        "community_center_type": "주민센터",
        "community_center_name": "신사동 자치회관",
        "distance": 832.5503205168746,
        "walking_time": "약 13분"
      },
      {
        "community_center_lat": 37.49841253,
        "community_center_lon": 126.924544,
        "community_center_type": "주민센터",
        "community_center_name": "신대방2동 자치회관",
        "distance": 904.7430760678712,
        "walking_time": "약 14분"
      },
      {
        "community_center_lat": 37.48161061,
        "community_center_lon": 126.9273799,
        "community_center_type": "주민센터",
        "community_center_name": "신원동 자치회관",
        "distance": 984.9058493430744,
        "walking_time": "약 15분"
      },
      {
        "community_center_lat": 37.49912572,
        "community_center_lon": 126.931404,
        "community_center_type": "주민센터",
        "community_center_name": "상도3동 자치회관",
        "distance": 1052.1108821699977,
        "walking_time": "약 16분"
      },
      {
        "community_center_lat": 37.48894469,
        "community_center_lon": 126.9100394,
        "community_center_type": "주민센터",
        "community_center_name": "신대방1동 자치회관",
        "distance": 1474.841889809697,
        "walking_time": "약 23분"
      },
      {
        "community_center_lat": 37.50059942,
        "community_center_lon": 126.9377767,
        "community_center_type": "주민센터",
        "community_center_name": "상도4동 자치회관",
        "distance": 1495.9626000152757,
        "walking_time": "약 23분"
      },
      {
        "community_center_lat": 37.50639203,
        "community_center_lon": 126.9215141,
        "community_center_type": "주민센터",
        "community_center_name": "신길7동 자치회관",
        "distance": 1829.7145351637123,
        "walking_time": "약 28분"
      },
      {
        "community_center_lat": 37.50815443,
        "community_center_lon": 126.9263229,
        "community_center_type": "주민센터",
        "community_center_name": "대방동 자치회관",
        "distance": 1968.9623523798728,
        "walking_time": "약 30분"
      }
    ],
    "convenience_store": [
      {
        "convenience_store_lat": 37.49115993,
        "convenience_store_lon": 126.9273604,
        "convenience_store_type": "편의점",
        "convenience_store_name": "CU 관악당곡점",
        "distance": 101.01574323144716,
        "walking_time": "약 2분"
      },
      {
        "convenience_store_lat": 37.49131824,
        "convenience_store_lon": 126.9261957,
        "convenience_store_type": "편의점",
        "convenience_store_name": "GS25 관악보라매점",
        "distance": 104.55536686023136,
        "walking_time": "약 2분"
      },
      {
        "convenience_store_lat": 37.48906763,
        "convenience_store_lon": 126.9278181,
        "convenience_store_type": "편의점",
        "convenience_store_name": "GS25 당곡사거리점",
        "distance": 185.09046558330107,
        "walking_time": "약 3분"
      },
      {
        "convenience_store_lat": 37.49190124,
        "convenience_store_lon": 126.9254132,
        "convenience_store_type": "편의점",
        "convenience_store_name": "GS25 보라매타운점",
        "distance": 194.7748558374909,
        "walking_time": "약 3분"
      },
      {
        "convenience_store_lat": 37.48863842,
        "convenience_store_lon": 126.9268491,
        "convenience_store_type": "편의점",
        "convenience_store_name": "GS25 신림제일점",
        "distance": 202.1107429869314,
        "walking_time": "약 4분"
      },
      {
        "convenience_store_lat": 37.48948224,
        "convenience_store_lon": 126.9289582,
        "convenience_store_type": "편의점",
        "convenience_store_name": "CU 관악힐링점",
        "distance": 230.4678279312712,
        "walking_time": "약 4분"
      },
      {
        "convenience_store_lat": 37.4912751,
        "convenience_store_lon": 126.9240947,
        "convenience_store_type": "편의점",
        "convenience_store_name": "세븐일레븐 보라매점",
        "distance": 243.24749850714304,
        "walking_time": "약 4분"
      },
      {
        "convenience_store_lat": 37.48947407,
        "convenience_store_lon": 126.9296142,
        "convenience_store_type": "편의점",
        "convenience_store_name": "GS25 관악보라매점",
        "distance": 283.30129034835653,
        "walking_time": "약 5분"
      },
      {
        "convenience_store_lat": 37.48783762,
        "convenience_store_lon": 126.9273115,
        "convenience_store_type": "편의점",
        "convenience_store_name": "CU 관악문화점",
        "distance": 296.22142882483774,
        "walking_time": "약 5분"
      },
      {
        "convenience_store_lat": 37.49094201,
        "convenience_store_lon": 126.9232712,
        "convenience_store_type": "편의점",
        "convenience_store_name": "GS25 보라매타워점",
        "distance": 302.894726593652,
        "walking_time": "약 5분"
      }
    ],
    "daycare": [
      {
        "daycare_lat": 37.49110726306653,
        "daycare_lon": 126.92553931933058,
        "daycare_type": "어린이집",
        "daycare_name": "카페24직장어린이집",
        "distance": 122.14224698709468,
        "walking_time": "약 2분"
      },
      {
        "daycare_lat": 37.49080491428225,
        "daycare_lon": 126.9283552052138,
        "daycare_type": "어린이집",
        "daycare_name": "샤인스쿨어린이집",
        "distance": 155.76980109867296,
        "walking_time": "약 3분"
      },
      {
        "daycare_lat": 37.48978617,
        "daycare_lon": 126.9285093,
        "daycare_type": "어린이집",
        "daycare_name": "횃불어린이집",
        "distance": 180.03309159780108,
        "walking_time": "약 3분"
      },
      {
        "daycare_lat": 37.48926857,
        "daycare_lon": 126.9251911,
        "daycare_type": "어린이집",
        "daycare_name": "해달별어린이집",
        "distance": 183.690589367867,
        "walking_time": "약 3분"
      },
      {
        "daycare_lat": 37.49126902,
        "daycare_lon": 126.9284791,
        "daycare_type": "어린이집",
        "daycare_name": "가나어린이집",
        "distance": 185.54019731857937,
        "walking_time": "약 3분"
      },
      {
        "daycare_lat": 37.49063548961605,
        "daycare_lon": 126.92397369229798,
        "daycare_type": "어린이집",
        "daycare_name": "현대캐피탈도담 어린이집",
        "distance": 236.8232442433116,
        "walking_time": "약 4분"
      },
      {
        "daycare_lat": 37.490676031281815,
        "daycare_lon": 126.92396799743092,
        "daycare_type": "어린이집",
        "daycare_name": "the KIDS 대방 어린이집",
        "distance": 237.7600150921033,
        "walking_time": "약 4분"
      },
      {
        "daycare_lat": 37.49238883224709,
        "daycare_lon": 126.9253593836802,
        "daycare_type": "어린이집",
        "daycare_name": "삼정어린이집",
        "distance": 243.81106788231,
        "walking_time": "약 4분"
      },
      {
        "daycare_lat": 37.48971393,
        "daycare_lon": 126.9292872,
        "daycare_type": "어린이집",
        "daycare_name": "초록마을어린이집",
        "distance": 246.81508494737528,
        "walking_time": "약 4분"
      },
      {
        "daycare_lat": 37.49120087,
        "daycare_lon": 126.9296097,
        "daycare_type": "어린이집",
        "daycare_name": "당곡1어린이집",
        "distance": 274.38636180555466,
        "walking_time": "약 5분"
      }
    ],
    "education": [
      {
        "education_lat": 37.49379251,
        "education_lon": 126.9231084,
        "education_type": "미술관/갤러리",
        "education_name": "동작아트갤러리",
        "distance": 485.511557737216,
        "walking_time": "약 8분"
      },
      {
        "education_lat": 37.4808823,
        "education_lon": 126.9182364,
        "education_type": "박물관/기념관",
        "education_name": "호림박물관(신림본관)",
        "distance": 1297.0710120970218,
        "walking_time": "약 20분"
      },
      {
        "education_lat": 37.50302549,
        "education_lon": 126.9252227,
        "education_type": "도서관",
        "education_name": "대방어린이도서관",
        "distance": 1404.0803417666446,
        "walking_time": "약 21분"
      }
    ],
    "fitness": [
      {
        "fitness_lat": 37.49059185,
        "fitness_lon": 126.927072,
        "fitness_type": "운동시설",
        "fitness_name": "짐 인 더 하우스 2호점",
        "distance": 40.67383058777811,
        "walking_time": "약 1분"
      },
      {
        "fitness_lat": 37.49008161,
        "fitness_lon": 126.9264815,
        "fitness_type": "운동시설",
        "fitness_name": "피지오숲",
        "distance": 43.400915588615845,
        "walking_time": "약 1분"
      },
      {
        "fitness_lat": 37.49003154,
        "fitness_lon": 126.9271176,
        "fitness_type": "운동시설",
        "fitness_name": "보라매점 스포애니 (주)케이디헬스케어",
        "distance": 62.24392198662419,
        "walking_time": "약 1분"
      },
      {
        "fitness_lat": 37.49014616,
        "fitness_lon": 126.9259748,
        "fitness_type": "운동시설",
        "fitness_name": "파인필드",
        "distance": 68.24637645635788,
        "walking_time": "약 2분"
      },
      {
        "fitness_lat": 37.49136903,
        "fitness_lon": 126.9273154,
        "fitness_type": "운동시설",
        "fitness_name": "릿업핏PT",
        "distance": 118.05597386527133,
        "walking_time": "약 2분"
      },
      {
        "fitness_lat": 37.48995972,
        "fitness_lon": 126.9279787,
        "fitness_type": "운동시설",
        "fitness_name": "온오프짐 당곡역점",
        "distance": 129.43073328903895,
        "walking_time": "약 2분"
      },
      {
        "fitness_lat": 37.48963706,
        "fitness_lon": 126.9250607,
        "fitness_type": "운동시설",
        "fitness_name": "바디클래스",
        "distance": 166.5951139871792,
        "walking_time": "약 3분"
      },
      {
        "fitness_lat": 37.49121134,
        "fitness_lon": 126.9249903,
        "fitness_type": "운동시설",
        "fitness_name": "제이디피티샵",
        "distance": 169.0144611055957,
        "walking_time": "약 3분"
      },
      {
        "fitness_lat": 37.49069953,
        "fitness_lon": 126.9239441,
        "fitness_type": "운동시설",
        "fitness_name": "크로스핏 보라매. 엘루이짐",
        "distance": 240.14565457808004,
        "walking_time": "약 4분"
      },
      {
        "fitness_lat": 37.4912751,
        "fitness_lon": 126.9240947,
        "fitness_type": "운동시설",
        "fitness_name": "짐박스피트니스 보라매점",
        "distance": 243.24749850714304,
        "walking_time": "약 4분"
      }
    ],
    "gas_station": [
      {
        "gas_station_lat": 37.49159774,
        "gas_station_lon": 126.927219,
        "gas_station_type": "주유소",
        "gas_station_name": "대양석유㈜보라매주유소",
        "distance": 137.32253195464364,
        "walking_time": "약 3분"
      },
      {
        "gas_station_lat": 37.49322282,
        "gas_station_lon": 126.9266746,
        "gas_station_type": "주유소",
        "gas_station_name": "㈜엠오티이엔지직영삼화주유소",
        "distance": 308.4439043712777,
        "walking_time": "약 5분"
      },
      {
        "gas_station_lat": 37.49838192,
        "gas_station_lon": 126.9197833,
        "gas_station_type": "주유소",
        "gas_station_name": "한경석유㈜경덕주유소",
        "distance": 1069.973484248554,
        "walking_time": "약 16분"
      },
      {
        "gas_station_lat": 37.48302235,
        "gas_station_lon": 126.9188525,
        "gas_station_type": "주유소",
        "gas_station_name": "씨제이대한통운(주)",
        "distance": 1074.708574518091,
        "walking_time": "약 17분"
      },
      {
        "gas_station_lat": 37.4824162,
        "gas_station_lon": 126.9194521,
        "gas_station_type": "주유소",
        "gas_station_name": "현대오일뱅크㈜직영관악셀프주유소",
        "distance": 1095.851439663289,
        "walking_time": "약 17분"
      },
      {
        "gas_station_lat": 37.48041974,
        "gas_station_lon": 126.9306687,
        "gas_station_type": "주유소",
        "gas_station_name": "신관주유소",
        "distance": 1170.281594048062,
        "walking_time": "약 18분"
      },
      {
        "gas_station_lat": 37.50286297,
        "gas_station_lon": 126.9351815,
        "gas_station_type": "주유소",
        "gas_station_name": "매일주유소",
        "distance": 1572.333403026923,
        "walking_time": "약 24분"
      },
      {
        "gas_station_lat": 37.50573583,
        "gas_station_lon": 126.9228813,
        "gas_station_type": "주유소",
        "gas_station_name": "GS칼텍스㈜ 대방주유소",
        "distance": 1731.9865743549528,
        "walking_time": "약 26분"
      },
      {
        "gas_station_lat": 37.50725792,
        "gas_station_lon": 126.9229157,
        "gas_station_type": "주유소",
        "gas_station_name": "씨엔에스유통(주)한성주유소",
        "distance": 1897.8400546279247,
        "walking_time": "약 29분"
      }
    ],
    "hospital": [
      {
        "hospital_lat": 37.49080219,
        "hospital_lon": 126.9269945,
        "hospital_type": "병원",
        "hospital_name": "남서울한의원",
        "distance": 49.79063619944539,
        "walking_time": "약 1분"
      },
      {
        "hospital_lat": 37.49003154,
        "hospital_lon": 126.9271176,
        "hospital_type": "병원",
        "hospital_name": "보라매정형외과의원",
        "distance": 62.24392198662419,
        "walking_time": "약 1분"
      },
      {
        "hospital_lat": 37.49003154,
        "hospital_lon": 126.9271176,
        "hospital_type": "병원",
        "hospital_name": "연세참소망치과의원",
        "distance": 62.24392198662419,
        "walking_time": "약 1분"
      },
      {
        "hospital_lat": 37.49003154,
        "hospital_lon": 126.9271176,
        "hospital_type": "병원",
        "hospital_name": "이한규내과의원",
        "distance": 62.24392198662419,
        "walking_time": "약 1분"
      },
      {
        "hospital_lat": 37.49066254,
        "hospital_lon": 126.9258422,
        "hospital_type": "병원",
        "hospital_name": "연세튼튼의원",
        "distance": 74.92104575045563,
        "walking_time": "약 2분"
      },
      {
        "hospital_lat": 37.49066254,
        "hospital_lon": 126.9258422,
        "hospital_type": "병원",
        "hospital_name": "연세튼튼한의원",
        "distance": 74.92104575045563,
        "walking_time": "약 2분"
      },
      {
        "hospital_lat": 37.49049868,
        "hospital_lon": 126.9277855,
        "hospital_type": "병원",
        "hospital_name": "연세건강한내과의원",
        "distance": 100.54665201893792,
        "walking_time": "약 2분"
      },
      {
        "hospital_lat": 37.49049868,
        "hospital_lon": 126.9277855,
        "hospital_type": "병원",
        "hospital_name": "연세한마취통증의학과의원",
        "distance": 100.54665201893792,
        "walking_time": "약 2분"
      },
      {
        "hospital_lat": 37.49049868,
        "hospital_lon": 126.9277855,
        "hospital_type": "병원",
        "hospital_name": "홍성철치과의원",
        "distance": 100.54665201893792,
        "walking_time": "약 2분"
      },
      {
        "hospital_lat": 37.49136903,
        "hospital_lon": 126.9273154,
        "hospital_type": "병원",
        "hospital_name": "보라매수치과의원",
        "distance": 118.05597386527133,
        "walking_time": "약 2분"
      }
    ],
    "music_room": [
      {
        "music_room_lat": 37.49008161,
        "music_room_lon": 126.9264815,
        "music_room_type": "노래방",
        "music_room_name": "수 노래연습장",
        "distance": 43.400915588615845,
        "walking_time": "약 1분"
      },
      {
        "music_room_lat": 37.49014616,
        "music_room_lon": 126.9259748,
        "music_room_type": "노래방",
        "music_room_name": "브이아이피 노래연습장",
        "distance": 68.24637645635788,
        "walking_time": "약 2분"
      },
      {
        "music_room_lat": 37.49102821,
        "music_room_lon": 126.9269267,
        "music_room_type": "노래방",
        "music_room_name": "큐 노래연습장",
        "distance": 68.95209418671064,
        "walking_time": "약 2분"
      },
      {
        "music_room_lat": 37.49011892,
        "music_room_lon": 126.9273817,
        "music_room_type": "노래방",
        "music_room_name": "시티노래연습장",
        "distance": 74.44512796120802,
        "walking_time": "약 2분"
      },
      {
        "music_room_lat": 37.49131824,
        "music_room_lon": 126.9261957,
        "music_room_type": "노래방",
        "music_room_name": "공원",
        "distance": 104.55536686023136,
        "walking_time": "약 2분"
      },
      {
        "music_room_lat": 37.48995972,
        "music_room_lon": 126.9279787,
        "music_room_type": "노래방",
        "music_room_name": "라이브",
        "distance": 129.43073328903895,
        "walking_time": "약 2분"
      },
      {
        "music_room_lat": 37.48931611,
        "music_room_lon": 126.9270563,
        "music_room_type": "노래방",
        "music_room_name": "뮤직박스",
        "distance": 131.03095500943485,
        "walking_time": "약 2분"
      },
      {
        "music_room_lat": 37.48961644,
        "music_room_lon": 126.9255208,
        "music_room_type": "노래방",
        "music_room_name": "원 노래연습장",
        "distance": 135.8453009607025,
        "walking_time": "약 3분"
      },
      {
        "music_room_lat": 37.48922664,
        "music_room_lon": 126.9273508,
        "music_room_type": "노래방",
        "music_room_name": "샛별",
        "distance": 149.4108049662586,
        "walking_time": "약 3분"
      },
      {
        "music_room_lat": 37.4921043,
        "music_room_lon": 126.9271025,
        "music_room_type": "노래방",
        "music_room_name": "꽃노래연습장",
        "distance": 188.3858210503577,
        "walking_time": "약 3분"
      }
    ],
    "park": [
      {
        "park_lat": 37.492333,
        "park_lon": 126.918289,
        "park_type": "공원",
        "park_name": "보라매근린공원",
        "distance": 766.6327123706847,
        "walking_time": "약 12분"
      },
      {
        "park_lat": 37.492299,
        "park_lon": 126.9385469,
        "park_type": "공원",
        "park_name": "상도근린공원",
        "distance": 1069.8043481752973,
        "walking_time": "약 16분"
      }
    ],
    "park_station": [
      {
        "park_station_lat": 37.490363,
        "park_station_lon": 126.9232398,
        "park_station_type": "주차장",
        "park_station_name": "보라매상업 공영주차장",
        "distance": 300.8160877773039,
        "walking_time": "약 5분"
      },
      {
        "park_station_lat": 37.48736362,
        "park_station_lon": 126.9234863,
        "park_station_type": "주차장",
        "park_station_name": "신림동공영주차장",
        "distance": 442.15390899374216,
        "walking_time": "약 7분"
      },
      {
        "park_station_lat": 37.49193146,
        "park_station_lon": 126.9331501,
        "park_station_type": "주차장",
        "park_station_name": "당곡중학교공영 ",
        "distance": 596.9104799927022,
        "walking_time": "약 9분"
      },
      {
        "park_station_lat": 37.48462415,
        "park_station_lon": 126.9252587,
        "park_station_type": "주차장",
        "park_station_name": "신림동제2공영",
        "distance": 659.1846968470466,
        "walking_time": "약 10분"
      },
      {
        "park_station_lat": 37.49330922,
        "park_station_lon": 126.9336841,
        "park_station_type": "주차장",
        "park_station_name": "빙수골장미",
        "distance": 697.5314614143598,
        "walking_time": "약 11분"
      },
      {
        "park_station_lat": 37.48685341,
        "park_station_lon": 126.9331906,
        "park_station_type": "주차장",
        "park_station_name": "봉천복개3 공영주차장",
        "distance": 702.2205235007165,
        "walking_time": "약 11분"
      },
      {
        "park_station_lat": 37.4848902,
        "park_station_lon": 126.9221482,
        "park_station_type": "주차장",
        "park_station_name": "남부초등학교",
        "distance": 734.61574225126,
        "walking_time": "약 11분"
      },
      {
        "park_station_lat": 37.48271916,
        "park_station_lon": 126.9275934,
        "park_station_type": "주차장",
        "park_station_name": "서원동제1공영",
        "distance": 863.5605911450443,
        "walking_time": "약 13분"
      },
      {
        "park_station_lat": 37.49872477,
        "park_station_lon": 126.9274762,
        "park_station_type": "주차장",
        "park_station_name": "구릉주차장",
        "distance": 923.1226391102248,
        "walking_time": "약 14분"
      },
      {
        "park_station_lat": 37.48671106,
        "park_station_lon": 126.9172636,
        "park_station_type": "주차장",
        "park_station_name": "관악신사시장 공영주차장",
        "distance": 926.4253046538744,
        "walking_time": "약 14분"
      }
    ],
    "pc_room": [
      {
        "pc_room_lat": 37.4910282099961,
        "pc_room_lon": 126.926926728097,
        "pc_room_type": "PC방",
        "pc_room_name": "제로백PC 봉천점",
        "distance": 68.95297910623546,
        "walking_time": "약 2분"
      },
      {
        "pc_room_lat": 37.4912113425285,
        "pc_room_lon": 126.924990343437,
        "pc_room_type": "PC방",
        "pc_room_name": "수피아PC방",
        "distance": 169.01128664473856,
        "walking_time": "약 3분"
      },
      {
        "pc_room_lat": 37.4912751024086,
        "pc_room_lon": 126.924094714271,
        "pc_room_type": "PC방",
        "pc_room_name": "피에스타PC방 보라매점",
        "distance": 243.2464337761364,
        "walking_time": "약 4분"
      },
      {
        "pc_room_lat": 37.4871786916872,
        "pc_room_lon": 126.925828834235,
        "pc_room_type": "PC방",
        "pc_room_name": "대박PC",
        "distance": 370.7477150595935,
        "walking_time": "약 6분"
      },
      {
        "pc_room_lat": 37.4872013649081,
        "pc_room_lon": 126.927813421746,
        "pc_room_type": "PC방",
        "pc_room_name": "쿡피시방",
        "distance": 375.4841450753672,
        "walking_time": "약 6분"
      },
      {
        "pc_room_lat": 37.4868916578486,
        "pc_room_lon": 126.92616007342,
        "pc_room_type": "PC방",
        "pc_room_name": "율PC",
        "distance": 397.890319717462,
        "walking_time": "약 6분"
      },
      {
        "pc_room_lat": 37.4877717480379,
        "pc_room_lon": 126.93028924443,
        "pc_room_type": "PC방",
        "pc_room_name": "스타PC방",
        "distance": 438.01591677252327,
        "walking_time": "약 7분"
      },
      {
        "pc_room_lat": 37.4946774679661,
        "pc_room_lon": 126.927071422699,
        "pc_room_type": "PC방",
        "pc_room_name": "슈가젬PC방 신대방점",
        "distance": 471.6686627619334,
        "walking_time": "약 8분"
      },
      {
        "pc_room_lat": 37.4870238962652,
        "pc_room_lon": 126.930110949482,
        "pc_room_type": "PC방",
        "pc_room_name": "가야PC방",
        "distance": 488.28690087993823,
        "walking_time": "약 8분"
      },
      {
        "pc_room_lat": 37.4870238962652,
        "pc_room_lon": 126.930110949482,
        "pc_room_type": "PC방",
        "pc_room_name": "김여사PC",
        "distance": 488.28690087993823,
        "walking_time": "약 8분"
      }
    ],
    "police_office": [
      {
        "police_office_lat": 37.48600685,
        "police_office_lon": 126.9343644,
        "police_office_type": "경찰소",
        "police_office_name": "당곡지구대",
        "distance": 841.1602180316995,
        "walking_time": "약 13분"
      },
      {
        "police_office_lat": 37.48401647,
        "police_office_lon": 126.9333173,
        "police_office_type": "경찰소",
        "police_office_name": "신림지구대",
        "distance": 926.235959977324,
        "walking_time": "약 14분"
      },
      {
        "police_office_lat": 37.49856527,
        "police_office_lon": 126.920574,
        "police_office_type": "경찰소",
        "police_office_name": "대방파출소",
        "distance": 1049.5723214506093,
        "walking_time": "약 16분"
      },
      {
        "police_office_lat": 37.4872985,
        "police_office_lon": 126.9142051,
        "police_office_type": "경찰소",
        "police_office_name": "신사지구대",
        "distance": 1152.342319554162,
        "walking_time": "약 18분"
      },
      {
        "police_office_lat": 37.49909994,
        "police_office_lon": 126.9128049,
        "police_office_type": "경찰소",
        "police_office_name": "신풍지구대",
        "distance": 1554.5961783570524,
        "walking_time": "약 24분"
      },
      {
        "police_office_lat": 37.50593298,
        "police_office_lon": 126.9362025,
        "police_office_type": "경찰소",
        "police_office_name": "상도지구대",
        "distance": 1917.0052529431573,
        "walking_time": "약 29분"
      }
    ],
    "post_office": [
      {
        "post_office_lat": 37.49121134,
        "post_office_lon": 126.9249903,
        "post_office_type": "우체국",
        "post_office_name": "서울보라매우편취급국",
        "distance": 169.0144611055957,
        "walking_time": "약 3분"
      },
      {
        "post_office_lat": 37.48501424,
        "post_office_lon": 126.9331367,
        "post_office_type": "우체국",
        "post_office_name": "서울관악우체국",
        "distance": 832.4688661444284,
        "walking_time": "약 13분"
      },
      {
        "post_office_lat": 37.49791931,
        "post_office_lon": 126.9245212,
        "post_office_type": "우체국",
        "post_office_name": "서울동작우체국",
        "distance": 851.5810834389142,
        "walking_time": "약 13분"
      },
      {
        "post_office_lat": 37.48066748,
        "post_office_lon": 126.9284834,
        "post_office_type": "우체국",
        "post_office_name": "서울신림동부우편취급국",
        "distance": 1099.6507402186764,
        "walking_time": "약 17분"
      },
      {
        "post_office_lat": 37.48501945,
        "post_office_lon": 126.9155289,
        "post_office_type": "우체국",
        "post_office_name": "서울관악신사동우편취급국",
        "distance": 1151.9098605352665,
        "walking_time": "약 18분"
      },
      {
        "post_office_lat": 37.50159201,
        "post_office_lon": 126.9205665,
        "post_office_type": "우체국",
        "post_office_name": "서울신길동우체국",
        "distance": 1350.2039403787992,
        "walking_time": "약 21분"
      },
      {
        "post_office_lat": 37.50041961,
        "post_office_lon": 126.9115445,
        "post_office_type": "우체국",
        "post_office_name": "서울신길7동우편취급국",
        "distance": 1733.3616900375123,
        "walking_time": "약 26분"
      }
    ],
    "public_health_center": [
      {
        "public_health_center_lat": 37.48784455,
        "public_health_center_lon": 126.932302,
        "public_health_center_type": "보건소",
        "public_health_center_name": "관악구보건지소",
        "distance": 576.8503253748106,
        "walking_time": "약 9분"
      },
      {
        "public_health_center_lat": 37.49961665,
        "public_health_center_lon": 126.9242845,
        "public_health_center_type": "보건소",
        "public_health_center_name": "동작구보건지소",
        "distance": 1040.496077855594,
        "walking_time": "약 16분"
      }
    ],
    "school": [
      {
        "school_lat": 37.4901681154487,
        "school_lon": 126.930369788237,
        "school_type": "초등학교",
        "school_name": "서울당곡초등학교",
        "distance": 329.8842762412368,
        "walking_time": "약 5분"
      },
      {
        "school_lat": 37.4923586311415,
        "school_lon": 126.932678731475,
        "school_type": "중학교",
        "school_name": "당곡중학교",
        "distance": 572.9123571895318,
        "walking_time": "약 9분"
      },
      {
        "school_lat": 37.4917603442825,
        "school_lon": 126.934246405052,
        "school_type": "고등학교",
        "school_name": "당곡고등학교",
        "distance": 686.0965407330224,
        "walking_time": "약 11분"
      },
      {
        "school_lat": 37.4958609410012,
        "school_lon": 126.922405470441,
        "school_type": "중학교",
        "school_name": "문창중학교",
        "distance": 708.6687667786781,
        "walking_time": "약 11분"
      },
      {
        "school_lat": 37.4851194359099,
        "school_lon": 126.922183775699,
        "school_type": "초등학교",
        "school_name": "서울남부초등학교",
        "distance": 711.5589102443201,
        "walking_time": "약 11분"
      },
      {
        "school_lat": 37.4821362472153,
        "school_lon": 126.921037135349,
        "school_type": "중학교",
        "school_name": "남서울중학교",
        "distance": 1048.546658733912,
        "walking_time": "약 16분"
      },
      {
        "school_lat": 37.4928014552579,
        "school_lon": 126.914907105304,
        "school_type": "고등학교",
        "school_name": "수도여자고등학교",
        "distance": 1068.3443940637442,
        "walking_time": "약 16분"
      },
      {
        "school_lat": 37.4928014552579,
        "school_lon": 126.914907105304,
        "school_type": "고등학교",
        "school_name": "수도여자고등학교부설방송통신고등학교",
        "distance": 1068.3443940637442,
        "walking_time": "약 16분"
      },
      {
        "school_lat": 37.4889482943857,
        "school_lon": 126.914528045959,
        "school_type": "초등학교",
        "school_name": "서울문창초등학교",
        "distance": 1082.2388846748086,
        "walking_time": "약 17분"
      },
      {
        "school_lat": 37.4958518874539,
        "school_lon": 126.916144507788,
        "school_type": "초등학교",
        "school_name": "서울보라매초등학교",
        "distance": 1104.3464887734804,
        "walking_time": "약 17분"
      }
    ],
    "self_laundromat": [
      {
        "self_laundromat_lat": 37.49878935,
        "self_laundromat_lon": 126.917808,
        "self_laundromat_type": "셀프 빨래방",
        "self_laundromat_name": "이지셀프빨래방",
        "distance": 1211.71687432929,
        "walking_time": "약 19분"
      },
      {
        "self_laundromat_lat": 37.49878935,
        "self_laundromat_lon": 126.917808,
        "self_laundromat_type": "셀프 빨래방",
        "self_laundromat_name": "이지셀프빨래방",
        "distance": 1211.71687432929,
        "walking_time": "약 19분"
      }
    ],
    "subway": [
      {
        "subway_lat": 37.4842176141092,
        "subway_lon": 126.92980331103,
        "subway_type": "지하철",
        "subway_name": "2호선-신림역",
        "distance": 746.7488994680143,
        "walking_time": "약 12분"
      },
      {
        "subway_lat": 37.4997218266711,
        "subway_lon": 126.928222967016,
        "subway_type": "지하철",
        "subway_name": "7호선-신대방삼거리역",
        "distance": 1040.4160319876516,
        "walking_time": "약 16분"
      },
      {
        "subway_lat": 37.499910050321,
        "subway_lon": 126.920489390309,
        "subway_type": "지하철",
        "subway_name": "7호선-보라매역",
        "distance": 1184.024937094464,
        "walking_time": "약 18분"
      },
      {
        "subway_lat": 37.4875759745635,
        "subway_lon": 126.913175585996,
        "subway_type": "지하철",
        "subway_name": "2호선-신대방역",
        "distance": 1230.8162054034003,
        "walking_time": "약 19분"
      },
      {
        "subway_lat": 37.5046658024741,
        "subway_lon": 126.938744364462,
        "subway_type": "지하철",
        "subway_name": "7호선-장승배기역",
        "distance": 1907.328715018139,
        "walking_time": "약 29분"
      }
    ],
    "supermarket": [
      {
        "supermarket_lat": 37.49049549,
        "supermarket_lon": 126.9249817,
        "supermarket_type": "마트",
        "supermarket_name": "롯데쇼핑(주) 관악점",
        "distance": 147.07010003547376,
        "walking_time": "약 3분"
      },
      {
        "supermarket_lat": 37.48476254,
        "supermarket_lon": 126.9300965,
        "supermarket_type": "마트",
        "supermarket_name": "르네상스쇼핑몰(주)",
        "distance": 701.7191404367895,
        "walking_time": "약 11분"
      },
      {
        "supermarket_lat": 37.48385134,
        "supermarket_lon": 126.9302345,
        "supermarket_type": "마트",
        "supermarket_name": "타임스트림",
        "distance": 798.978647514783,
        "walking_time": "약 12분"
      },
      {
        "supermarket_lat": 37.49995131,
        "supermarket_lon": 126.9295592,
        "supermarket_type": "마트",
        "supermarket_name": "(주)이마트에브리데이 대방동점",
        "distance": 1087.3837444139854,
        "walking_time": "약 17분"
      },
      {
        "supermarket_lat": 37.49897519,
        "supermarket_lon": 126.9336619,
        "supermarket_type": "마트",
        "supermarket_name": "홈플러스(주) 익스프레스 상도점",
        "distance": 1132.15605907255,
        "walking_time": "약 17분"
      },
      {
        "supermarket_lat": 37.4999427,
        "supermarket_lon": 126.9317763,
        "supermarket_type": "마트",
        "supermarket_name": "성대종합시장",
        "distance": 1148.5320847413827,
        "walking_time": "약 18분"
      },
      {
        "supermarket_lat": 37.48665276,
        "supermarket_lon": 126.9392236,
        "supermarket_type": "마트",
        "supermarket_name": "GS THE FRESH 관악은천점",
        "distance": 1187.1677593209854,
        "walking_time": "약 18분"
      },
      {
        "supermarket_lat": 37.49732616,
        "supermarket_lon": 126.9130959,
        "supermarket_type": "마트",
        "supermarket_name": "홈플러스(주) 익스프레스 신길점",
        "distance": 1419.2254649587742,
        "walking_time": "약 22분"
      },
      {
        "supermarket_lat": 37.48314523,
        "supermarket_lon": 126.9114212,
        "supermarket_type": "마트",
        "supermarket_name": "신림중앙시장",
        "distance": 1569.862123357585,
        "walking_time": "약 24분"
      },
      {
        "supermarket_lat": 37.50667661,
        "supermarket_lon": 126.911387,
        "supermarket_type": "마트",
        "supermarket_name": "GS THE FRESH 신길사러가점",
        "distance": 2251.310309681794,
        "walking_time": "약 34분"
      }
    ],
    "tax_office": [
      {
        "tax_office_lat": 37.49908057,
        "tax_office_lon": 126.9198001,
        "tax_office_type": "세무서",
        "tax_office_name": "동작세무서",
        "distance": 1134.0795153374831,
        "walking_time": "약 17분"
      }
    ],
    "theater": [
      {
        "theater_lat": 37.4838513393186,
        "theater_lon": 126.930234545397,
        "theater_type": "영화관",
        "theater_name": "롯데시네마 신림",
        "distance": 798.9803036818384,
        "walking_time": "약 12분"
      }
    ]
  }
}