{
  "클러스터_위도": 37.63949000039605,
  "클러스터_경도": 127.03006185738846,
  "클러스터_level": 3.0,
  "facilities": {
    "bus": [
      {
        "bus_lat": 37.638982,
        "bus_lon": 127.028612,
        "bus_type": "버스정류장",
        "bus_name": "강북구청사거리",
        "distance": 139.60168380043598,
        "walking_time": "약 3분"
      },
      {
        "bus_lat": 37.638748,
        "bus_lon": 127.028345,
        "bus_type": "버스정류장",
        "bus_name": "강북구청사거리",
        "distance": 172.22274397547469,
        "walking_time": "약 3분"
      },
      {
        "bus_lat": 37.64005978,
        "bus_lon": 127.0281158,
        "bus_type": "버스정류장",
        "bus_name": "수유3동우체국",
        "distance": 182.69094761323632,
        "walking_time": "약 3분"
      },
      {
        "bus_lat": 37.64089302,
        "bus_lon": 127.0288271,
        "bus_type": "버스정류장",
        "bus_name": "수유3동우체국",
        "distance": 190.1554293262141,
        "walking_time": "약 3분"
      },
      {
        "bus_lat": 37.64134568,
        "bus_lon": 127.0291615,
        "bus_type": "버스정류장",
        "bus_name": "수유3동우체국",
        "distance": 221.0473824610128,
        "walking_time": "약 4분"
      },
      {
        "bus_lat": 37.64002567,
        "bus_lon": 127.0275794,
        "bus_type": "버스정류장",
        "bus_name": "수유3동우체국",
        "distance": 226.5542658906868,
        "walking_time": "약 4분"
      },
      {
        "bus_lat": 37.63895185,
        "bus_lon": 127.0268974,
        "bus_type": "버스정류장",
        "bus_name": "수유역.노스페이스문화센터",
        "distance": 284.9902917113164,
        "walking_time": "약 5분"
      },
      {
        "bus_lat": 37.636998,
        "bus_lon": 127.031647,
        "bus_type": "버스정류장",
        "bus_name": "수송초등학교",
        "distance": 310.2659081132814,
        "walking_time": "약 5분"
      },
      {
        "bus_lat": 37.636832,
        "bus_lon": 127.031455,
        "bus_type": "버스정류장",
        "bus_name": "수송초등학교",
        "distance": 320.0024959720775,
        "walking_time": "약 5분"
      },
      {
        "bus_lat": 37.640778,
        "bus_lon": 127.033467,
        "bus_type": "버스정류장",
        "bus_name": "창2동주민센터.보건지소",
        "distance": 332.2762928796668,
        "walking_time": "약 5분"
      }
    ],
    "community_center": [
      {
        "community_center_lat": 37.63789129,
        "community_center_lon": 127.0288472,
        "community_center_type": "주민센터",
        "community_center_name": "번1동 자치회관",
        "distance": 207.4627127583216,
        "walking_time": "약 4분"
      },
      {
        "community_center_lat": 37.64141508,
        "community_center_lon": 127.035653,
        "community_center_type": "주민센터",
        "community_center_name": "창2동 자치회관",
        "distance": 536.8280493322673,
        "walking_time": "약 9분"
      },
      {
        "community_center_lat": 37.6387147,
        "community_center_lon": 127.0231464,
        "community_center_type": "주민센터",
        "community_center_name": "수유3동 자치회관",
        "distance": 614.9940689770802,
        "walking_time": "약 10분"
      },
      {
        "community_center_lat": 37.64803784,
        "community_center_lon": 127.0260513,
        "community_center_type": "주민센터",
        "community_center_name": "쌍문1동 자치회관",
        "distance": 1013.9510101586368,
        "walking_time": "약 16분"
      },
      {
        "community_center_lat": 37.64898155,
        "community_center_lon": 127.0279211,
        "community_center_type": "주민센터",
        "community_center_name": "쌍문3동 자치회관",
        "distance": 1072.1108248069131,
        "walking_time": "약 17분"
      },
      {
        "community_center_lat": 37.63799988,
        "community_center_lon": 127.0429904,
        "community_center_type": "주민센터",
        "community_center_name": "창3동 자치회관",
        "distance": 1150.388178712067,
        "walking_time": "약 18분"
      },
      {
        "community_center_lat": 37.6318813,
        "community_center_lon": 127.0390622,
        "community_center_type": "주민센터",
        "community_center_name": "번2동 자치회관",
        "distance": 1159.2728842011538,
        "walking_time": "약 18분"
      },
      {
        "community_center_lat": 37.62709135,
        "community_center_lon": 127.0269751,
        "community_center_type": "주민센터",
        "community_center_name": "미아동 자치회관",
        "distance": 1405.2072333400258,
        "walking_time": "약 21분"
      },
      {
        "community_center_lat": 37.64837711,
        "community_center_lon": 127.0438238,
        "community_center_type": "주민센터",
        "community_center_name": "창1동 자치회관",
        "distance": 1563.565901360534,
        "walking_time": "약 24분"
      },
      {
        "community_center_lat": 37.62586737,
        "community_center_lon": 127.0465907,
        "community_center_type": "주민센터",
        "community_center_name": "번3동 자치회관",
        "distance": 2100.7335896990267,
        "walking_time": "약 32분"
      }
    ],
    "convenience_store": [
      {
        "convenience_store_lat": 37.63942489,
        "convenience_store_lon": 127.0287322,
        "convenience_store_type": "편의점",
        "convenience_store_name": "CU 수유번동점",
        "distance": 117.30242615764624,
        "walking_time": "약 2분"
      },
      {
        "convenience_store_lat": 37.63935337,
        "convenience_store_lon": 127.0314608,
        "convenience_store_type": "편의점",
        "convenience_store_name": "CU 번동중앙점",
        "distance": 124.11290787785644,
        "walking_time": "약 2분"
      },
      {
        "convenience_store_lat": 37.63793435,
        "convenience_store_lon": 127.0303155,
        "convenience_store_type": "편의점",
        "convenience_store_name": "GS25 번동예일점",
        "distance": 174.4162661774517,
        "walking_time": "약 3분"
      },
      {
        "convenience_store_lat": 37.6385867,
        "convenience_store_lon": 127.0276198,
        "convenience_store_type": "편의점",
        "convenience_store_name": "세븐일레븐 수유영준점",
        "distance": 237.3311951766399,
        "walking_time": "약 4분"
      },
      {
        "convenience_store_lat": 37.64189375,
        "convenience_store_lon": 127.0312675,
        "convenience_store_type": "편의점",
        "convenience_store_name": "GS25 강북한천점",
        "distance": 287.594357175973,
        "walking_time": "약 5분"
      },
      {
        "convenience_store_lat": 37.63856519,
        "convenience_store_lon": 127.0267014,
        "convenience_store_type": "편의점",
        "convenience_store_name": "GS25 수유역점",
        "distance": 313.25617486865866,
        "walking_time": "약 5분"
      },
      {
        "convenience_store_lat": 37.63715224,
        "convenience_store_lon": 127.0322457,
        "convenience_store_type": "편의점",
        "convenience_store_name": "GS25 번동수송점",
        "distance": 323.3412988497772,
        "walking_time": "약 5분"
      },
      {
        "convenience_store_lat": 37.64242774,
        "convenience_store_lon": 127.0292682,
        "convenience_store_type": "편의점",
        "convenience_store_name": "CU 수유한천점",
        "distance": 334.0528823588145,
        "walking_time": "약 5분"
      },
      {
        "convenience_store_lat": 37.63665318,
        "convenience_store_lon": 127.0315634,
        "convenience_store_type": "편의점",
        "convenience_store_name": "세븐일레븐 강북번동점",
        "distance": 342.0285132492121,
        "walking_time": "약 6분"
      },
      {
        "convenience_store_lat": 37.64041762,
        "convenience_store_lon": 127.0340297,
        "convenience_store_type": "편의점",
        "convenience_store_name": "CU 창동트리플점",
        "distance": 364.281599431128,
        "walking_time": "약 6분"
      }
    ],
    "daycare": [
      {
        "daycare_lat": 37.63968214,
        "daycare_lon": 127.0308396,
        "daycare_type": "어린이집",
        "daycare_name": "예찬어린이집",
        "distance": 71.73691000580506,
        "walking_time": "약 2분"
      },
      {
        "daycare_lat": 37.64011093,
        "daycare_lon": 127.0289599,
        "daycare_type": "어린이집",
        "daycare_name": "다솜 어린이집",
        "distance": 119.08702091664448,
        "walking_time": "약 2분"
      },
      {
        "daycare_lat": 37.63831281,
        "daycare_lon": 127.0299906,
        "daycare_type": "어린이집",
        "daycare_name": "주영광방과후교실",
        "distance": 131.04789050411878,
        "walking_time": "약 2분"
      },
      {
        "daycare_lat": 37.63831281,
        "daycare_lon": 127.0299906,
        "daycare_type": "어린이집",
        "daycare_name": "주영광어린이집",
        "distance": 131.04789050411878,
        "walking_time": "약 2분"
      },
      {
        "daycare_lat": 37.63839203,
        "daycare_lon": 127.0307499,
        "daycare_type": "어린이집",
        "daycare_name": "평강 어린이집",
        "distance": 136.29402730670537,
        "walking_time": "약 3분"
      },
      {
        "daycare_lat": 37.63836965525972,
        "daycare_lon": 127.0312082147032,
        "daycare_type": "어린이집",
        "daycare_name": "구립번동어린이집",
        "distance": 160.33762705465202,
        "walking_time": "약 3분"
      },
      {
        "daycare_lat": 37.63959582457922,
        "daycare_lon": 127.0278946769087,
        "daycare_type": "어린이집",
        "daycare_name": "신한신이한이강북어린이집",
        "distance": 191.1864850485967,
        "walking_time": "약 3분"
      },
      {
        "daycare_lat": 37.64130361,
        "daycare_lon": 127.0295869,
        "daycare_type": "어린이집",
        "daycare_name": "구립번1동어린이집",
        "distance": 205.95481444316252,
        "walking_time": "약 4분"
      },
      {
        "daycare_lat": 37.63759104,
        "daycare_lon": 127.0299853,
        "daycare_type": "어린이집",
        "daycare_name": "솔로몬어린이집",
        "distance": 211.26233917511112,
        "walking_time": "약 4분"
      },
      {
        "daycare_lat": 37.63779286,
        "daycare_lon": 127.0321785,
        "daycare_type": "어린이집",
        "daycare_name": "어린왕자와어린이집",
        "distance": 265.23364495049407,
        "walking_time": "약 4분"
      }
    ],
    "education": [
      {
        "education_lat": 37.64704212,
        "education_lon": 127.0262302,
        "education_type": "도서관",
        "education_name": "쌍문채움도서관",
        "distance": 904.99121485953,
        "walking_time": "약 14분"
      },
      {
        "education_lat": 37.64856049,
        "education_lon": 127.0338822,
        "education_type": "공연장",
        "education_name": "극단 대학로극장",
        "distance": 1063.2035551460676,
        "walking_time": "약 16분"
      },
      {
        "education_lat": 37.64469094,
        "education_lon": 127.0437683,
        "education_type": "도서관",
        "education_name": "도봉문화정보도서관",
        "distance": 1338.2458808640497,
        "walking_time": "약 20분"
      },
      {
        "education_lat": 37.62511539,
        "education_lon": 127.0360797,
        "education_type": "도서관",
        "education_name": "강북문화정보도서관",
        "distance": 1683.941736390901,
        "walking_time": "약 26분"
      },
      {
        "education_lat": 37.62308136,
        "education_lon": 127.0215555,
        "education_type": "도서관",
        "education_name": "강북청소년문화정보도서관",
        "distance": 1972.3426182969768,
        "walking_time": "약 30분"
      },
      {
        "education_lat": 37.62254520644527,
        "education_lon": 127.04139068396869,
        "education_type": "미술관/갤러리",
        "education_name": "북서울꿈의숲 상상톡톡미술관",
        "distance": 2131.9934891829985,
        "walking_time": "약 32분"
      },
      {
        "education_lat": 37.62025446,
        "education_lon": 127.0443247,
        "education_type": "공연장",
        "education_name": "북서울꿈의숲아트센터 퍼포먼스홀",
        "distance": 2480.4203468602423,
        "walking_time": "약 38분"
      },
      {
        "education_lat": 37.62025446,
        "education_lon": 127.0443247,
        "education_type": "공연장",
        "education_name": "북서울꿈의숲아트센터",
        "distance": 2480.4203468602423,
        "walking_time": "약 38분"
      },
      {
        "education_lat": 37.62025446,
        "education_lon": 127.0443247,
        "education_type": "미술관/갤러리",
        "education_name": "북서울꿈의숲아트센터 드림갤러리",
        "distance": 2480.4203468602423,
        "walking_time": "약 38분"
      }
    ],
    "electric_gas_station": [
      {
        "electric_gas_station_lat": 37.6446776,
        "electric_gas_station_lon": 127.0351607,
        "electric_gas_station_type": "전기차 충전소",
        "electric_gas_station_name": "빅마켓 도봉점",
        "distance": 730.952402009394,
        "walking_time": "약 11분"
      }
    ],
    "fitness": [
      {
        "fitness_lat": 37.64058473,
        "fitness_lon": 127.0279763,
        "fitness_type": "운동시설",
        "fitness_name": "휘트니스피플 우먼 수유점",
        "distance": 220.3176895992768,
        "walking_time": "약 4분"
      },
      {
        "fitness_lat": 37.63913588,
        "fitness_lon": 127.027475,
        "fitness_type": "운동시설",
        "fitness_name": "수유역점 스포애니 (주)케이디헬스케어",
        "distance": 231.15648849019485,
        "walking_time": "약 4분"
      },
      {
        "fitness_lat": 37.63867477,
        "fitness_lon": 127.027033,
        "fitness_type": "운동시설",
        "fitness_name": "고릴라멀티짐",
        "distance": 281.6825538348973,
        "walking_time": "약 5분"
      },
      {
        "fitness_lat": 37.63978299,
        "fitness_lon": 127.026607,
        "fitness_type": "운동시설",
        "fitness_name": "하이엔드짐",
        "distance": 305.94538589553565,
        "walking_time": "약 5분"
      },
      {
        "fitness_lat": 37.63806724,
        "fitness_lon": 127.0270185,
        "fitness_type": "운동시설",
        "fitness_name": "더 퍼스트짐",
        "distance": 311.1902785216305,
        "walking_time": "약 5분"
      },
      {
        "fitness_lat": 37.63856519,
        "fitness_lon": 127.0267014,
        "fitness_type": "운동시설",
        "fitness_name": "다이어트모드 휘트니스",
        "distance": 313.25617486865866,
        "walking_time": "약 5분"
      },
      {
        "fitness_lat": 37.64253861,
        "fitness_lon": 127.0301221,
        "fitness_type": "운동시설",
        "fitness_name": "체대입시 FA",
        "distance": 339.0314188753828,
        "walking_time": "약 6분"
      },
      {
        "fitness_lat": 37.63850676,
        "fitness_lon": 127.0257263,
        "fitness_type": "운동시설",
        "fitness_name": "조인성 퍼스널 트레이닝 9호점",
        "distance": 397.1034249261179,
        "walking_time": "약 6분"
      },
      {
        "fitness_lat": 37.63725946,
        "fitness_lon": 127.0264393,
        "fitness_type": "운동시설",
        "fitness_name": "에브리피티",
        "distance": 404.0580930660403,
        "walking_time": "약 7분"
      },
      {
        "fitness_lat": 37.640693,
        "fitness_lon": 127.0345239,
        "fitness_type": "운동시설",
        "fitness_name": "벙커짐",
        "distance": 415.03554393847713,
        "walking_time": "약 7분"
      }
    ],
    "gas_station": [
      {
        "gas_station_lat": 37.64222693,
        "gas_station_lon": 127.029534,
        "gas_station_type": "주유소",
        "gas_station_name": "수유동주유소",
        "distance": 307.861304929342,
        "walking_time": "약 5분"
      },
      {
        "gas_station_lat": 37.63556362,
        "gas_station_lon": 127.0328871,
        "gas_station_type": "주유소",
        "gas_station_name": "현대오일뱅크㈜ 번동셀프주유소",
        "distance": 502.496369891608,
        "walking_time": "약 8분"
      },
      {
        "gas_station_lat": 37.63501625,
        "gas_station_lon": 127.0313097,
        "gas_station_type": "주유소",
        "gas_station_name": "㈜미래아스팔트 덕릉로주유소",
        "distance": 509.4487265857314,
        "walking_time": "약 8분"
      },
      {
        "gas_station_lat": 37.64463064,
        "gas_station_lon": 127.032708,
        "gas_station_type": "주유소",
        "gas_station_name": "동일석유㈜ 창동주유소",
        "distance": 617.2727231308414,
        "walking_time": "약 10분"
      },
      {
        "gas_station_lat": 37.64497226,
        "gas_station_lon": 127.0321589,
        "gas_station_type": "주유소",
        "gas_station_name": "삼미상사㈜ 북부주유소",
        "distance": 636.9489832827861,
        "walking_time": "약 10분"
      },
      {
        "gas_station_lat": 37.63426997,
        "gas_station_lon": 127.0377638,
        "gas_station_type": "주유소",
        "gas_station_name": "세원주유소",
        "distance": 892.6692825570749,
        "walking_time": "약 14분"
      },
      {
        "gas_station_lat": 37.6414534,
        "gas_station_lon": 127.0402982,
        "gas_station_type": "주유소",
        "gas_station_name": "대성산업㈜ 신창주유소",
        "distance": 927.3808193807278,
        "walking_time": "약 14분"
      },
      {
        "gas_station_lat": 37.64908371,
        "gas_station_lon": 127.0268164,
        "gas_station_type": "주유소",
        "gas_station_name": "현대오일뱅크(주)직영 쌍문셀프주유소",
        "distance": 1104.3799955394943,
        "walking_time": "약 17분"
      },
      {
        "gas_station_lat": 37.64684419,
        "gas_station_lon": 127.0394451,
        "gas_station_type": "주유소",
        "gas_station_name": "구도일주유소 파크빌",
        "distance": 1162.4416296745603,
        "walking_time": "약 18분"
      },
      {
        "gas_station_lat": 37.62652601,
        "gas_station_lon": 127.0264596,
        "gas_station_type": "주유소",
        "gas_station_name": "씨앤에스에너지㈜ 미아셀프주유소",
        "distance": 1476.019200201664,
        "walking_time": "약 23분"
      }
    ],
    "hospital": [
      {
        "hospital_lat": 37.64013704,
        "hospital_lon": 127.0290219,
        "hospital_type": "병원",
        "hospital_name": "현대플러스치과의원",
        "distance": 116.4536860475864,
        "walking_time": "약 2분"
      },
      {
        "hospital_lat": 37.6384255,
        "hospital_lon": 127.029533,
        "hospital_type": "병원",
        "hospital_name": "연세미래치과의원",
        "distance": 127.19771791348543,
        "walking_time": "약 2분"
      },
      {
        "hospital_lat": 37.63813463,
        "hospital_lon": 127.030017,
        "hospital_type": "병원",
        "hospital_name": "북서울요양병원",
        "distance": 150.76206111776804,
        "walking_time": "약 3분"
      },
      {
        "hospital_lat": 37.64025592,
        "hospital_lon": 127.0285044,
        "hospital_type": "병원",
        "hospital_name": "서울현대병원",
        "distance": 161.43003744534312,
        "walking_time": "약 3분"
      },
      {
        "hospital_lat": 37.63793435,
        "hospital_lon": 127.0303155,
        "hospital_type": "병원",
        "hospital_name": "수성한의원",
        "distance": 174.4162661774517,
        "walking_time": "약 3분"
      },
      {
        "hospital_lat": 37.63793435,
        "hospital_lon": 127.0303155,
        "hospital_type": "병원",
        "hospital_name": "예일소아청소년과의원",
        "distance": 174.4162661774517,
        "walking_time": "약 3분"
      },
      {
        "hospital_lat": 37.64098401,
        "hospital_lon": 127.0292253,
        "hospital_type": "병원",
        "hospital_name": "경한의원",
        "distance": 181.72420743455592,
        "walking_time": "약 3분"
      },
      {
        "hospital_lat": 37.64098401,
        "hospital_lon": 127.0292253,
        "hospital_type": "병원",
        "hospital_name": "최신치과의원",
        "distance": 181.72420743455592,
        "walking_time": "약 3분"
      },
      {
        "hospital_lat": 37.64071983,
        "hospital_lon": 127.0281521,
        "hospital_type": "병원",
        "hospital_name": "뉴욕M치과의원",
        "distance": 216.74245401888209,
        "walking_time": "약 4분"
      },
      {
        "hospital_lat": 37.64071983,
        "hospital_lon": 127.0281521,
        "hospital_type": "병원",
        "hospital_name": "청풍한의원",
        "distance": 216.74245401888209,
        "walking_time": "약 4분"
      }
    ],
    "music_room": [
      {
        "music_room_lat": 37.63907572,
        "music_room_lon": 127.028504,
        "music_room_type": "노래방",
        "music_room_name": "깨비 노래연습장",
        "distance": 144.70097100334647,
        "walking_time": "약 3분"
      },
      {
        "music_room_lat": 37.64084227,
        "music_room_lon": 127.0299961,
        "music_room_type": "노래방",
        "music_room_name": "고래고래 노래연습장",
        "distance": 150.47695364107673,
        "walking_time": "약 3분"
      },
      {
        "music_room_lat": 37.64038139,
        "music_room_lon": 127.0286399,
        "music_room_type": "노래방",
        "music_room_name": "스카이노래연습장",
        "distance": 159.68942335396636,
        "walking_time": "약 3분"
      },
      {
        "music_room_lat": 37.63807027,
        "music_room_lon": 127.029391,
        "music_room_type": "노래방",
        "music_room_name": "KBS노래연습장",
        "distance": 168.5564825705913,
        "walking_time": "약 3분"
      },
      {
        "music_room_lat": 37.64078387,
        "music_room_lon": 127.0289663,
        "music_room_type": "노래방",
        "music_room_name": "만남 노래연습장",
        "distance": 173.21826209650828,
        "walking_time": "약 3분"
      },
      {
        "music_room_lat": 37.63877232,
        "music_room_lon": 127.0283124,
        "music_room_type": "노래방",
        "music_room_name": "파티 노래연습장",
        "distance": 173.4873640837754,
        "walking_time": "약 3분"
      },
      {
        "music_room_lat": 37.63948361,
        "music_room_lon": 127.0280707,
        "music_room_type": "노래방",
        "music_room_name": "콜노래연습장",
        "distance": 175.3264535211817,
        "walking_time": "약 3분"
      },
      {
        "music_room_lat": 37.64135638,
        "music_room_lon": 127.0296291,
        "music_room_type": "노래방",
        "music_room_name": "테마",
        "distance": 211.0011073760904,
        "walking_time": "약 4분"
      },
      {
        "music_room_lat": 37.64134489,
        "music_room_lon": 127.0308519,
        "music_room_type": "노래방",
        "music_room_name": "알프스노래연습장",
        "distance": 217.66939525497332,
        "walking_time": "약 4분"
      },
      {
        "music_room_lat": 37.64090207,
        "music_room_lon": 127.0282765,
        "music_room_type": "노래방",
        "music_room_name": "허브 노래연습장",
        "distance": 222.1853123837416,
        "walking_time": "약 4분"
      }
    ],
    "park": [
      {
        "park_lat": 37.6327957,
        "park_lon": 127.0317269,
        "park_type": "공원",
        "park_name": "오동근린공원",
        "distance": 758.6741499284462,
        "walking_time": "약 12분"
      },
      {
        "park_lat": 37.6479483,
        "park_lon": 127.0405382,
        "park_type": "공원",
        "park_name": "초안산생태공원",
        "distance": 1317.3515477174103,
        "walking_time": "약 20분"
      },
      {
        "park_lat": 37.648316,
        "park_lon": 127.0455446,
        "park_type": "공원",
        "park_name": "초안산근린공원",
        "distance": 1679.7260111448634,
        "walking_time": "약 26분"
      },
      {
        "park_lat": 37.6233355,
        "park_lon": 127.0407344,
        "park_type": "공원",
        "park_name": "북서울꿈의숲",
        "distance": 2027.3098540669127,
        "walking_time": "약 31분"
      }
    ],
    "park_station": [
      {
        "park_station_lat": 37.63963922,
        "park_station_lon": 127.0268633,
        "park_station_type": "주차장",
        "park_station_name": "구청앞",
        "distance": 282.1268161311109,
        "walking_time": "약 5분"
      },
      {
        "park_station_lat": 37.63709454,
        "park_station_lon": 127.0329989,
        "park_station_type": "주차장",
        "park_station_name": "수송초등학교 공영주차장",
        "distance": 371.25671251405714,
        "walking_time": "약 6분"
      },
      {
        "park_station_lat": 37.64006723,
        "park_station_lon": 127.025884,
        "park_station_type": "주차장",
        "park_station_name": "시범 공영주차장",
        "distance": 373.423954016159,
        "walking_time": "약 6분"
      },
      {
        "park_station_lat": 37.64126334,
        "park_station_lon": 127.036287,
        "park_station_type": "주차장",
        "park_station_name": "창2동4공영주차장",
        "distance": 582.5180948738944,
        "walking_time": "약 9분"
      },
      {
        "park_station_lat": 37.63218834,
        "park_station_lon": 127.0234911,
        "park_station_type": "주차장",
        "park_station_name": "쌈지유료주차장",
        "distance": 996.9787755791464,
        "walking_time": "약 15분"
      },
      {
        "park_station_lat": 37.63204805,
        "park_station_lon": 127.023555,
        "park_station_type": "주차장",
        "park_station_name": "수유동쌈지마당공영주차장",
        "distance": 1006.5097127065608,
        "walking_time": "약 16분"
      },
      {
        "park_station_lat": 37.64604831,
        "park_station_lon": 127.0219257,
        "park_station_type": "주차장",
        "park_station_name": "수유2동 공영주차장",
        "distance": 1022.2500329866484,
        "walking_time": "약 16분"
      },
      {
        "park_station_lat": 37.64756826,
        "park_station_lon": 127.0359277,
        "park_station_type": "주차장",
        "park_station_name": "창동 쌍리단길 상점가 공영주차장",
        "distance": 1036.1539035310277,
        "walking_time": "약 16분"
      },
      {
        "park_station_lat": 37.64712558,
        "park_station_lon": 127.0371832,
        "park_station_type": "주차장",
        "park_station_name": "창1동 1공영주차장",
        "distance": 1055.4679882064306,
        "walking_time": "약 16분"
      },
      {
        "park_station_lat": 37.63315887,
        "park_station_lon": 127.0206486,
        "park_station_type": "주차장",
        "park_station_name": "색동공원공영주차장",
        "distance": 1087.5014287393672,
        "walking_time": "약 17분"
      }
    ],
    "pc_room": [
      {
        "pc_room_lat": 37.6401211664112,
        "pc_room_lon": 127.029827573322,
        "pc_room_type": "PC방",
        "pc_room_name": "G-zone PC방",
        "distance": 73.15145336055237,
        "walking_time": "약 2분"
      },
      {
        "pc_room_lat": 37.6405883896446,
        "pc_room_lon": 127.029578494872,
        "pc_room_type": "PC방",
        "pc_room_name": "벙커속의저글링",
        "distance": 129.33847650808494,
        "walking_time": "약 2분"
      },
      {
        "pc_room_lat": 37.6405883896446,
        "pc_room_lon": 127.029578494872,
        "pc_room_type": "PC방",
        "pc_room_name": "아이닉스 PC방",
        "distance": 129.33847650808494,
        "walking_time": "약 2분"
      },
      {
        "pc_room_lat": 37.6409840098933,
        "pc_room_lon": 127.029225259709,
        "pc_room_type": "PC방",
        "pc_room_name": "플레잇피씨카페(번동점)",
        "distance": 181.7256346172805,
        "walking_time": "약 3분"
      },
      {
        "pc_room_lat": 37.6409840098933,
        "pc_room_lon": 127.029225259709,
        "pc_room_type": "PC방",
        "pc_room_name": "아마존인터넷PC방",
        "distance": 181.7256346172805,
        "walking_time": "약 3분"
      },
      {
        "pc_room_lat": 37.6412705269995,
        "pc_room_lon": 127.029927966467,
        "pc_room_type": "PC방",
        "pc_room_name": "마카오PC",
        "distance": 198.3362127348896,
        "walking_time": "약 3분"
      },
      {
        "pc_room_lat": 37.6390387542455,
        "pc_room_lon": 127.027858439221,
        "pc_room_type": "PC방",
        "pc_room_name": "봉pc",
        "distance": 200.39882544146195,
        "walking_time": "약 3분"
      },
      {
        "pc_room_lat": 37.641068927668,
        "pc_room_lon": 127.031161643215,
        "pc_room_type": "PC방",
        "pc_room_name": "클릭PC방",
        "distance": 200.5038482793396,
        "walking_time": "약 3분"
      },
      {
        "pc_room_lat": 37.641068927668,
        "pc_room_lon": 127.031161643215,
        "pc_room_type": "PC방",
        "pc_room_name": "프리타임 PC방",
        "distance": 200.5038482793396,
        "walking_time": "약 3분"
      },
      {
        "pc_room_lat": 37.6409020712986,
        "pc_room_lon": 127.028276542744,
        "pc_room_type": "PC방",
        "pc_room_name": "승리PC",
        "distance": 222.1827515539944,
        "walking_time": "약 4분"
      }
    ],
    "police_office": [
      {
        "police_office_lat": 37.6359778,
        "police_office_lon": 127.0325802,
        "police_office_type": "경찰소",
        "police_office_name": "번동파출소",
        "distance": 449.10311203053055,
        "walking_time": "약 7분"
      },
      {
        "police_office_lat": 37.64351954,
        "police_office_lon": 127.0346164,
        "police_office_type": "경찰소",
        "police_office_name": "신창파출소",
        "distance": 601.3173755888934,
        "walking_time": "약 9분"
      },
      {
        "police_office_lat": 37.64433521,
        "police_office_lon": 127.0265847,
        "police_office_type": "경찰소",
        "police_office_name": "수유3파출소",
        "distance": 619.6767103221725,
        "walking_time": "약 10분"
      },
      {
        "police_office_lat": 37.64751276,
        "police_office_lon": 127.0255828,
        "police_office_type": "경찰소",
        "police_office_name": "숭미파출소",
        "distance": 975.3721472333642,
        "walking_time": "약 15분"
      },
      {
        "police_office_lat": 37.62015534,
        "police_office_lon": 127.0282649,
        "police_office_type": "경찰소",
        "police_office_name": "미아지구대",
        "distance": 2155.7321731364154,
        "walking_time": "약 33분"
      },
      {
        "police_office_lat": 37.62362546,
        "police_office_lon": 127.04813,
        "police_office_type": "경찰소",
        "police_office_name": "번3파출소",
        "distance": 2375.6055989220554,
        "walking_time": "약 36분"
      }
    ],
    "post_office": [
      {
        "post_office_lat": 37.64122994,
        "post_office_lon": 127.0286569,
        "post_office_type": "우체국",
        "post_office_name": "서울수유3동우체국",
        "distance": 229.64137004598012,
        "walking_time": "약 4분"
      },
      {
        "post_office_lat": 37.64492915,
        "post_office_lon": 127.0316588,
        "post_office_type": "우체국",
        "post_office_name": "서울쌍문한양우편취급국",
        "distance": 620.9354762766351,
        "walking_time": "약 10분"
      },
      {
        "post_office_lat": 37.63895292,
        "post_office_lon": 127.0377962,
        "post_office_type": "우체국",
        "post_office_name": "서울창2동우편취급국",
        "distance": 683.6388057363517,
        "walking_time": "약 11분"
      },
      {
        "post_office_lat": 37.6479235,
        "post_office_lon": 127.0272422,
        "post_office_type": "우체국",
        "post_office_name": "서울도봉우체국",
        "distance": 970.0681425020348,
        "walking_time": "약 15분"
      },
      {
        "post_office_lat": 37.63560227,
        "post_office_lon": 127.0200628,
        "post_office_type": "우체국",
        "post_office_name": "서울인수동우편취급국",
        "distance": 980.8599380008162,
        "walking_time": "약 15분"
      },
      {
        "post_office_lat": 37.63180799,
        "post_office_lon": 127.037878,
        "post_office_type": "우체국",
        "post_office_name": "서울번2동우체국",
        "distance": 1096.978541213396,
        "walking_time": "약 17분"
      },
      {
        "post_office_lat": 37.62402918,
        "post_office_lon": 127.0284335,
        "post_office_type": "우체국",
        "post_office_name": "서울강북우체국",
        "distance": 1725.1346678387652,
        "walking_time": "약 26분"
      },
      {
        "post_office_lat": 37.62571443,
        "post_office_lon": 127.0462356,
        "post_office_type": "우체국",
        "post_office_name": "서울번3동우체국",
        "distance": 2091.6129299704844,
        "walking_time": "약 32분"
      }
    ],
    "public_health_center": [
      {
        "public_health_center_lat": 37.64141508,
        "public_health_center_lon": 127.035653,
        "public_health_center_type": "보건소",
        "public_health_center_name": "창동 보건지소",
        "distance": 536.8280493322673,
        "walking_time": "약 9분"
      },
      {
        "public_health_center_lat": 37.6318813,
        "public_health_center_lon": 127.0390622,
        "public_health_center_type": "보건소",
        "public_health_center_name": "강북구보건소",
        "distance": 1159.2728842011538,
        "walking_time": "약 18분"
      }
    ],
    "school": [
      {
        "school_lat": 37.6373144075316,
        "school_lon": 127.032917771185,
        "school_type": "초등학교",
        "school_name": "서울수송초등학교",
        "distance": 348.9426980754364,
        "walking_time": "약 6분"
      },
      {
        "school_lat": 37.6367599332935,
        "school_lon": 127.03358552315,
        "school_type": "중학교",
        "school_name": "수송중학교",
        "distance": 434.07660810473374,
        "walking_time": "약 7분"
      },
      {
        "school_lat": 37.6449158953693,
        "school_lon": 127.025373389048,
        "school_type": "중학교",
        "school_name": "강북중학교",
        "distance": 731.0431553493298,
        "walking_time": "약 11분"
      },
      {
        "school_lat": 37.6324556910711,
        "school_lon": 127.036206363566,
        "school_type": "중학교",
        "school_name": "번동중학교",
        "distance": 951.0789825846874,
        "walking_time": "약 15분"
      },
      {
        "school_lat": 37.6432370796248,
        "school_lon": 127.041604074164,
        "school_type": "초등학교",
        "school_name": "서울창림초등학교",
        "distance": 1098.3817615329774,
        "walking_time": "약 17분"
      },
      {
        "school_lat": 37.6365395299158,
        "school_lon": 127.042084340998,
        "school_type": "초등학교",
        "school_name": "서울신창초등학교",
        "distance": 1108.294268480797,
        "walking_time": "약 17분"
      },
      {
        "school_lat": 37.6483638272869,
        "school_lon": 127.024291051625,
        "school_type": "초등학교",
        "school_name": "서울쌍문초등학교",
        "distance": 1109.8605439233547,
        "walking_time": "약 17분"
      },
      {
        "school_lat": 37.6495947287047,
        "school_lon": 127.03324806776,
        "school_type": "중학교",
        "school_name": "신도봉중학교",
        "distance": 1158.085979343186,
        "walking_time": "약 18분"
      },
      {
        "school_lat": 37.6331950434853,
        "school_lon": 127.04088417427,
        "school_type": "초등학교",
        "school_name": "서울신화초등학교",
        "distance": 1182.4112352167078,
        "walking_time": "약 18분"
      },
      {
        "school_lat": 37.631249657314,
        "school_lon": 127.020292410668,
        "school_type": "초등학교",
        "school_name": "서울수유초등학교",
        "distance": 1256.8345584588476,
        "walking_time": "약 19분"
      }
    ],
    "self_laundromat": [
      {
        "self_laundromat_lat": 37.62144228,
        "self_laundromat_lon": 127.0463268,
        "self_laundromat_type": "셀프 빨래방",
        "self_laundromat_name": "크린토피아 코인워시 성북장위루첸점",
        "distance": 2465.5384321030583,
        "walking_time": "약 37분"
      },
      {
        "self_laundromat_lat": 37.62144228,
        "self_laundromat_lon": 127.0463268,
        "self_laundromat_type": "셀프 빨래방",
        "self_laundromat_name": "크린토피아 코인워시 성북장위루첸점",
        "distance": 2465.5384321030583,
        "walking_time": "약 37분"
      }
    ],
    "subway": [
      {
        "subway_lat": 37.6377452337445,
        "subway_lon": 127.025356901379,
        "subway_type": "지하철",
        "subway_name": "4호선-수유(강북구청)역",
        "distance": 457.4619303966116,
        "walking_time": "약 7분"
      },
      {
        "subway_lat": 37.6488498649136,
        "subway_lon": 127.034880717215,
        "subway_type": "지하철",
        "subway_name": "4호선-쌍문역",
        "distance": 1123.929159795572,
        "walking_time": "약 17분"
      },
      {
        "subway_lat": 37.6264436445109,
        "subway_lon": 127.026103434413,
        "subway_type": "지하철",
        "subway_name": "4호선-미아(서울사이버대학)역",
        "distance": 1491.9796325132452,
        "walking_time": "약 23분"
      }
    ],
    "supermarket": [
      {
        "supermarket_lat": 37.63623599,
        "supermarket_lon": 127.0303422,
        "supermarket_type": "마트",
        "supermarket_name": "북부시장",
        "distance": 362.6705236442654,
        "walking_time": "약 6분"
      },
      {
        "supermarket_lat": 37.63623599,
        "supermarket_lon": 127.0303422,
        "supermarket_type": "마트",
        "supermarket_name": "강북 북부시장",
        "distance": 362.6705236442654,
        "walking_time": "약 6분"
      },
      {
        "supermarket_lat": 37.64333589,
        "supermarket_lon": 127.0350214,
        "supermarket_type": "마트",
        "supermarket_name": "(주)에브리데이리테일 창동점",
        "distance": 611.2061958423905,
        "walking_time": "약 10분"
      },
      {
        "supermarket_lat": 37.64333589,
        "supermarket_lon": 127.0350214,
        "supermarket_type": "마트",
        "supermarket_name": "(주)이마트에브리데이 창동점",
        "distance": 611.2061958423905,
        "walking_time": "약 10분"
      },
      {
        "supermarket_lat": 37.64333589,
        "supermarket_lon": 127.0350214,
        "supermarket_type": "마트",
        "supermarket_name": "(주)에브리데이리테일 창동점",
        "distance": 611.2061958423905,
        "walking_time": "약 10분"
      },
      {
        "supermarket_lat": 37.64003977,
        "supermarket_lon": 127.0372354,
        "supermarket_type": "마트",
        "supermarket_name": "삼익쇼핑",
        "distance": 634.5923810936487,
        "walking_time": "약 10분"
      },
      {
        "supermarket_lat": 37.64260638,
        "supermarket_lon": 127.0373306,
        "supermarket_type": "마트",
        "supermarket_name": "대우상가",
        "distance": 727.8021635107642,
        "walking_time": "약 11분"
      },
      {
        "supermarket_lat": 37.64033675,
        "supermarket_lon": 127.0211763,
        "supermarket_type": "마트",
        "supermarket_name": "수유중앙시장",
        "distance": 788.0299460055558,
        "walking_time": "약 12분"
      },
      {
        "supermarket_lat": 37.64641958,
        "supermarket_lon": 127.0371393,
        "supermarket_type": "마트",
        "supermarket_name": "롯데프레쉬 창동점",
        "distance": 990.9802660826756,
        "walking_time": "약 15분"
      },
      {
        "supermarket_lat": 37.63169253,
        "supermarket_lon": 127.0234675,
        "supermarket_type": "마트",
        "supermarket_name": "수유프라자",
        "distance": 1043.523349883024,
        "walking_time": "약 16분"
      }
    ],
    "theater": [
      {
        "theater_lat": 37.6424075100379,
        "theater_lon": 127.029806166339,
        "theater_type": "영화관",
        "theater_name": "CGV 수유",
        "distance": 325.19253414857815,
        "walking_time": "약 5분"
      },
      {
        "theater_lat": 37.6356640949861,
        "theater_lon": 127.02383520999,
        "theater_type": "영화관",
        "theater_name": "(주)써니트 롯데시네마 수유",
        "distance": 693.9712163183958,
        "walking_time": "약 11분"
      }
    ],
    "university": [
      {
        "university_lat": 37.629843917766,
        "university_lon": 127.027123065417,
        "university_type": "대학교",
        "university_name": "서울사이버대학교",
        "distance": 1103.3718806436548,
        "walking_time": "약 17분"
      }
    ]
  }
}