{
  "클러스터_위도": 37.614108,
  "클러스터_경도": 126.92180799999998,
  "클러스터_level": 3.0,
  "facilities": {
    "bus": [
      {
        "bus_lat": 37.61339654,
        "bus_lon": 126.92432,
        "bus_type": "버스정류장",
        "bus_name": "동명여고후문",
        "distance": 234.98023479791152,
        "walking_time": "약 4분"
      },
      {
        "bus_lat": 37.6134048,
        "bus_lon": 126.9245556,
        "bus_type": "버스정류장",
        "bus_name": "동명여고후문",
        "distance": 254.33295620574847,
        "walking_time": "약 4분"
      },
      {
        "bus_lat": 37.61597708,
        "bus_lon": 126.9240648,
        "bus_type": "버스정류장",
        "bus_name": "동명여고",
        "distance": 287.5899712982826,
        "walking_time": "약 5분"
      },
      {
        "bus_lat": 37.61617153,
        "bus_lon": 126.924016,
        "bus_type": "버스정류장",
        "bus_name": "동명여고.천주교불광동성당",
        "distance": 300.7863920389637,
        "walking_time": "약 5분"
      },
      {
        "bus_lat": 37.61137753,
        "bus_lon": 126.9220488,
        "bus_type": "버스정류장",
        "bus_name": "동명탕앞",
        "distance": 304.3543927024746,
        "walking_time": "약 5분"
      },
      {
        "bus_lat": 37.61137046,
        "bus_lon": 126.9222595,
        "bus_type": "버스정류장",
        "bus_name": "동명탕",
        "distance": 306.9875074635601,
        "walking_time": "약 5분"
      },
      {
        "bus_lat": 37.616295,
        "bus_lon": 126.924228,
        "bus_type": "버스정류장",
        "bus_name": "동명여고",
        "distance": 323.37776765448257,
        "walking_time": "약 5분"
      },
      {
        "bus_lat": 37.61560685,
        "bus_lon": 126.9250897,
        "bus_type": "버스정류장",
        "bus_name": "동명여고.천주교불광동성당",
        "distance": 333.6616276047038,
        "walking_time": "약 5분"
      },
      {
        "bus_lat": 37.61450066,
        "bus_lon": 126.9180073,
        "bus_type": "버스정류장",
        "bus_name": "대림모터스",
        "distance": 337.60715463141787,
        "walking_time": "약 6분"
      },
      {
        "bus_lat": 37.61407259,
        "bus_lon": 126.9179364,
        "bus_type": "버스정류장",
        "bus_name": "대조동주민센터",
        "distance": 341.0406199289235,
        "walking_time": "약 6분"
      }
    ],
    "community_center": [
      {
        "community_center_lat": 37.61417599,
        "community_center_lon": 126.9208071,
        "community_center_type": "주민센터",
        "community_center_name": "대조동 자치회관",
        "distance": 88.48467535836281,
        "walking_time": "약 2분"
      },
      {
        "community_center_lat": 37.61867537,
        "community_center_lon": 126.9157763,
        "community_center_type": "주민센터",
        "community_center_name": "갈현2동 자치회관",
        "distance": 734.9660406640238,
        "walking_time": "약 11분"
      },
      {
        "community_center_lat": 37.61035273,
        "community_center_lon": 126.9320881,
        "community_center_type": "주민센터",
        "community_center_name": "불광1동 자치회관",
        "distance": 997.1543000183296,
        "walking_time": "약 15분"
      },
      {
        "community_center_lat": 37.61175584,
        "community_center_lon": 126.9103541,
        "community_center_type": "주민센터",
        "community_center_name": "구산동 자치회관",
        "distance": 1042.2478886907431,
        "walking_time": "약 16분"
      },
      {
        "community_center_lat": 37.62368848,
        "community_center_lon": 126.9166888,
        "community_center_type": "주민센터",
        "community_center_name": "갈현1동 자치회관",
        "distance": 1156.7879011200755,
        "walking_time": "약 18분"
      },
      {
        "community_center_lat": 37.60440241,
        "community_center_lon": 126.9151009,
        "community_center_type": "주민센터",
        "community_center_name": "역촌동 자치회관",
        "distance": 1230.349048489123,
        "walking_time": "약 19분"
      },
      {
        "community_center_lat": 37.60245742,
        "community_center_lon": 126.9288229,
        "community_center_type": "주민센터",
        "community_center_name": "녹변동 자치회관",
        "distance": 1435.3134835978751,
        "walking_time": "약 22분"
      },
      {
        "community_center_lat": 37.62639927,
        "community_center_lon": 126.9271604,
        "community_center_type": "주민센터",
        "community_center_name": "불광2동 자치회관",
        "distance": 1445.7420848145998,
        "walking_time": "약 22분"
      },
      {
        "community_center_lat": 37.6006967,
        "community_center_lon": 126.9267462,
        "community_center_type": "주민센터",
        "community_center_name": "응암1동 자치회관",
        "distance": 1553.4192245181864,
        "walking_time": "약 24분"
      }
    ],
    "convenience_store": [
      {
        "convenience_store_lat": 37.61506219,
        "convenience_store_lon": 126.9222813,
        "convenience_store_type": "편의점",
        "convenience_store_name": "CU 은평대조점",
        "distance": 113.99738566906478,
        "walking_time": "약 2분"
      },
      {
        "convenience_store_lat": 37.6155549,
        "convenience_store_lon": 126.9238815,
        "convenience_store_type": "편의점",
        "convenience_store_name": "세븐일레븐 연신내동명점",
        "distance": 243.39440918291712,
        "walking_time": "약 4분"
      },
      {
        "convenience_store_lat": 37.61661804,
        "convenience_store_lon": 126.9225993,
        "convenience_store_type": "편의점",
        "convenience_store_name": "GS25 연신내대조점",
        "distance": 287.67463632111804,
        "walking_time": "약 5분"
      },
      {
        "convenience_store_lat": 37.61704368,
        "convenience_store_lon": 126.9217999,
        "convenience_store_type": "편의점",
        "convenience_store_name": "미니스톱 연신내동명점",
        "distance": 326.4335019055505,
        "walking_time": "약 5분"
      },
      {
        "convenience_store_lat": 37.61209425,
        "convenience_store_lon": 126.9186849,
        "convenience_store_type": "편의점",
        "convenience_store_name": "GS25 대조초교점",
        "distance": 354.70461697660664,
        "walking_time": "약 6분"
      },
      {
        "convenience_store_lat": 37.61320515,
        "convenience_store_lon": 126.9178679,
        "convenience_store_type": "편의점",
        "convenience_store_name": "GS25 연서로점",
        "distance": 361.2821204707668,
        "walking_time": "약 6분"
      },
      {
        "convenience_store_lat": 37.6151483,
        "convenience_store_lon": 126.9177304,
        "convenience_store_type": "편의점",
        "convenience_store_name": "세븐일레븐 은평연세병원점",
        "distance": 377.3287416013681,
        "walking_time": "약 6분"
      },
      {
        "convenience_store_lat": 37.61731852,
        "convenience_store_lon": 126.923232,
        "convenience_store_type": "편의점",
        "convenience_store_name": "세븐일레븐 연신내점",
        "distance": 378.38609725034354,
        "walking_time": "약 6분"
      },
      {
        "convenience_store_lat": 37.61378409,
        "convenience_store_lon": 126.9261409,
        "convenience_store_type": "편의점",
        "convenience_store_name": "세븐일레븐 은평대조점",
        "distance": 383.3465492635871,
        "walking_time": "약 6분"
      },
      {
        "convenience_store_lat": 37.61787058,
        "convenience_store_lon": 126.9212164,
        "convenience_store_type": "편의점",
        "convenience_store_name": "CU 연신내중앙점",
        "distance": 421.6122608943874,
        "walking_time": "약 7분"
      }
    ],
    "daycare": [
      {
        "daycare_lat": 37.61478712,
        "daycare_lon": 126.9222271,
        "daycare_type": "어린이집",
        "daycare_name": "하나둘셋어린이집",
        "distance": 84.05464327559363,
        "walking_time": "약 2분"
      },
      {
        "daycare_lat": 37.61526042,
        "daycare_lon": 126.9221568,
        "daycare_type": "어린이집",
        "daycare_name": "해사랑어린이집",
        "distance": 131.774732201183,
        "walking_time": "약 2분"
      },
      {
        "daycare_lat": 37.61529176,
        "daycare_lon": 126.9238135,
        "daycare_type": "어린이집",
        "daycare_name": "예나어린이집",
        "distance": 220.295374990222,
        "walking_time": "약 4분"
      },
      {
        "daycare_lat": 37.61600161,
        "daycare_lon": 126.9210338,
        "daycare_type": "어린이집",
        "daycare_name": "해뜨는어린이집",
        "distance": 221.32692029849355,
        "walking_time": "약 4분"
      },
      {
        "daycare_lat": 37.61519089982901,
        "daycare_lon": 126.91940145631544,
        "daycare_type": "어린이집",
        "daycare_name": "솔로몬어린이집",
        "distance": 243.7850196631409,
        "walking_time": "약 4분"
      },
      {
        "daycare_lat": 37.61233905,
        "daycare_lon": 126.9201591,
        "daycare_type": "어린이집",
        "daycare_name": "예원사랑어린이집",
        "distance": 244.5094024750866,
        "walking_time": "약 4분"
      },
      {
        "daycare_lat": 37.61635639,
        "daycare_lon": 126.9210094,
        "daycare_type": "어린이집",
        "daycare_name": "열린어린이집",
        "distance": 259.71648909442484,
        "walking_time": "약 4분"
      },
      {
        "daycare_lat": 37.611656,
        "daycare_lon": 126.9228125,
        "daycare_type": "어린이집",
        "daycare_name": "킨더키즈어린이집",
        "distance": 286.64727355236204,
        "walking_time": "약 5분"
      },
      {
        "daycare_lat": 37.61609822,
        "daycare_lon": 126.9194806,
        "daycare_type": "어린이집",
        "daycare_name": "솔로몬어린이집",
        "distance": 301.66096534335014,
        "walking_time": "약 5분"
      },
      {
        "daycare_lat": 37.61633825,
        "daycare_lon": 126.9194205,
        "daycare_type": "어린이집",
        "daycare_name": "새암어린이집",
        "distance": 325.1509485419284,
        "walking_time": "약 5분"
      }
    ],
    "education": [
      {
        "education_lat": 37.6139965,
        "education_lon": 126.9264997,
        "education_type": "박물관/기념관",
        "education_name": "이호철북콘서트홀",
        "distance": 413.44000960492986,
        "walking_time": "약 7분"
      },
      {
        "education_lat": 37.6139965,
        "education_lon": 126.9264997,
        "education_type": "박물관/기념관",
        "education_name": "이호철북콘서트홀",
        "distance": 413.44000960492986,
        "walking_time": "약 7분"
      },
      {
        "education_lat": 37.6190451,
        "education_lon": 126.9283998,
        "education_type": "도서관",
        "education_name": "은평구립도서관",
        "distance": 799.0460566485832,
        "walking_time": "약 12분"
      },
      {
        "education_lat": 37.61017852,
        "education_lon": 126.9126892,
        "education_type": "도서관",
        "education_name": "구립구산동도서관마을",
        "distance": 914.3746743886232,
        "walking_time": "약 14분"
      },
      {
        "education_lat": 37.61878209,
        "education_lon": 126.9325207,
        "education_type": "박물관/기념관",
        "education_name": "다문화박물관",
        "distance": 1077.2370561517346,
        "walking_time": "약 17분"
      },
      {
        "education_lat": 37.60369969,
        "education_lon": 126.9279017,
        "education_type": "문화예술회관",
        "education_name": "은평문화예술회관",
        "distance": 1275.77309645598,
        "walking_time": "약 20분"
      }
    ],
    "electric_gas_station": [
      {
        "electric_gas_station_lat": 37.60082547,
        "electric_gas_station_lon": 126.9205135,
        "electric_gas_station_type": "전기차 충전소",
        "electric_gas_station_name": "이마트 은평점",
        "distance": 1481.3454995592406,
        "walking_time": "약 23분"
      }
    ],
    "fitness": [
      {
        "fitness_lat": 37.61521902,
        "fitness_lon": 126.9240329,
        "fitness_type": "운동시설",
        "fitness_name": "한스바디밸런스",
        "distance": 231.66154055513027,
        "walking_time": "약 4분"
      },
      {
        "fitness_lat": 37.61640833,
        "fitness_lon": 126.9233486,
        "fitness_type": "운동시설",
        "fitness_name": "넘버원짐",
        "distance": 289.55070956143794,
        "walking_time": "약 5분"
      },
      {
        "fitness_lat": 37.61670631,
        "fitness_lon": 126.9206564,
        "fitness_type": "운동시설",
        "fitness_name": "멋GYM플러스",
        "distance": 306.2071906600169,
        "walking_time": "약 5분"
      },
      {
        "fitness_lat": 37.61421174,
        "fitness_lon": 126.917234,
        "fitness_type": "운동시설",
        "fitness_name": "짐라이트 구산/연신내점",
        "distance": 403.05134585549865,
        "walking_time": "약 7분"
      },
      {
        "fitness_lat": 37.61790579,
        "fitness_lon": 126.9217236,
        "fitness_type": "운동시설",
        "fitness_name": "헬슐랭 피트니스",
        "distance": 422.3604073561759,
        "walking_time": "약 7분"
      },
      {
        "fitness_lat": 37.61780002,
        "fitness_lon": 126.9201202,
        "fitness_type": "운동시설",
        "fitness_name": "연신내역 스포애니 (주)케이디헬스케어",
        "distance": 436.6212806517244,
        "walking_time": "약 7분"
      },
      {
        "fitness_lat": 37.61732595,
        "fitness_lon": 126.9188474,
        "fitness_type": "운동시설",
        "fitness_name": "주식회사 비엔아이컴퍼니(BNI COMPANY CO.LTD)",
        "distance": 442.75920999948096,
        "walking_time": "약 7분"
      },
      {
        "fitness_lat": 37.60981113,
        "fitness_lon": 126.9201075,
        "fitness_type": "운동시설",
        "fitness_name": "발리휘트니스",
        "distance": 500.7192195246104,
        "walking_time": "약 8분"
      },
      {
        "fitness_lat": 37.61194853,
        "fitness_lon": 126.9165694,
        "fitness_type": "운동시설",
        "fitness_name": "GYM 3.0",
        "distance": 520.1716281273747,
        "walking_time": "약 8분"
      },
      {
        "fitness_lat": 37.61807179,
        "fitness_lon": 126.9181991,
        "fitness_type": "운동시설",
        "fitness_name": "딜라이트짐",
        "distance": 543.419714345876,
        "walking_time": "약 9분"
      }
    ],
    "gas_station": [
      {
        "gas_station_lat": 37.60439609,
        "gas_station_lon": 126.924214,
        "gas_station_type": "주유소",
        "gas_station_name": "코끼리주유소",
        "distance": 1100.515669705167,
        "walking_time": "약 17분"
      },
      {
        "gas_station_lat": 37.62320999,
        "gas_station_lon": 126.9279457,
        "gas_station_type": "주유소",
        "gas_station_name": "불광주유소",
        "distance": 1147.419230824567,
        "walking_time": "약 18분"
      },
      {
        "gas_station_lat": 37.62534033,
        "gas_station_lon": 126.9203163,
        "gas_station_type": "주유소",
        "gas_station_name": "서울석유(주) 은평뉴타운주유소",
        "distance": 1255.8692216990266,
        "walking_time": "약 19분"
      },
      {
        "gas_station_lat": 37.62728548,
        "gas_station_lon": 126.9193984,
        "gas_station_type": "주유소",
        "gas_station_name": "서울석유(주) 박석고개주유소",
        "distance": 1480.5579147831256,
        "walking_time": "약 23분"
      },
      {
        "gas_station_lat": 37.60400332,
        "gas_station_lon": 126.9352075,
        "gas_station_type": "주유소",
        "gas_station_name": "대성산업(주)대성주유소",
        "distance": 1629.613257520189,
        "walking_time": "약 25분"
      },
      {
        "gas_station_lat": 37.62921621,
        "gas_station_lon": 126.9196736,
        "gas_station_type": "주유소",
        "gas_station_name": "성원이앤에스(주)은평지점",
        "distance": 1690.4409886897477,
        "walking_time": "약 26분"
      }
    ],
    "hospital": [
      {
        "hospital_lat": 37.61546563,
        "hospital_lon": 126.9194359,
        "hospital_type": "병원",
        "hospital_name": "대조신한의원",
        "distance": 257.76756164556286,
        "walking_time": "약 4분"
      },
      {
        "hospital_lat": 37.61586028,
        "hospital_lon": 126.9240759,
        "hospital_type": "병원",
        "hospital_name": "서울아산재활의학과의원",
        "distance": 279.0482246831311,
        "walking_time": "약 5분"
      },
      {
        "hospital_lat": 37.61613396,
        "hospital_lon": 126.9237311,
        "hospital_type": "병원",
        "hospital_name": "문치과병원",
        "distance": 281.85416355057504,
        "walking_time": "약 5분"
      },
      {
        "hospital_lat": 37.61559956,
        "hospital_lon": 126.924544,
        "hospital_type": "병원",
        "hospital_name": "소천안과의원",
        "distance": 292.5465928695052,
        "walking_time": "약 5분"
      },
      {
        "hospital_lat": 37.61679644,
        "hospital_lon": 126.9228736,
        "hospital_type": "병원",
        "hospital_name": "김종민치과의원",
        "distance": 313.32897361698707,
        "walking_time": "약 5분"
      },
      {
        "hospital_lat": 37.6112627,
        "hospital_lon": 126.9218364,
        "hospital_type": "병원",
        "hospital_name": "모아가정의학과의원",
        "distance": 316.3928143351215,
        "walking_time": "약 5분"
      },
      {
        "hospital_lat": 37.6170577,
        "hospital_lon": 126.9227038,
        "hospital_type": "병원",
        "hospital_name": "그린미소마취통증의학과의원",
        "distance": 337.3486231328839,
        "walking_time": "약 6분"
      },
      {
        "hospital_lat": 37.61695916,
        "hospital_lon": 126.9195055,
        "hospital_type": "병원",
        "hospital_name": "삼정치과의원",
        "distance": 376.3517159432752,
        "walking_time": "약 6분"
      },
      {
        "hospital_lat": 37.61731852,
        "hospital_lon": 126.923232,
        "hospital_type": "병원",
        "hospital_name": "한마음치과의원",
        "distance": 378.38609725034354,
        "walking_time": "약 6분"
      },
      {
        "hospital_lat": 37.61469222,
        "hospital_lon": 126.9174722,
        "hospital_type": "병원",
        "hospital_name": "은평연세병원",
        "distance": 387.3896004944058,
        "walking_time": "약 6분"
      }
    ],
    "music_room": [
      {
        "music_room_lat": 37.61593133,
        "music_room_lon": 126.9214016,
        "music_room_type": "노래방",
        "music_room_name": "원노래연습장",
        "distance": 205.88081456855537,
        "walking_time": "약 4분"
      },
      {
        "music_room_lat": 37.61570362,
        "music_room_lon": 126.9242544,
        "music_room_type": "노래방",
        "music_room_name": "파티노래연습장",
        "distance": 279.1267182290628,
        "walking_time": "약 5분"
      },
      {
        "music_room_lat": 37.61497599,
        "music_room_lon": 126.9181929,
        "music_room_type": "노래방",
        "music_room_name": "짱노래연습장",
        "distance": 332.7289111403483,
        "walking_time": "약 5분"
      },
      {
        "music_room_lat": 37.61706667,
        "music_room_lon": 126.9208662,
        "music_room_type": "노래방",
        "music_room_name": "썬노래방",
        "distance": 339.28626172584814,
        "walking_time": "약 6분"
      },
      {
        "music_room_lat": 37.61811701,
        "music_room_lon": 126.9216402,
        "music_room_type": "노래방",
        "music_room_name": "만남 노래연습장",
        "distance": 446.0265142961519,
        "walking_time": "약 7분"
      },
      {
        "music_room_lat": 37.61788252,
        "music_room_lon": 126.9186212,
        "music_room_type": "노래방",
        "music_room_name": "락노래연습장",
        "distance": 504.9182928139595,
        "walking_time": "약 8분"
      },
      {
        "music_room_lat": 37.6181149,
        "music_room_lon": 126.9187792,
        "music_room_type": "노래방",
        "music_room_name": "락 코인노래연습장(연신내점)",
        "distance": 519.3082896787513,
        "walking_time": "약 8분"
      },
      {
        "music_room_lat": 37.61194853,
        "music_room_lon": 126.9165694,
        "music_room_type": "노래방",
        "music_room_name": "소리빛노래연습장",
        "distance": 520.1716281273747,
        "walking_time": "약 8분"
      },
      {
        "music_room_lat": 37.60950212,
        "music_room_lon": 126.9204213,
        "music_room_type": "노래방",
        "music_room_name": "조아라노래연습장",
        "distance": 526.5149520196504,
        "walking_time": "약 8분"
      },
      {
        "music_room_lat": 37.61862085,
        "music_room_lon": 126.9195051,
        "music_room_type": "노래방",
        "music_room_name": "21세기노래연습장",
        "distance": 541.2507564858969,
        "walking_time": "약 9분"
      }
    ],
    "park": [
      {
        "park_lat": 37.619052,
        "park_lon": 126.9207354,
        "park_type": "공원",
        "park_name": "연신내물빛공원",
        "distance": 557.8062315321799,
        "walking_time": "약 9분"
      },
      {
        "park_lat": 37.6188016,
        "park_lon": 126.9298962,
        "park_type": "공원",
        "park_name": "불광근린공원",
        "distance": 883.11949556462,
        "walking_time": "약 14분"
      },
      {
        "park_lat": 37.6293824,
        "park_lon": 126.9240693,
        "park_type": "공원",
        "park_name": "향림근린공원",
        "distance": 1710.0726505690689,
        "walking_time": "약 26분"
      }
    ],
    "park_station": [
      {
        "park_station_lat": 37.6078458,
        "park_station_lon": 126.9167146,
        "park_station_type": "주차장",
        "park_station_name": "역말 공영주차장",
        "distance": 828.3476070610502,
        "walking_time": "약 13분"
      },
      {
        "park_station_lat": 37.60535189,
        "park_station_lon": 126.92314,
        "park_station_type": "주차장",
        "park_station_name": "은평평화공원",
        "distance": 980.6793169087716,
        "walking_time": "약 15분"
      },
      {
        "park_station_lat": 37.62328841,
        "park_station_lon": 126.9251059,
        "park_station_type": "주차장",
        "park_station_name": "연신중학교지하공동주차장",
        "distance": 1061.3362101311188,
        "walking_time": "약 16분"
      },
      {
        "park_station_lat": 37.62387688,
        "park_station_lon": 126.924173,
        "park_station_type": "주차장",
        "park_station_name": "연광초교지하공동주차장",
        "distance": 1106.0414589866502,
        "walking_time": "약 17분"
      },
      {
        "park_station_lat": 37.62445464,
        "park_station_lon": 126.9235465,
        "park_station_type": "주차장",
        "park_station_name": "새장골공영주차장",
        "distance": 1160.6385308443112,
        "walking_time": "약 18분"
      },
      {
        "park_station_lat": 37.60175849,
        "park_station_lon": 126.9205853,
        "park_station_type": "주차장",
        "park_station_name": "진흥로 공영주차장",
        "distance": 1377.4203478499503,
        "walking_time": "약 21분"
      },
      {
        "park_station_lat": 37.62647489,
        "park_station_lon": 126.9153166,
        "park_station_type": "주차장",
        "park_station_name": "갈현1동공영주차장",
        "distance": 1489.251286895421,
        "walking_time": "약 23분"
      }
    ],
    "pc_room": [
      {
        "pc_room_lat": 37.6167554858793,
        "pc_room_lon": 126.919299073885,
        "pc_room_type": "PC방",
        "pc_room_name": "대박PC",
        "distance": 368.1018299546223,
        "walking_time": "약 6분"
      },
      {
        "pc_room_lat": 37.616382883094,
        "pc_room_lon": 126.9184483987,
        "pc_room_type": "PC방",
        "pc_room_name": "제로100PC 연신내점",
        "distance": 389.2973565269299,
        "walking_time": "약 6분"
      },
      {
        "pc_room_lat": 37.6177797860508,
        "pc_room_lon": 126.920981012189,
        "pc_room_type": "PC방",
        "pc_room_name": "은하수",
        "distance": 414.730752682004,
        "walking_time": "약 7분"
      },
      {
        "pc_room_lat": 37.6179057885639,
        "pc_room_lon": 126.921723576681,
        "pc_room_type": "PC방",
        "pc_room_name": "쿡몬스터PC카페",
        "distance": 422.36028385021086,
        "walking_time": "약 7분"
      },
      {
        "pc_room_lat": 37.6173259520379,
        "pc_room_lon": 126.918847427928,
        "pc_room_type": "PC방",
        "pc_room_name": "레드포스PC아레나 연신내점",
        "distance": 442.7579443421873,
        "walking_time": "약 7분"
      },
      {
        "pc_room_lat": 37.6176436383991,
        "pc_room_lon": 126.919238535247,
        "pc_room_type": "PC방",
        "pc_room_name": "아이세븐 PC",
        "distance": 453.6329212021416,
        "walking_time": "약 7분"
      },
      {
        "pc_room_lat": 37.6184712197946,
        "pc_room_lon": 126.920869956637,
        "pc_room_type": "PC방",
        "pc_room_name": "스타PC방",
        "distance": 492.1527444373591,
        "walking_time": "약 8분"
      },
      {
        "pc_room_lat": 37.619122183963,
        "pc_room_lon": 126.920201767929,
        "pc_room_type": "PC방",
        "pc_room_name": "레벨업PC방 연신내점",
        "distance": 575.2210477406852,
        "walking_time": "약 9분"
      },
      {
        "pc_room_lat": 37.6193203344525,
        "pc_room_lon": 126.921445035076,
        "pc_room_type": "PC방",
        "pc_room_name": "알파PC방",
        "distance": 580.4661854597953,
        "walking_time": "약 9분"
      },
      {
        "pc_room_lat": 37.6196909418421,
        "pc_room_lon": 126.922171955937,
        "pc_room_type": "PC방",
        "pc_room_name": "퀸PC방",
        "distance": 621.6219330630792,
        "walking_time": "약 10분"
      }
    ],
    "police_office": [
      {
        "police_office_lat": 37.61114639,
        "police_office_lon": 126.9289844,
        "police_office_type": "경찰소",
        "police_office_name": "대조파출소",
        "distance": 712.7615436546946,
        "walking_time": "약 11분"
      },
      {
        "police_office_lat": 37.61521272,
        "police_office_lon": 126.9127089,
        "police_office_type": "경찰소",
        "police_office_name": "연신내지구대",
        "distance": 810.8189883806256,
        "walking_time": "약 13분"
      },
      {
        "police_office_lat": 37.62141835,
        "police_office_lon": 126.9265814,
        "police_office_type": "경찰소",
        "police_office_name": "불광지구대",
        "distance": 915.1637725110446,
        "walking_time": "약 14분"
      },
      {
        "police_office_lat": 37.6088119,
        "police_office_lon": 126.9318356,
        "police_office_type": "경찰소",
        "police_office_name": "녹번파출소",
        "distance": 1061.5971204913037,
        "walking_time": "약 16분"
      },
      {
        "police_office_lat": 37.60458817,
        "police_office_lon": 126.9150657,
        "police_office_type": "경찰소",
        "police_office_name": "역촌파출소",
        "distance": 1213.7852039085012,
        "walking_time": "약 19분"
      },
      {
        "police_office_lat": 37.60163453,
        "police_office_lon": 126.9264459,
        "police_office_type": "경찰소",
        "police_office_name": "응암지구대",
        "distance": 1445.9060258480356,
        "walking_time": "약 22분"
      }
    ],
    "post_office": [
      {
        "post_office_lat": 37.61287821,
        "post_office_lon": 126.9266815,
        "post_office_type": "우체국",
        "post_office_name": "서울대조동우체국",
        "distance": 450.5250531114887,
        "walking_time": "약 7분"
      },
      {
        "post_office_lat": 37.62031807,
        "post_office_lon": 126.9220996,
        "post_office_type": "우체국",
        "post_office_name": "서울불광2동우편취급국",
        "distance": 691.0057527774588,
        "walking_time": "약 11분"
      },
      {
        "post_office_lat": 37.61369202,
        "post_office_lon": 126.9125668,
        "post_office_type": "우체국",
        "post_office_name": "서울갈현동우체국",
        "distance": 815.2977134974118,
        "walking_time": "약 13분"
      },
      {
        "post_office_lat": 37.62165297,
        "post_office_lon": 126.9165613,
        "post_office_type": "우체국",
        "post_office_name": "서울갈현1동우편취급국",
        "distance": 957.8146252491256,
        "walking_time": "약 15분"
      },
      {
        "post_office_lat": 37.60824556,
        "post_office_lon": 126.930033,
        "post_office_type": "우체국",
        "post_office_name": "서울녹번동우편취급국",
        "distance": 974.5985598709764,
        "walking_time": "약 15분"
      },
      {
        "post_office_lat": 37.62267996,
        "post_office_lon": 126.9275377,
        "post_office_type": "우체국",
        "post_office_name": "서울연신내우체국",
        "distance": 1078.5111834856457,
        "walking_time": "약 17분"
      },
      {
        "post_office_lat": 37.60630317,
        "post_office_lon": 126.9107442,
        "post_office_type": "우체국",
        "post_office_name": "서울역촌동우편취급국",
        "distance": 1304.9774493412838,
        "walking_time": "약 20분"
      },
      {
        "post_office_lat": 37.60108939,
        "post_office_lon": 126.9266624,
        "post_office_type": "우체국",
        "post_office_name": "서울응암1동우체국",
        "distance": 1509.4423544149183,
        "walking_time": "약 23분"
      },
      {
        "post_office_lat": 37.60108939,
        "post_office_lon": 126.9266624,
        "post_office_type": "우체국",
        "post_office_name": "서울응암1동우체국",
        "distance": 1509.4423544149183,
        "walking_time": "약 23분"
      }
    ],
    "public_health_center": [
      {
        "public_health_center_lat": 37.60973711,
        "public_health_center_lon": 126.9127845,
        "public_health_center_type": "보건소",
        "public_health_center_name": "구산보건지소",
        "distance": 931.6497561809052,
        "walking_time": "약 14분"
      },
      {
        "public_health_center_lat": 37.60245742,
        "public_health_center_lon": 126.9288229,
        "public_health_center_type": "보건소",
        "public_health_center_name": "은평구보건소",
        "distance": 1435.3134835978751,
        "walking_time": "약 22분"
      }
    ],
    "school": [
      {
        "school_lat": 37.6144187859471,
        "school_lon": 126.92282044301,
        "school_type": "고등학교",
        "school_name": "동명여자고등학교",
        "distance": 95.63945194854352,
        "walking_time": "약 2분"
      },
      {
        "school_lat": 37.6144187859471,
        "school_lon": 126.92282044301,
        "school_type": "고등학교",
        "school_name": "동명생활경영고등학교",
        "distance": 95.63945194854352,
        "walking_time": "약 2분"
      },
      {
        "school_lat": 37.613579143925,
        "school_lon": 126.919302166743,
        "school_type": "초등학교",
        "school_name": "서울대조초등학교",
        "distance": 228.41883470072528,
        "walking_time": "약 4분"
      },
      {
        "school_lat": 37.6123671176016,
        "school_lon": 126.925869811138,
        "school_type": "초등학교",
        "school_name": "서울대은초등학교",
        "distance": 406.78734225281903,
        "walking_time": "약 7분"
      },
      {
        "school_lat": 37.6109458980893,
        "school_lon": 126.914792838283,
        "school_type": "고등학교",
        "school_name": "예일여자고등학교",
        "distance": 710.9547750606207,
        "walking_time": "약 11분"
      },
      {
        "school_lat": 37.6109458980893,
        "school_lon": 126.914792838283,
        "school_type": "고등학교",
        "school_name": "예일디자인고등학교",
        "distance": 710.9547750606207,
        "walking_time": "약 11분"
      },
      {
        "school_lat": 37.6109458980893,
        "school_lon": 126.914792838283,
        "school_type": "중학교",
        "school_name": "예일여자중학교",
        "distance": 710.9547750606207,
        "walking_time": "약 11분"
      },
      {
        "school_lat": 37.6109458980893,
        "school_lon": 126.914792838283,
        "school_type": "초등학교",
        "school_name": "예일초등학교",
        "distance": 710.9547750606207,
        "walking_time": "약 11분"
      },
      {
        "school_lat": 37.6197796356231,
        "school_lon": 126.916683441356,
        "school_type": "초등학교",
        "school_name": "서울갈현초등학교",
        "distance": 775.5368713958363,
        "walking_time": "약 12분"
      },
      {
        "school_lat": 37.6134294463781,
        "school_lon": 126.930718712253,
        "school_type": "초등학교",
        "school_name": "서울불광초등학교",
        "distance": 788.4941965217569,
        "walking_time": "약 12분"
      }
    ],
    "self_laundromat": [
      {
        "self_laundromat_lat": 37.61470542,
        "self_laundromat_lon": 126.9220434,
        "self_laundromat_type": "셀프 빨래방",
        "self_laundromat_name": "워시프레쉬 셀프빨래방 은평점",
        "distance": 69.59072923275478,
        "walking_time": "약 2분"
      },
      {
        "self_laundromat_lat": 37.61470542,
        "self_laundromat_lon": 126.9220434,
        "self_laundromat_type": "셀프 빨래방",
        "self_laundromat_name": "워시프레쉬 셀프빨래방 은평점",
        "distance": 69.59072923275478,
        "walking_time": "약 2분"
      },
      {
        "self_laundromat_lat": 37.61085982,
        "self_laundromat_lon": 126.9206898,
        "self_laundromat_type": "셀프 빨래방",
        "self_laundromat_name": "워시팡팡무인셀프빨래방 대조점",
        "distance": 374.37032423269096,
        "walking_time": "약 6분"
      },
      {
        "self_laundromat_lat": 37.61085982,
        "self_laundromat_lon": 126.9206898,
        "self_laundromat_type": "셀프 빨래방",
        "self_laundromat_name": "워시팡팡무인셀프빨래방 대조점",
        "distance": 374.37032423269096,
        "walking_time": "약 6분"
      },
      {
        "self_laundromat_lat": 37.61536536,
        "self_laundromat_lon": 126.9172261,
        "self_laundromat_type": "셀프 빨래방",
        "self_laundromat_name": "코런셀프빨래방 갈현점",
        "distance": 427.1105058306477,
        "walking_time": "약 7분"
      },
      {
        "self_laundromat_lat": 37.61536536,
        "self_laundromat_lon": 126.9172261,
        "self_laundromat_type": "셀프 빨래방",
        "self_laundromat_name": "코런셀프빨래방 갈현점",
        "distance": 427.1105058306477,
        "walking_time": "약 7분"
      },
      {
        "self_laundromat_lat": 37.61264983,
        "self_laundromat_lon": 126.91615,
        "self_laundromat_type": "셀프 빨래방",
        "self_laundromat_name": "워시프렌즈 서울갈현동점",
        "distance": 524.0844916442425,
        "walking_time": "약 8분"
      },
      {
        "self_laundromat_lat": 37.61264983,
        "self_laundromat_lon": 126.91615,
        "self_laundromat_type": "셀프 빨래방",
        "self_laundromat_name": "워시프렌즈 서울갈현동점",
        "distance": 524.0844916442425,
        "walking_time": "약 8분"
      },
      {
        "self_laundromat_lat": 37.6215792,
        "self_laundromat_lon": 126.9203697,
        "self_laundromat_type": "셀프 빨래방",
        "self_laundromat_name": "워시피플 셀프빨래방 은평연신내역점",
        "distance": 840.3628300007175,
        "walking_time": "약 13분"
      },
      {
        "self_laundromat_lat": 37.6215792,
        "self_laundromat_lon": 126.9203697,
        "self_laundromat_type": "셀프 빨래방",
        "self_laundromat_name": "워시피플 셀프빨래방 은평연신내역점",
        "distance": 840.3628300007175,
        "walking_time": "약 13분"
      }
    ],
    "subway": [
      {
        "subway_lat": 37.6112122196295,
        "subway_lon": 126.917182386796,
        "subway_type": "지하철",
        "subway_name": "6호선-구산역",
        "distance": 519.3162393217718,
        "walking_time": "약 8분"
      },
      {
        "subway_lat": 37.618962003178,
        "subway_lon": 126.921162124977,
        "subway_type": "지하철",
        "subway_name": "3호선-연신내역",
        "distance": 542.7302135978967,
        "walking_time": "약 9분"
      },
      {
        "subway_lat": 37.618962003178,
        "subway_lon": 126.921162124977,
        "subway_type": "지하철",
        "subway_name": "6호선-연신내역",
        "distance": 542.7302135978967,
        "walking_time": "약 9분"
      },
      {
        "subway_lat": 37.6102072578868,
        "subway_lon": 126.92998576213,
        "subway_type": "지하철",
        "subway_name": "3호선-불광역",
        "distance": 840.8390527123274,
        "walking_time": "약 13분"
      },
      {
        "subway_lat": 37.6102072578868,
        "subway_lon": 126.92998576213,
        "subway_type": "지하철",
        "subway_name": "6호선-불광역",
        "distance": 840.8390527123274,
        "walking_time": "약 13분"
      },
      {
        "subway_lat": 37.6060390534435,
        "subway_lon": 126.922967946327,
        "subway_type": "지하철",
        "subway_name": "6호선-역촌역",
        "distance": 903.025052652476,
        "walking_time": "약 14분"
      },
      {
        "subway_lat": 37.6183988849915,
        "subway_lon": 126.932810138476,
        "subway_type": "지하철",
        "subway_name": "6호선-독바위역",
        "distance": 1080.151522567296,
        "walking_time": "약 17분"
      },
      {
        "subway_lat": 37.6007672113884,
        "subway_lon": 126.936154179023,
        "subway_type": "지하철",
        "subway_name": "3호선-녹번역",
        "distance": 1948.7501567421928,
        "walking_time": "약 30분"
      }
    ],
    "supermarket": [
      {
        "supermarket_lat": 37.61869023,
        "supermarket_lon": 126.9220638,
        "supermarket_type": "마트",
        "supermarket_name": "롯데쇼핑(주)롯데슈퍼범서점",
        "distance": 510.01863026682736,
        "walking_time": "약 8분"
      },
      {
        "supermarket_lat": 37.61869023,
        "supermarket_lon": 126.9220638,
        "supermarket_type": "마트",
        "supermarket_name": "범서쇼핑",
        "distance": 510.01863026682736,
        "walking_time": "약 8분"
      },
      {
        "supermarket_lat": 37.61128641,
        "supermarket_lon": 126.9164773,
        "supermarket_type": "마트",
        "supermarket_name": "홈플러스(주)익스프레스구산점",
        "distance": 564.7222646327343,
        "walking_time": "약 9분"
      },
      {
        "supermarket_lat": 37.61932033,
        "supermarket_lon": 126.921445,
        "supermarket_type": "마트",
        "supermarket_name": "연서시장",
        "distance": 580.46586127724,
        "walking_time": "약 9분"
      },
      {
        "supermarket_lat": 37.61962267,
        "supermarket_lon": 126.9215229,
        "supermarket_type": "마트",
        "supermarket_name": "메트로",
        "distance": 613.7172738142064,
        "walking_time": "약 10분"
      },
      {
        "supermarket_lat": 37.61586219,
        "supermarket_lon": 126.9284327,
        "supermarket_type": "마트",
        "supermarket_name": "불광미성상가",
        "distance": 615.2480588796847,
        "walking_time": "약 10분"
      },
      {
        "supermarket_lat": 37.60973577,
        "supermarket_lon": 126.9289385,
        "supermarket_type": "마트",
        "supermarket_name": "엔씨백화점 불광점",
        "distance": 794.2628559741576,
        "walking_time": "약 12분"
      },
      {
        "supermarket_lat": 37.60973577,
        "supermarket_lon": 126.9289385,
        "supermarket_type": "마트",
        "supermarket_name": "팜스퀘어",
        "distance": 794.2628559741576,
        "walking_time": "약 12분"
      },
      {
        "supermarket_lat": 37.60607337,
        "supermarket_lon": 126.9224064,
        "supermarket_type": "마트",
        "supermarket_name": "롯데쇼핑(주) 롯데슈퍼 역촌점",
        "distance": 894.9637139724166,
        "walking_time": "약 14분"
      },
      {
        "supermarket_lat": 37.61506867,
        "supermarket_lon": 126.9330007,
        "supermarket_type": "마트",
        "supermarket_name": "대호프라자상가",
        "distance": 991.638025633939,
        "walking_time": "약 15분"
      }
    ],
    "tax_office": [
      {
        "tax_office_lat": 37.60182071,
        "tax_office_lon": 126.9263548,
        "tax_office_type": "세무서",
        "tax_office_name": "은평세무서",
        "distance": 1423.7809216349835,
        "walking_time": "약 22분"
      }
    ],
    "theater": [
      {
        "theater_lat": 37.6097357749976,
        "theater_lon": 126.928938477038,
        "theater_type": "영화관",
        "theater_name": "CGV불광",
        "distance": 794.2609163820947,
        "walking_time": "약 12분"
      },
      {
        "theater_lat": 37.6036996869964,
        "theater_lon": 126.927901672834,
        "theater_type": "영화관",
        "theater_name": "이동상영관",
        "distance": 1275.7723925900946,
        "walking_time": "약 20분"
      }
    ],
    "university": [
      {
        "university_lat": 37.6011252013344,
        "university_lon": 126.91306361612,
        "university_type": "대학교",
        "university_name": "서울기독대학교",
        "distance": 1636.2725127484473,
        "walking_time": "약 25분"
      }
    ]
  }
}