{
  "클러스터_위도": 37.540532000000006,
  "클러스터_경도": 127.085782,
  "클러스터_level": 3.0,
  "facilities": {
    "bus": [
      {
        "bus_lat": 37.54153366,
        "bus_lon": 127.0836883,
        "bus_type": "버스정류장",
        "bus_name": "광진경찰서",
        "distance": 215.5965142252839,
        "walking_time": "약 4분"
      },
      {
        "bus_lat": 37.54221011,
        "bus_lon": 127.0842427,
        "bus_type": "버스정류장",
        "bus_name": "광진경찰서",
        "distance": 230.732853918054,
        "walking_time": "약 4분"
      },
      {
        "bus_lat": 37.54234688,
        "bus_lon": 127.0843546,
        "bus_type": "버스정류장",
        "bus_name": "광진경찰서앞",
        "distance": 237.83160613369608,
        "walking_time": "약 4분"
      },
      {
        "bus_lat": 37.53896485,
        "bus_lon": 127.0834074,
        "bus_type": "버스정류장",
        "bus_name": "광진구청",
        "distance": 272.39913940455386,
        "walking_time": "약 5분"
      },
      {
        "bus_lat": 37.54308737,
        "bus_lon": 127.0846474,
        "bus_type": "버스정류장",
        "bus_name": "광진경찰서",
        "distance": 301.2388973461461,
        "walking_time": "약 5분"
      },
      {
        "bus_lat": 37.53876278,
        "bus_lon": 127.0831892,
        "bus_type": "버스정류장",
        "bus_name": "광진구청",
        "distance": 301.6011698990789,
        "walking_time": "약 5분"
      },
      {
        "bus_lat": 37.54031918,
        "bus_lon": 127.0895646,
        "bus_type": "버스정류장",
        "bus_name": "구의홈마트앞",
        "distance": 334.3468966036337,
        "walking_time": "약 5분"
      },
      {
        "bus_lat": 37.54029022,
        "bus_lon": 127.089723,
        "bus_type": "버스정류장",
        "bus_name": "구의홈마트앞",
        "distance": 348.5129356849249,
        "walking_time": "약 6분"
      },
      {
        "bus_lat": 37.53770269,
        "bus_lon": 127.0879773,
        "bus_type": "버스정류장",
        "bus_name": "구의역2번출구",
        "distance": 369.3807115224645,
        "walking_time": "약 6분"
      },
      {
        "bus_lat": 37.54156336,
        "bus_lon": 127.0898705,
        "bus_type": "버스정류장",
        "bus_name": "세븐일레븐구의중앙로점앞",
        "distance": 378.2791552963554,
        "walking_time": "약 6분"
      }
    ],
    "community_center": [
      {
        "community_center_lat": 37.54241324,
        "community_center_lon": 127.0856773,
        "community_center_type": "주민센터",
        "community_center_name": "구의1동 자치회관",
        "distance": 209.3879276738381,
        "walking_time": "약 4분"
      },
      {
        "community_center_lat": 37.53799342,
        "community_center_lon": 127.0919847,
        "community_center_type": "주민센터",
        "community_center_name": "구의3동 자치회관",
        "distance": 615.4465601062955,
        "walking_time": "약 10분"
      },
      {
        "community_center_lat": 37.53449795,
        "community_center_lon": 127.0823949,
        "community_center_type": "주민센터",
        "community_center_name": "자양1동 자치회관",
        "distance": 734.4201365797846,
        "walking_time": "약 11분"
      },
      {
        "community_center_lat": 37.5471696,
        "community_center_lon": 127.089934,
        "community_center_type": "주민센터",
        "community_center_name": "구의2동 자치회관",
        "distance": 823.8594359266309,
        "walking_time": "약 13분"
      },
      {
        "community_center_lat": 37.53383394,
        "community_center_lon": 127.0729024,
        "community_center_type": "주민센터",
        "community_center_name": "자양3동 자치회관",
        "distance": 1358.0767415692922,
        "walking_time": "약 21분"
      },
      {
        "community_center_lat": 37.54652678,
        "community_center_lon": 127.0712676,
        "community_center_type": "주민센터",
        "community_center_name": "화양동 자치회관",
        "distance": 1442.876105347597,
        "walking_time": "약 22분"
      },
      {
        "community_center_lat": 37.5537606,
        "community_center_lon": 127.0805521,
        "community_center_type": "주민센터",
        "community_center_name": "능동 자치회관",
        "distance": 1541.5227859622737,
        "walking_time": "약 24분"
      },
      {
        "community_center_lat": 37.55516384,
        "community_center_lon": 127.0758916,
        "community_center_type": "주민센터",
        "community_center_name": "군자동 자치회관",
        "distance": 1845.9049897559007,
        "walking_time": "약 28분"
      },
      {
        "community_center_lat": 37.55909865,
        "community_center_lon": 127.0894329,
        "community_center_type": "주민센터",
        "community_center_name": "중곡4동 자치회관",
        "distance": 2089.455163592276,
        "walking_time": "약 32분"
      }
    ],
    "convenience_store": [
      {
        "convenience_store_lat": 37.53974135,
        "convenience_store_lon": 127.0850211,
        "convenience_store_type": "편의점",
        "convenience_store_name": "미니스톱 구의명성점",
        "distance": 110.58971766063055,
        "walking_time": "약 2분"
      },
      {
        "convenience_store_lat": 37.54124504,
        "convenience_store_lon": 127.0840042,
        "convenience_store_type": "편의점",
        "convenience_store_name": "CU 구의솔렌시아점",
        "distance": 175.65777636398084,
        "walking_time": "약 3분"
      },
      {
        "convenience_store_lat": 37.54043584,
        "convenience_store_lon": 127.0836372,
        "convenience_store_type": "편의점",
        "convenience_store_name": "이마트24 위드미광진구의점",
        "distance": 189.40695454583,
        "walking_time": "약 3분"
      },
      {
        "convenience_store_lat": 37.53890996,
        "convenience_store_lon": 127.0848229,
        "convenience_store_type": "편의점",
        "convenience_store_name": "GS25 구의점",
        "distance": 199.20267345618484,
        "walking_time": "약 3분"
      },
      {
        "convenience_store_lat": 37.54160075,
        "convenience_store_lon": 127.0836268,
        "convenience_store_type": "편의점",
        "convenience_store_name": "세븐일레븐 구의자양로점",
        "distance": 224.12181760756377,
        "walking_time": "약 4분"
      },
      {
        "convenience_store_lat": 37.54039743,
        "convenience_store_lon": 127.0884971,
        "convenience_store_type": "편의점",
        "convenience_store_name": "GS25 구의새한점",
        "distance": 239.85496401509883,
        "walking_time": "약 4분"
      },
      {
        "convenience_store_lat": 37.53837209,
        "convenience_store_lon": 127.0871315,
        "convenience_store_type": "편의점",
        "convenience_store_name": "GS25 구의점",
        "distance": 268.0293457991302,
        "walking_time": "약 5분"
      },
      {
        "convenience_store_lat": 37.53929477,
        "convenience_store_lon": 127.0829295,
        "convenience_store_type": "편의점",
        "convenience_store_name": "CU 광진구청점",
        "distance": 286.67194706897067,
        "walking_time": "약 5분"
      },
      {
        "convenience_store_lat": 37.53824698,
        "convenience_store_lon": 127.0838518,
        "convenience_store_type": "편의점",
        "convenience_store_name": "CU 광진웰츠점",
        "distance": 305.8126402472157,
        "walking_time": "약 5분"
      },
      {
        "convenience_store_lat": 37.54170493,
        "convenience_store_lon": 127.0824384,
        "convenience_store_type": "편의점",
        "convenience_store_name": "CU 구의그랜드점",
        "distance": 322.3617180847324,
        "walking_time": "약 5분"
      }
    ],
    "daycare": [
      {
        "daycare_lat": 37.540082217219975,
        "daycare_lon": 127.0863292,
        "daycare_type": "어린이집",
        "daycare_name": "구립 명성어린이집",
        "distance": 69.49138281363777,
        "walking_time": "약 2분"
      },
      {
        "daycare_lat": 37.54099739,
        "daycare_lon": 127.08665158717898,
        "daycare_type": "어린이집",
        "daycare_name": "리틀지니어스어린이집",
        "distance": 92.50028812232236,
        "walking_time": "약 2분"
      },
      {
        "daycare_lat": 37.53959618658579,
        "daycare_lon": 127.08562260618568,
        "daycare_type": "어린이집",
        "daycare_name": "신사임당어린이집",
        "distance": 105.00243580953456,
        "walking_time": "약 2분"
      },
      {
        "daycare_lat": 37.54193216,
        "daycare_lon": 127.08476980095509,
        "daycare_type": "어린이집",
        "daycare_name": "어린이나라어린이집",
        "distance": 179.4548078211806,
        "walking_time": "약 3분"
      },
      {
        "daycare_lat": 37.53964456531301,
        "daycare_lon": 127.0834502087732,
        "daycare_type": "어린이집",
        "daycare_name": "꿈나무어린이집",
        "distance": 228.04781241245703,
        "walking_time": "약 4분"
      },
      {
        "daycare_lat": 37.540026414038046,
        "daycare_lon": 127.08872337483515,
        "daycare_type": "어린이집",
        "daycare_name": "또래어린이집",
        "distance": 265.3623215527039,
        "walking_time": "약 4분"
      },
      {
        "daycare_lat": 37.54134188850016,
        "daycare_lon": 127.0886886984901,
        "daycare_type": "어린이집",
        "daycare_name": "신나는어린이집",
        "distance": 271.64133198539497,
        "walking_time": "약 5분"
      },
      {
        "daycare_lat": 37.54364751008396,
        "daycare_lon": 127.08497086028775,
        "daycare_type": "어린이집",
        "daycare_name": "동원어린이집",
        "distance": 353.7336710507819,
        "walking_time": "약 6분"
      },
      {
        "daycare_lat": 37.54387394578634,
        "daycare_lon": 127.08583561625642,
        "daycare_type": "어린이집",
        "daycare_name": "민어린이집",
        "distance": 371.6374823773616,
        "walking_time": "약 6분"
      },
      {
        "daycare_lat": 37.54373799177808,
        "daycare_lon": 127.08442781851016,
        "daycare_type": "어린이집",
        "daycare_name": "다음세대어린이집",
        "distance": 375.9522720512492,
        "walking_time": "약 6분"
      }
    ],
    "education": [
      {
        "education_lat": 37.53799342,
        "education_lon": 127.0919847,
        "education_type": "도서관",
        "education_name": "구의제3동도서관",
        "distance": 615.4465601062955,
        "walking_time": "약 10분"
      },
      {
        "education_lat": 37.54240517067264,
        "education_lon": 127.07559228463867,
        "education_type": "박물관/기념관",
        "education_name": "건국대학교 박물관",
        "distance": 922.2340254955656,
        "walking_time": "약 14분"
      },
      {
        "education_lat": 37.53918267,
        "education_lon": 127.0747119,
        "education_type": "공연장",
        "education_name": "건국대학교 새천년관대공연장",
        "distance": 987.5126995315132,
        "walking_time": "약 15분"
      },
      {
        "education_lat": 37.55096285632077,
        "education_lon": 127.08795305531277,
        "education_type": "공연장",
        "education_name": "유니버설아트센터",
        "distance": 1175.5456833516314,
        "walking_time": "약 18분"
      },
      {
        "education_lat": 37.54554942,
        "education_lon": 127.0982047,
        "education_type": "문화원",
        "education_name": "몽골 울란바타르 문화진흥원",
        "distance": 1229.1701028048271,
        "walking_time": "약 19분"
      },
      {
        "education_lat": 37.55055,
        "education_lon": 127.077569,
        "education_type": "박물관/기념관",
        "education_name": "서울상상나라",
        "distance": 1328.601717886398,
        "walking_time": "약 20분"
      },
      {
        "education_lat": 37.53757063,
        "education_lon": 127.070576,
        "education_type": "문화예술회관",
        "education_name": "나루아트센터",
        "distance": 1380.569367971757,
        "walking_time": "약 21분"
      },
      {
        "education_lat": 37.55079808,
        "education_lon": 127.0745756,
        "education_type": "미술관/갤러리",
        "education_name": "세종뮤지엄갤러리",
        "distance": 1509.7105400841638,
        "walking_time": "약 23분"
      },
      {
        "education_lat": 37.55160931,
        "education_lon": 127.0731836,
        "education_type": "공연장",
        "education_name": "세종대학교 대양홀",
        "distance": 1658.5690544990694,
        "walking_time": "약 25분"
      },
      {
        "education_lat": 37.55160931,
        "education_lon": 127.0731836,
        "education_type": "박물관/기념관",
        "education_name": "세종대학교 박물관",
        "distance": 1658.5690544990694,
        "walking_time": "약 25분"
      }
    ],
    "fitness": [
      {
        "fitness_lat": 37.54156365,
        "fitness_lon": 127.0857311,
        "fitness_type": "운동시설",
        "fitness_name": "파나마 헬스클럽",
        "distance": 114.80199615893494,
        "walking_time": "약 2분"
      },
      {
        "fitness_lat": 37.54156365,
        "fitness_lon": 127.0857311,
        "fitness_type": "운동시설",
        "fitness_name": "휘트니스헬스타운",
        "distance": 114.80199615893494,
        "walking_time": "약 2분"
      },
      {
        "fitness_lat": 37.53949647,
        "fitness_lon": 127.0847509,
        "fitness_type": "운동시설",
        "fitness_name": "나우휘트니스",
        "distance": 146.70874298077456,
        "walking_time": "약 3분"
      },
      {
        "fitness_lat": 37.53998922,
        "fitness_lon": 127.083494,
        "fitness_type": "운동시설",
        "fitness_name": "원더바디핏",
        "distance": 210.5663160325872,
        "walking_time": "약 4분"
      },
      {
        "fitness_lat": 37.53832361,
        "fitness_lon": 127.0851749,
        "fitness_type": "운동시설",
        "fitness_name": "짐유어짐",
        "distance": 251.3281613182248,
        "walking_time": "약 4분"
      },
      {
        "fitness_lat": 37.5384268,
        "fitness_lon": 127.0873536,
        "fitness_type": "운동시설",
        "fitness_name": "Choi's Body Balance",
        "distance": 272.026022508932,
        "walking_time": "약 5분"
      },
      {
        "fitness_lat": 37.53799505,
        "fitness_lon": 127.0853775,
        "fitness_type": "운동시설",
        "fitness_name": "몸가짐 휘트니스 구의점",
        "distance": 284.34156309306826,
        "walking_time": "약 5분"
      },
      {
        "fitness_lat": 37.53788806,
        "fitness_lon": 127.0851804,
        "fitness_type": "운동시설",
        "fitness_name": "A's휘트니스여성헬스",
        "distance": 298.73954689326143,
        "walking_time": "약 5분"
      },
      {
        "fitness_lat": 37.54327179,
        "fitness_lon": 127.0841916,
        "fitness_type": "운동시설",
        "fitness_name": "화인헬스",
        "distance": 335.37158667733434,
        "walking_time": "약 6분"
      },
      {
        "fitness_lat": 37.53759199,
        "fitness_lon": 127.0870373,
        "fitness_type": "운동시설",
        "fitness_name": "이루어짐 구의점",
        "distance": 345.142149989438,
        "walking_time": "약 6분"
      }
    ],
    "gas_station": [
      {
        "gas_station_lat": 37.53757602,
        "gas_station_lon": 127.0912437,
        "gas_station_type": "주유소",
        "gas_station_name": "동서울주유소",
        "distance": 583.042889004363,
        "walking_time": "약 9분"
      },
      {
        "gas_station_lat": 37.54511911,
        "gas_station_lon": 127.0804396,
        "gas_station_type": "주유소",
        "gas_station_name": "㈜창원씨더블유",
        "distance": 694.279383755346,
        "walking_time": "약 11분"
      },
      {
        "gas_station_lat": 37.53815181,
        "gas_station_lon": 127.075893,
        "gas_station_type": "주유소",
        "gas_station_name": "자양주유소",
        "distance": 911.2005288153556,
        "walking_time": "약 14분"
      },
      {
        "gas_station_lat": 37.53132018,
        "gas_station_lon": 127.0858548,
        "gas_station_type": "주유소",
        "gas_station_name": "현대오일뱅크㈜직영 장호셀프주유소",
        "distance": 1024.3277624547604,
        "walking_time": "약 16분"
      },
      {
        "gas_station_lat": 37.55563801,
        "gas_station_lon": 127.0825017,
        "gas_station_type": "주유소",
        "gas_station_name": "능동주유소(현대오일뱅크㈜직영주유소)",
        "distance": 1704.4245167902584,
        "walking_time": "약 26분"
      },
      {
        "gas_station_lat": 37.55401241,
        "gas_station_lon": 127.0704331,
        "gas_station_type": "주유소",
        "gas_station_name": "KLP제2주유소",
        "distance": 2019.391253430602,
        "walking_time": "약 31분"
      },
      {
        "gas_station_lat": 37.55498384,
        "gas_station_lon": 127.0715296,
        "gas_station_type": "주유소",
        "gas_station_name": "㈜장수주유소",
        "distance": 2039.887886472924,
        "walking_time": "약 31분"
      },
      {
        "gas_station_lat": 37.55973412,
        "gas_station_lon": 127.0878838,
        "gas_station_type": "주유소",
        "gas_station_name": "용마주유소",
        "distance": 2143.202914544674,
        "walking_time": "약 32분"
      }
    ],
    "hospital": [
      {
        "hospital_lat": 37.54188143,
        "hospital_lon": 127.0842356,
        "hospital_type": "병원",
        "hospital_name": "김형준가정의학과의원",
        "distance": 202.7422341710716,
        "walking_time": "약 4분"
      },
      {
        "hospital_lat": 37.5405343,
        "hospital_lon": 127.0831577,
        "hospital_type": "병원",
        "hospital_name": "아톰정형외과의원",
        "distance": 231.38193561782376,
        "walking_time": "약 4분"
      },
      {
        "hospital_lat": 37.53895001,
        "hospital_lon": 127.0836235,
        "hospital_type": "병원",
        "hospital_name": "박태수치과의원",
        "distance": 259.15971823957824,
        "walking_time": "약 4분"
      },
      {
        "hospital_lat": 37.53895001,
        "hospital_lon": 127.0836235,
        "hospital_type": "병원",
        "hospital_name": "우영한의원",
        "distance": 259.15971823957824,
        "walking_time": "약 4분"
      },
      {
        "hospital_lat": 37.53895001,
        "hospital_lon": 127.0836235,
        "hospital_type": "병원",
        "hospital_name": "한마음의원",
        "distance": 259.15971823957824,
        "walking_time": "약 4분"
      },
      {
        "hospital_lat": 37.53947769,
        "hospital_lon": 127.082907,
        "hospital_type": "병원",
        "hospital_name": "구길회마취통증의학과의원",
        "distance": 279.2843169242674,
        "walking_time": "약 5분"
      },
      {
        "hospital_lat": 37.53947769,
        "hospital_lon": 127.082907,
        "hospital_type": "병원",
        "hospital_name": "석성화한의원",
        "distance": 279.2843169242674,
        "walking_time": "약 5분"
      },
      {
        "hospital_lat": 37.53788806,
        "hospital_lon": 127.0851804,
        "hospital_type": "병원",
        "hospital_name": "공선식치과의원",
        "distance": 298.73954689326143,
        "walking_time": "약 5분"
      },
      {
        "hospital_lat": 37.53782943,
        "hospital_lon": 127.0857675,
        "hospital_type": "병원",
        "hospital_name": "성우한의원",
        "distance": 300.5147924031632,
        "walking_time": "약 5분"
      },
      {
        "hospital_lat": 37.53824698,
        "hospital_lon": 127.0838518,
        "hospital_type": "병원",
        "hospital_name": "연세미플러스치과의원",
        "distance": 305.8126402472157,
        "walking_time": "약 5분"
      }
    ],
    "music_room": [
      {
        "music_room_lat": 37.54113963,
        "music_room_lon": 127.0855014,
        "music_room_type": "노래방",
        "music_room_name": "25시노래방",
        "distance": 71.95243329400463,
        "walking_time": "약 2분"
      },
      {
        "music_room_lat": 37.53954114,
        "music_room_lon": 127.0850265,
        "music_room_type": "노래방",
        "music_room_name": "띵가띵가 노래연습장",
        "distance": 128.74974035149202,
        "walking_time": "약 2분"
      },
      {
        "music_room_lat": 37.5392156,
        "music_room_lon": 127.0850474,
        "music_room_type": "노래방",
        "music_room_name": "하트 노래연습장",
        "distance": 160.06658993736153,
        "walking_time": "약 3분"
      },
      {
        "music_room_lat": 37.53879285,
        "music_room_lon": 127.0848008,
        "music_room_type": "노래방",
        "music_room_name": "하하",
        "distance": 211.8537685324104,
        "walking_time": "약 4분"
      },
      {
        "music_room_lat": 37.53864042,
        "music_room_lon": 127.0851482,
        "music_room_type": "노래방",
        "music_room_name": "뱅뱅 노래연습장",
        "distance": 217.63100201100812,
        "walking_time": "약 4분"
      },
      {
        "music_room_lat": 37.5386887,
        "music_room_lon": 127.0847884,
        "music_room_type": "노래방",
        "music_room_name": "블랙홀",
        "distance": 222.90282585859265,
        "walking_time": "약 4분"
      },
      {
        "music_room_lat": 37.53851168,
        "music_room_lon": 127.0851206,
        "music_room_type": "노래방",
        "music_room_name": "지인",
        "distance": 232.0949133365461,
        "walking_time": "약 4분"
      },
      {
        "music_room_lat": 37.5385846,
        "music_room_lon": 127.0848311,
        "music_room_type": "노래방",
        "music_room_name": "연예인노래연습장",
        "distance": 232.2053205759884,
        "walking_time": "약 4분"
      },
      {
        "music_room_lat": 37.53846701,
        "music_room_lon": 127.0848429,
        "music_room_type": "노래방",
        "music_room_name": "풀잎노래연습장",
        "distance": 244.0894065565944,
        "walking_time": "약 4분"
      },
      {
        "music_room_lat": 37.53832361,
        "music_room_lon": 127.0851749,
        "music_room_type": "노래방",
        "music_room_name": "VIP",
        "distance": 251.3281613182248,
        "walking_time": "약 4분"
      }
    ],
    "park": [
      {
        "park_lat": 37.5498987,
        "park_lon": 127.0809212,
        "park_type": "공원",
        "park_name": "어린이대공원",
        "distance": 1126.247904892259,
        "walking_time": "약 17분"
      }
    ],
    "park_station": [
      {
        "park_station_lat": 37.53827595,
        "park_station_lon": 127.087868,
        "park_station_type": "주차장",
        "park_station_name": "구의1동 공영주차장",
        "distance": 311.0613339974606,
        "walking_time": "약 5분"
      },
      {
        "park_station_lat": 37.53911547,
        "park_station_lon": 127.091361,
        "park_station_type": "주차장",
        "park_station_name": "구의3동 공영주차장",
        "distance": 516.502287273981,
        "walking_time": "약 8분"
      },
      {
        "park_station_lat": 37.53774586,
        "park_station_lon": 127.0773479,
        "park_station_type": "주차장",
        "park_station_name": "송림 기사식당길 공영주차장",
        "distance": 805.5922810261901,
        "walking_time": "약 13분"
      },
      {
        "park_station_lat": 37.53379726,
        "park_station_lon": 127.0815891,
        "park_station_type": "주차장",
        "park_station_name": "자양전통시장 공영주차장",
        "distance": 835.1544690158521,
        "walking_time": "약 13분"
      },
      {
        "park_station_lat": 37.53789595,
        "park_station_lon": 127.0768344,
        "park_station_type": "주차장",
        "park_station_name": "송림 기사식당길 공영주차장",
        "distance": 841.6072402705809,
        "walking_time": "약 13분"
      },
      {
        "park_station_lat": 37.53714077,
        "park_station_lon": 127.0766272,
        "park_station_type": "주차장",
        "park_station_name": "송림기사식당길 공영주차장",
        "distance": 890.9246634053258,
        "walking_time": "약 14분"
      },
      {
        "park_station_lat": 37.53351479,
        "park_station_lon": 127.0913148,
        "park_station_type": "주차장",
        "park_station_name": "동서울 노외주차장",
        "distance": 920.2314518737328,
        "walking_time": "약 14분"
      },
      {
        "park_station_lat": 37.53522965,
        "park_station_lon": 127.0758119,
        "park_station_type": "주차장",
        "park_station_name": "송림 기사식당길 공영주차장",
        "distance": 1058.4948239935975,
        "walking_time": "약 16분"
      },
      {
        "park_station_lat": 37.53379756,
        "park_station_lon": 127.0771189,
        "park_station_type": "주차장",
        "park_station_name": "송림 기사식당길 공영주차장",
        "distance": 1069.6836184954252,
        "walking_time": "약 16분"
      },
      {
        "park_station_lat": 37.53181536,
        "park_station_lon": 127.0918511,
        "park_station_type": "주차장",
        "park_station_name": "동서울 호텔길 공영주차장",
        "distance": 1107.163148103588,
        "walking_time": "약 17분"
      }
    ],
    "pc_room": [
      {
        "pc_room_lat": 37.5397413502913,
        "pc_room_lon": 127.085021066015,
        "pc_room_type": "PC방",
        "pc_room_name": "아이넷 폴리스",
        "distance": 110.5915096955428,
        "walking_time": "약 2분"
      },
      {
        "pc_room_lat": 37.5394964725263,
        "pc_room_lon": 127.084750927093,
        "pc_room_type": "PC방",
        "pc_room_name": "콤마 PC CAFE",
        "distance": 146.7070422484013,
        "walking_time": "약 3분"
      },
      {
        "pc_room_lat": 37.5388588365985,
        "pc_room_lon": 127.085124386664,
        "pc_room_type": "PC방",
        "pc_room_name": "마카오PC",
        "distance": 194.8729648900377,
        "walking_time": "약 3분"
      },
      {
        "pc_room_lat": 37.5383492759492,
        "pc_room_lon": 127.08679556141,
        "pc_room_type": "PC방",
        "pc_room_name": "고스트",
        "distance": 258.6375284049718,
        "walking_time": "약 4분"
      },
      {
        "pc_room_lat": 37.537235766975,
        "pc_room_lon": 127.084759909345,
        "pc_room_type": "PC방",
        "pc_room_name": "에코스PC방 구의점",
        "distance": 377.4407251558915,
        "walking_time": "약 6분"
      },
      {
        "pc_room_lat": 37.5384927045864,
        "pc_room_lon": 127.089346755579,
        "pc_room_type": "PC방",
        "pc_room_name": "엔탑 PC방",
        "distance": 387.5660825119229,
        "walking_time": "약 6분"
      },
      {
        "pc_room_lat": 37.538350750252,
        "pc_room_lon": 127.089289559874,
        "pc_room_type": "PC방",
        "pc_room_name": "리그 PC 카페",
        "distance": 393.0277260766052,
        "walking_time": "약 6분"
      },
      {
        "pc_room_lat": 37.5372444977042,
        "pc_room_lon": 127.08209431704,
        "pc_room_type": "PC방",
        "pc_room_name": "구의 PC",
        "distance": 489.2336412155611,
        "walking_time": "약 8분"
      },
      {
        "pc_room_lat": 37.5364830461728,
        "pc_room_lon": 127.082634313783,
        "pc_room_type": "PC방",
        "pc_room_name": "라이온 PC",
        "distance": 528.8921951797222,
        "walking_time": "약 8분"
      },
      {
        "pc_room_lat": 37.535732559894,
        "pc_room_lon": 127.083208933655,
        "pc_room_type": "PC방",
        "pc_room_name": "놀이터PC",
        "distance": 579.8949372009082,
        "walking_time": "약 9분"
      }
    ],
    "police_office": [
      {
        "police_office_lat": 37.54589543,
        "police_office_lon": 127.0916677,
        "police_office_type": "경찰소",
        "police_office_name": "구의파출소",
        "distance": 790.5388961704081,
        "walking_time": "약 12분"
      },
      {
        "police_office_lat": 37.53662079,
        "police_office_lon": 127.0769223,
        "police_office_type": "경찰소",
        "police_office_name": "자양1파출소",
        "distance": 894.0760544293078,
        "walking_time": "약 14분"
      },
      {
        "police_office_lat": 37.54652678,
        "police_office_lon": 127.0712676,
        "police_office_type": "경찰소",
        "police_office_name": "화양지구대",
        "distance": 1442.876105347597,
        "walking_time": "약 22분"
      },
      {
        "police_office_lat": 37.53385103,
        "police_office_lon": 127.0716125,
        "police_office_type": "경찰소",
        "police_office_name": "자양파출소",
        "distance": 1453.5477186209428,
        "walking_time": "약 22분"
      }
    ],
    "post_office": [
      {
        "post_office_lat": 37.53775396,
        "post_office_lon": 127.0899611,
        "post_office_type": "우체국",
        "post_office_name": "서울광진우체국",
        "distance": 480.8269581242038,
        "walking_time": "약 8분"
      },
      {
        "post_office_lat": 37.53775396,
        "post_office_lon": 127.0899611,
        "post_office_type": "우체국",
        "post_office_name": "동서울물류센터",
        "distance": 480.8269581242038,
        "walking_time": "약 8분"
      },
      {
        "post_office_lat": 37.53560103,
        "post_office_lon": 127.0873067,
        "post_office_type": "우체국",
        "post_office_name": "동서울우편집중국",
        "distance": 564.539256141108,
        "walking_time": "약 9분"
      },
      {
        "post_office_lat": 37.54793719,
        "post_office_lon": 127.0889468,
        "post_office_type": "우체국",
        "post_office_name": "서울경안우편취급국",
        "distance": 869.4100014564204,
        "walking_time": "약 13분"
      },
      {
        "post_office_lat": 37.53918267,
        "post_office_lon": 127.0747119,
        "post_office_type": "우체국",
        "post_office_name": "건국대학교우편취급국",
        "distance": 987.5126995315132,
        "walking_time": "약 15분"
      },
      {
        "post_office_lat": 37.53572518,
        "post_office_lon": 127.0956922,
        "post_office_type": "우체국",
        "post_office_name": "서울테크노마트우편취급국",
        "distance": 1024.3098074598763,
        "walking_time": "약 16분"
      },
      {
        "post_office_lat": 37.53150528,
        "post_office_lon": 127.0805542,
        "post_office_type": "우체국",
        "post_office_name": "서울자양동우체국",
        "distance": 1104.511976516373,
        "walking_time": "약 17분"
      },
      {
        "post_office_lat": 37.55160931,
        "post_office_lon": 127.0731836,
        "post_office_type": "우체국",
        "post_office_name": "세종대학교우편취급국",
        "distance": 1658.5690544990694,
        "walking_time": "약 25분"
      },
      {
        "post_office_lat": 37.55594856,
        "post_office_lon": 127.0755462,
        "post_office_type": "우체국",
        "post_office_name": "서울능동우편취급국",
        "distance": 1937.2483987356989,
        "walking_time": "약 29분"
      }
    ],
    "public_health_center": [
      {
        "public_health_center_lat": 37.53853161,
        "public_health_center_lon": 127.0819098,
        "public_health_center_type": "보건소",
        "public_health_center_name": "광진구청",
        "distance": 407.4788070786771,
        "walking_time": "약 7분"
      },
      {
        "public_health_center_lat": 37.55933773,
        "public_health_center_lon": 127.0870912,
        "public_health_center_type": "보건소",
        "public_health_center_name": "중곡보건지소",
        "distance": 2094.284486892353,
        "walking_time": "약 32분"
      }
    ],
    "school": [
      {
        "school_lat": 37.5419293578309,
        "school_lon": 127.086973061678,
        "school_type": "고등학교",
        "school_name": "동국대학교사범대학부속여자고등학교",
        "distance": 187.5380999418805,
        "walking_time": "약 3분"
      },
      {
        "school_lat": 37.5419293578309,
        "school_lon": 127.086973061678,
        "school_type": "중학교",
        "school_name": "동국대학교사범대학부속여자중학교",
        "distance": 187.5380999418805,
        "walking_time": "약 3분"
      },
      {
        "school_lat": 37.5417240729902,
        "school_lon": 127.081597057268,
        "school_type": "중학교",
        "school_name": "건국대학교사범대학부속중학교",
        "distance": 392.0659735443799,
        "walking_time": "약 6분"
      },
      {
        "school_lat": 37.5430074366803,
        "school_lon": 127.08031177586,
        "school_type": "초등학교",
        "school_name": "서울구의초등학교",
        "distance": 555.3154574711954,
        "walking_time": "약 9분"
      },
      {
        "school_lat": 37.5368378891148,
        "school_lon": 127.080107720459,
        "school_type": "초등학교",
        "school_name": "서울자양초등학교",
        "distance": 647.3305427221406,
        "walking_time": "약 10분"
      },
      {
        "school_lat": 37.5428503028479,
        "school_lon": 127.078840375276,
        "school_type": "중학교",
        "school_name": "구의중학교",
        "distance": 664.0997975201946,
        "walking_time": "약 10분"
      },
      {
        "school_lat": 37.5370965949427,
        "school_lon": 127.092288798461,
        "school_type": "초등학교",
        "school_name": "서울구남초등학교",
        "distance": 689.2516631970636,
        "walking_time": "약 11분"
      },
      {
        "school_lat": 37.5332813682573,
        "school_lon": 127.089281026795,
        "school_type": "초등학교",
        "school_name": "성동초등학교",
        "distance": 863.2481265291501,
        "walking_time": "약 13분"
      },
      {
        "school_lat": 37.5476114602117,
        "school_lon": 127.091332532375,
        "school_type": "초등학교",
        "school_name": "서울광진초등학교",
        "distance": 926.908051258158,
        "walking_time": "약 14분"
      },
      {
        "school_lat": 37.539182674872,
        "school_lon": 127.074711902268,
        "school_type": "고등학교",
        "school_name": "건국대학교사범대학부속고등학교",
        "distance": 987.5124195413432,
        "walking_time": "약 15분"
      }
    ],
    "subway": [
      {
        "subway_lat": 37.5371535596228,
        "subway_lon": 127.086179228767,
        "subway_type": "지하철",
        "subway_name": "2호선-구의(광진구청)역",
        "distance": 377.29457804383935,
        "walking_time": "약 6분"
      },
      {
        "subway_lat": 37.5351692767888,
        "subway_lon": 127.094664569096,
        "subway_type": "지하철",
        "subway_name": "2호선-강변(동서울터미널)역",
        "distance": 984.3664073196236,
        "walking_time": "약 15분"
      },
      {
        "subway_lat": 37.540657941434,
        "subway_lon": 127.07141185507,
        "subway_type": "지하철",
        "subway_name": "7호선-건대입구역",
        "distance": 1267.0770314865083,
        "walking_time": "약 19분"
      },
      {
        "subway_lat": 37.547871203305,
        "subway_lon": 127.074549925093,
        "subway_type": "지하철",
        "subway_name": "7호선-어린이대공원(세종대)역",
        "distance": 1283.2100212383905,
        "walking_time": "약 20분"
      },
      {
        "subway_lat": 37.5524011361136,
        "subway_lon": 127.08937059931,
        "subway_type": "지하철",
        "subway_name": "5호선-아차산(어린이대공원후문)역",
        "distance": 1357.1789068667686,
        "walking_time": "약 21분"
      },
      {
        "subway_lat": 37.5573631939521,
        "subway_lon": 127.079017279019,
        "subway_type": "지하철",
        "subway_name": "5호선-군자(능동)역",
        "distance": 1964.26400104274,
        "walking_time": "약 30분"
      },
      {
        "subway_lat": 37.5573631939521,
        "subway_lon": 127.079017279019,
        "subway_type": "지하철",
        "subway_name": "7호선-군자(능동)역",
        "distance": 1964.26400104274,
        "walking_time": "약 30분"
      }
    ],
    "supermarket": [
      {
        "supermarket_lat": 37.54263602,
        "supermarket_lon": 127.0846048,
        "supermarket_type": "마트",
        "supermarket_name": "GS THE FRESH 광진구의점",
        "distance": 255.9456038460778,
        "walking_time": "약 4분"
      },
      {
        "supermarket_lat": 37.54550282,
        "supermarket_lon": 127.0887807,
        "supermarket_type": "마트",
        "supermarket_name": "구의 자이르네 판매시설",
        "distance": 612.706307258212,
        "walking_time": "약 10분"
      },
      {
        "supermarket_lat": 37.54051873,
        "supermarket_lon": 127.0942835,
        "supermarket_type": "마트",
        "supermarket_name": "홈플러스익스프레스 구의2점",
        "distance": 749.5699196878215,
        "walking_time": "약 12분"
      },
      {
        "supermarket_lat": 37.53814044,
        "supermarket_lon": 127.0966352,
        "supermarket_type": "마트",
        "supermarket_name": "구의현대종합상가",
        "distance": 993.1942166972406,
        "walking_time": "약 15분"
      },
      {
        "supermarket_lat": 37.53453851,
        "supermarket_lon": 127.0941841,
        "supermarket_type": "마트",
        "supermarket_name": "동서울터미널상가",
        "distance": 996.4863903848222,
        "walking_time": "약 15분"
      },
      {
        "supermarket_lat": 37.53678879,
        "supermarket_lon": 127.0961606,
        "supermarket_type": "마트",
        "supermarket_name": "프라임프라자상가",
        "distance": 1005.3058431051866,
        "walking_time": "약 16분"
      },
      {
        "supermarket_lat": 37.53572518,
        "supermarket_lon": 127.0956922,
        "supermarket_type": "마트",
        "supermarket_name": "테크노-마트21",
        "distance": 1024.3098074598763,
        "walking_time": "약 16분"
      },
      {
        "supermarket_lat": 37.53572518,
        "supermarket_lon": 127.0956922,
        "supermarket_type": "마트",
        "supermarket_name": "롯데쇼핑(주)롯데마트 강변점",
        "distance": 1024.3098074598763,
        "walking_time": "약 16분"
      },
      {
        "supermarket_lat": 37.54006401,
        "supermarket_lon": 127.097812,
        "supermarket_type": "마트",
        "supermarket_name": "현대종합상가",
        "distance": 1061.951659976408,
        "walking_time": "약 16분"
      },
      {
        "supermarket_lat": 37.53092173,
        "supermarket_lon": 127.084141,
        "supermarket_type": "마트",
        "supermarket_name": "프라젠 스파",
        "distance": 1078.3648912270414,
        "walking_time": "약 17분"
      }
    ],
    "theater": [
      {
        "theater_lat": 37.535725176732,
        "theater_lon": 127.095692162256,
        "theater_type": "영화관",
        "theater_name": "CGV강변",
        "distance": 1024.307158141103,
        "walking_time": "약 16분"
      },
      {
        "theater_lat": 37.5385582736952,
        "theater_lon": 127.072996184863,
        "theater_type": "영화관",
        "theater_name": "롯데시네마 건대입구관",
        "distance": 1148.4913371263135,
        "walking_time": "약 18분"
      },
      {
        "theater_lat": 37.5557904109818,
        "theater_lon": 127.078344497368,
        "theater_type": "영화관",
        "theater_name": "메가박스 군자",
        "distance": 1818.949434248564,
        "walking_time": "약 28분"
      }
    ],
    "university": [
      {
        "university_lat": 37.5464762611364,
        "university_lon": 127.071367614735,
        "university_type": "대학교",
        "university_name": "건국대학교",
        "distance": 1432.4611657067758,
        "walking_time": "약 22분"
      },
      {
        "university_lat": 37.5516093089619,
        "university_lon": 127.07318364213,
        "university_type": "대학교",
        "university_name": "세종대학교",
        "distance": 1658.5664814109907,
        "walking_time": "약 25분"
      }
    ]
  }
}