{
  "클러스터_위도": 37.57321499999999,
  "클러스터_경도": 127.013507,
  "클러스터_level": 3.0,
  "facilities": {
    "bus": [
      {
        "bus_lat": 37.57269435,
        "bus_lon": 127.0142454,
        "bus_type": "버스정류장",
        "bus_name": "동묘역",
        "distance": 87.10058571126841,
        "walking_time": "약 2분"
      },
      {
        "bus_lat": 37.57244754,
        "bus_lon": 127.0138159,
        "bus_type": "버스정류장",
        "bus_name": "동대문역.흥인지문",
        "distance": 89.57477167108262,
        "walking_time": "약 2분"
      },
      {
        "bus_lat": 37.57210531,
        "bus_lon": 127.0124518,
        "bus_type": "버스정류장",
        "bus_name": "동대문역.흥인지문",
        "distance": 154.5114099466559,
        "walking_time": "약 3분"
      },
      {
        "bus_lat": 37.57204945,
        "bus_lon": 127.0117218,
        "bus_type": "버스정류장",
        "bus_name": "동대문역.2번출구",
        "distance": 203.8386177051916,
        "walking_time": "약 4분"
      },
      {
        "bus_lat": 37.57409268,
        "bus_lon": 127.0155555,
        "bus_type": "버스정류장",
        "bus_name": "종로구민회관.창신동두산아파트",
        "distance": 205.22420305380265,
        "walking_time": "약 4분"
      },
      {
        "bus_lat": 37.57418005,
        "bus_lon": 127.0158024,
        "bus_type": "버스정류장",
        "bus_name": "동묘앞역.롯데캐슬천지인",
        "distance": 228.9925657210593,
        "walking_time": "약 4분"
      },
      {
        "bus_lat": 37.57168496,
        "bus_lon": 127.0156014,
        "bus_type": "버스정류장",
        "bus_name": "동묘앞역6번출구",
        "distance": 251.0291633086786,
        "walking_time": "약 4분"
      },
      {
        "bus_lat": 37.57192215,
        "bus_lon": 127.015945,
        "bus_type": "버스정류장",
        "bus_name": "동묘앞역5번출구",
        "distance": 258.5204076777514,
        "walking_time": "약 4분"
      },
      {
        "bus_lat": 37.57004196,
        "bus_lon": 127.0130967,
        "bus_type": "버스정류장",
        "bus_name": "청계7가.맑은내다리",
        "distance": 354.6741352730025,
        "walking_time": "약 6분"
      },
      {
        "bus_lat": 37.57364311,
        "bus_lon": 127.0175235,
        "bus_type": "버스정류장",
        "bus_name": "동묘앞역2번출구",
        "distance": 357.1609224507013,
        "walking_time": "약 6분"
      }
    ],
    "community_center": [
      {
        "community_center_lat": 37.57445049,
        "community_center_lon": 127.010871,
        "community_center_type": "주민센터",
        "community_center_name": "창신제2동 자치회관",
        "distance": 269.89079973194464,
        "walking_time": "약 5분"
      },
      {
        "community_center_lat": 37.57071856,
        "community_center_lon": 127.0163431,
        "community_center_type": "주민센터",
        "community_center_name": "창신제1동 자치회관",
        "distance": 373.5402028393643,
        "walking_time": "약 6분"
      },
      {
        "community_center_lat": 37.57802956,
        "community_center_lon": 127.0145586,
        "community_center_type": "주민센터",
        "community_center_name": "창신제3동 자치회관",
        "distance": 543.3168687438447,
        "walking_time": "약 9분"
      },
      {
        "community_center_lat": 37.57782273,
        "community_center_lon": 127.0156281,
        "community_center_type": "주민센터",
        "community_center_name": "숭인제1동 자치회관",
        "distance": 545.390431776418,
        "walking_time": "약 9분"
      },
      {
        "community_center_lat": 37.57487529,
        "community_center_lon": 127.0199617,
        "community_center_type": "주민센터",
        "community_center_name": "숭인제2동 자치회관",
        "distance": 598.0563244234831,
        "walking_time": "약 9분"
      },
      {
        "community_center_lat": 37.57206117,
        "community_center_lon": 127.0050313,
        "community_center_type": "주민센터",
        "community_center_name": "종로5.6가동 자치회관",
        "distance": 757.910068897815,
        "walking_time": "약 12분"
      },
      {
        "community_center_lat": 37.57697973,
        "community_center_lon": 127.0043465,
        "community_center_type": "주민센터",
        "community_center_name": "이화동 자치회관",
        "distance": 909.3791729578666,
        "walking_time": "약 14분"
      },
      {
        "community_center_lat": 37.56748579,
        "community_center_lon": 127.0214192,
        "community_center_type": "주민센터",
        "community_center_name": "황학동 자치회관",
        "distance": 944.5185469778444,
        "walking_time": "약 15분"
      },
      {
        "community_center_lat": 37.58037354,
        "community_center_lon": 127.0228035,
        "community_center_type": "주민센터",
        "community_center_name": "보문동 자치회관",
        "distance": 1142.2778745158596,
        "walking_time": "약 18분"
      },
      {
        "community_center_lat": 37.5651269,
        "community_center_lon": 127.0218661,
        "community_center_type": "주민센터",
        "community_center_name": "신당5동 자치회관",
        "distance": 1162.588353005448,
        "walking_time": "약 18분"
      }
    ],
    "convenience_store": [
      {
        "convenience_store_lat": 37.57407743,
        "convenience_store_lon": 127.0138344,
        "convenience_store_type": "편의점",
        "convenience_store_name": "GS25 창신점",
        "distance": 100.14455231224105,
        "walking_time": "약 2분"
      },
      {
        "convenience_store_lat": 37.57233208,
        "convenience_store_lon": 127.0125644,
        "convenience_store_type": "편의점",
        "convenience_store_name": "미니스톱 동대문역점",
        "distance": 128.6061678785756,
        "walking_time": "약 2분"
      },
      {
        "convenience_store_lat": 37.57406093,
        "convenience_store_lon": 127.0154359,
        "convenience_store_type": "편의점",
        "convenience_store_name": "GS25 창신점",
        "distance": 194.28248116767523,
        "walking_time": "약 3분"
      },
      {
        "convenience_store_lat": 37.57155643,
        "convenience_store_lon": 127.0124367,
        "convenience_store_type": "편의점",
        "convenience_store_name": "세븐일레븐 종로창신점",
        "distance": 207.14725924233468,
        "walking_time": "약 4분"
      },
      {
        "convenience_store_lat": 37.57220052,
        "convenience_store_lon": 127.0156781,
        "convenience_store_type": "편의점",
        "convenience_store_name": "GS25 편의점",
        "distance": 222.11787062548683,
        "walking_time": "약 4분"
      },
      {
        "convenience_store_lat": 37.57291062,
        "convenience_store_lon": 127.0106374,
        "convenience_store_type": "편의점",
        "convenience_store_name": "GS25 창신사랑점",
        "distance": 255.1539357021952,
        "walking_time": "약 4분"
      },
      {
        "convenience_store_lat": 37.57453127,
        "convenience_store_lon": 127.0159578,
        "convenience_store_type": "편의점",
        "convenience_store_name": "GS25 숭인필점",
        "distance": 260.9075187335549,
        "walking_time": "약 4분"
      },
      {
        "convenience_store_lat": 37.57263163,
        "convenience_store_lon": 127.0164625,
        "convenience_store_type": "편의점",
        "convenience_store_name": "GS25 숭인동묘점",
        "distance": 268.4259810741884,
        "walking_time": "약 5분"
      },
      {
        "convenience_store_lat": 37.57173953,
        "convenience_store_lon": 127.0159838,
        "convenience_store_type": "편의점",
        "convenience_store_name": "GS25 종로동묘점",
        "distance": 273.06563563043494,
        "walking_time": "약 5분"
      },
      {
        "convenience_store_lat": 37.57350187,
        "convenience_store_lon": 127.0166846,
        "convenience_store_type": "편의점",
        "convenience_store_name": "CU 동묘역점",
        "distance": 281.8531478029182,
        "walking_time": "약 5분"
      }
    ],
    "daycare": [
      {
        "daycare_lat": 37.57350163431917,
        "daycare_lon": 127.0143674295778,
        "daycare_type": "어린이집",
        "daycare_name": "구민회관어린이집",
        "distance": 82.25567438795345,
        "walking_time": "약 2분"
      },
      {
        "daycare_lat": 37.57407935499962,
        "daycare_lon": 127.01383331012804,
        "daycare_type": "어린이집",
        "daycare_name": "아이소리어린이집",
        "distance": 100.32196906462676,
        "walking_time": "약 2분"
      },
      {
        "daycare_lat": 37.57360468,
        "daycare_lon": 127.0120168,
        "daycare_type": "어린이집",
        "daycare_name": "창신어린이집",
        "distance": 138.29486490440178,
        "walking_time": "약 3분"
      },
      {
        "daycare_lat": 37.57350264,
        "daycare_lon": 127.0108069,
        "daycare_type": "어린이집",
        "daycare_name": "까치둥지어린이집",
        "distance": 240.1000149815462,
        "walking_time": "약 4분"
      },
      {
        "daycare_lat": 37.57461638945177,
        "daycare_lon": 127.01611718623016,
        "daycare_type": "어린이집",
        "daycare_name": "창대어린이집",
        "distance": 277.84521981208724,
        "walking_time": "약 5분"
      },
      {
        "daycare_lat": 37.5704028,
        "daycare_lon": 127.0148688,
        "daycare_type": "어린이집",
        "daycare_name": "창일어린이집",
        "distance": 334.9434562469181,
        "walking_time": "약 5분"
      },
      {
        "daycare_lat": 37.57484621,
        "daycare_lon": 127.0094238,
        "daycare_type": "어린이집",
        "daycare_name": "성터어린이집",
        "distance": 402.9780691564383,
        "walking_time": "약 7분"
      },
      {
        "daycare_lat": 37.57564181,
        "daycare_lon": 127.0169677,
        "daycare_type": "어린이집",
        "daycare_name": "조은어린이집",
        "distance": 407.2294977574809,
        "walking_time": "약 7분"
      },
      {
        "daycare_lat": 37.57568463,
        "daycare_lon": 127.0096935,
        "daycare_type": "어린이집",
        "daycare_name": "창신제일어린이집",
        "distance": 434.0047629659279,
        "walking_time": "약 7분"
      },
      {
        "daycare_lat": 37.57657428,
        "daycare_lon": 127.0165219,
        "daycare_type": "어린이집",
        "daycare_name": "둥지어린이집",
        "distance": 458.3925857602696,
        "walking_time": "약 7분"
      }
    ],
    "education": [
      {
        "education_lat": 37.57306562,
        "education_lon": 127.0137755,
        "education_type": "미술관/갤러리",
        "education_name": "백남준기념관",
        "distance": 28.910896890290505,
        "walking_time": "약 1분"
      },
      {
        "education_lat": 37.57269632,
        "education_lon": 127.0171175,
        "education_type": "도서관",
        "education_name": "아름꿈도서관",
        "distance": 323.3802096655173,
        "walking_time": "약 5분"
      },
      {
        "education_lat": 37.57285718,
        "education_lon": 127.0085128,
        "education_type": "박물관/기념관",
        "education_name": "한양도성박물관",
        "distance": 441.93608293216977,
        "walking_time": "약 7분"
      },
      {
        "education_lat": 37.57081871,
        "education_lon": 127.0080914,
        "education_type": "공연장",
        "education_name": "전통공연창작마루",
        "distance": 546.626427413861,
        "walking_time": "약 9분"
      },
      {
        "education_lat": 37.56781670060353,
        "education_lon": 127.01116073816152,
        "education_type": "박물관/기념관",
        "education_name": "동대문운동장기념관",
        "distance": 634.8826658282206,
        "walking_time": "약 10분"
      },
      {
        "education_lat": 37.56710262553757,
        "education_lon": 127.01153416188669,
        "education_type": "박물관/기념관",
        "education_name": "동대문역사관",
        "distance": 701.5530631208775,
        "walking_time": "약 11분"
      },
      {
        "education_lat": 37.56594097,
        "education_lon": 127.0147909,
        "education_type": "문화예술회관",
        "education_name": "충무아트센터",
        "distance": 816.7121378185034,
        "walking_time": "약 13분"
      },
      {
        "education_lat": 37.56689793,
        "education_lon": 127.0068075,
        "education_type": "미술관/갤러리",
        "education_name": "YK Presents",
        "distance": 917.6264762570022,
        "walking_time": "약 14분"
      },
      {
        "education_lat": 37.57385655,
        "education_lon": 127.0241852,
        "education_type": "도서관",
        "education_name": "서울특별시교육청 동대문도서관",
        "distance": 943.768828397932,
        "walking_time": "약 15분"
      },
      {
        "education_lat": 37.57820858,
        "education_lon": 127.0047187,
        "education_type": "공연장",
        "education_name": "한예극장",
        "distance": 952.9682652644298,
        "walking_time": "약 15분"
      }
    ],
    "electric_gas_station": [
      {
        "electric_gas_station_lat": 37.56059897,
        "electric_gas_station_lon": 127.002136,
        "electric_gas_station_type": "전기차 충전소",
        "electric_gas_station_name": "그랜드앰배서더 서울",
        "distance": 1724.061998684822,
        "walking_time": "약 26분"
      }
    ],
    "fitness": [
      {
        "fitness_lat": 37.57219638,
        "fitness_lon": 127.0117558,
        "fitness_type": "운동시설",
        "fitness_name": "짱핏",
        "distance": 191.4374180262658,
        "walking_time": "약 3분"
      },
      {
        "fitness_lat": 37.57173927,
        "fitness_lon": 127.0152017,
        "fitness_type": "운동시설",
        "fitness_name": "스파렉스",
        "distance": 221.887181439532,
        "walking_time": "약 4분"
      },
      {
        "fitness_lat": 37.57272286,
        "fitness_lon": 127.0160832,
        "fitness_type": "운동시설",
        "fitness_name": "관리의 기술 PT 동묘점",
        "distance": 233.5438637990867,
        "walking_time": "약 4분"
      },
      {
        "fitness_lat": 37.57405626,
        "fitness_lon": 127.016,
        "fitness_type": "운동시설",
        "fitness_name": "스포애니 동묘앞역점 (주)케이디헬스케어",
        "distance": 238.7925339722017,
        "walking_time": "약 4분"
      },
      {
        "fitness_lat": 37.57275761,
        "fitness_lon": 127.0108472,
        "fitness_type": "운동시설",
        "fitness_name": "박영길 휘트니스",
        "distance": 239.86367324238844,
        "walking_time": "약 4분"
      },
      {
        "fitness_lat": 37.57453127,
        "fitness_lon": 127.0159578,
        "fitness_type": "운동시설",
        "fitness_name": "온리스?짐",
        "distance": 260.9075187335549,
        "walking_time": "약 4분"
      },
      {
        "fitness_lat": 37.57737574,
        "fitness_lon": 127.0150497,
        "fitness_type": "운동시설",
        "fitness_name": "에이블짐창신역점",
        "distance": 482.2153815979444,
        "walking_time": "약 8분"
      },
      {
        "fitness_lat": 37.57802956,
        "fitness_lon": 127.0145586,
        "fitness_type": "운동시설",
        "fitness_name": "클래식바디짐",
        "distance": 543.3168687438447,
        "walking_time": "약 9분"
      },
      {
        "fitness_lat": 37.56771654,
        "fitness_lon": 127.0163481,
        "fitness_type": "운동시설",
        "fitness_name": "관리의 기술",
        "distance": 660.688487276432,
        "walking_time": "약 10분"
      },
      {
        "fitness_lat": 37.57578476,
        "fitness_lon": 127.0209594,
        "fitness_type": "운동시설",
        "fitness_name": "에이치짐 신설동역점",
        "distance": 716.2386368444296,
        "walking_time": "약 11분"
      }
    ],
    "gas_station": [
      {
        "gas_station_lat": 37.57794807,
        "gas_station_lon": 127.0228008,
        "gas_station_type": "주유소",
        "gas_station_name": "이케이에너지 주식회사",
        "distance": 973.5553963846364,
        "walking_time": "약 15분"
      },
      {
        "gas_station_lat": 37.56460799,
        "gas_station_lon": 127.016496,
        "gas_station_type": "주유소",
        "gas_station_name": "신당동주유소",
        "distance": 992.6503781617066,
        "walking_time": "약 15분"
      },
      {
        "gas_station_lat": 37.56396821,
        "gas_station_lon": 127.0157064,
        "gas_station_type": "주유소",
        "gas_station_name": "주식회사 타이거통상 다산주유소",
        "distance": 1046.3094617127076,
        "walking_time": "약 16분"
      },
      {
        "gas_station_lat": 37.58295795,
        "gas_station_lon": 127.0203742,
        "gas_station_type": "주유소",
        "gas_station_name": "동일주유소",
        "distance": 1240.9320924282404,
        "walking_time": "약 19분"
      },
      {
        "gas_station_lat": 37.57004131,
        "gas_station_lon": 127.0273918,
        "gas_station_type": "주유소",
        "gas_station_name": "청계로주유소",
        "distance": 1273.567030642144,
        "walking_time": "약 20분"
      },
      {
        "gas_station_lat": 37.56275432,
        "gas_station_lon": 127.0070337,
        "gas_station_type": "주유소",
        "gas_station_name": "서울석유(주) 장충주유소",
        "distance": 1295.5631828287162,
        "walking_time": "약 20분"
      },
      {
        "gas_station_lat": 37.5646782,
        "gas_station_lon": 127.0254832,
        "gas_station_type": "주유소",
        "gas_station_name": "세화주유소",
        "distance": 1419.5808001440846,
        "walking_time": "약 22분"
      },
      {
        "gas_station_lat": 37.56084671,
        "gas_station_lon": 127.0034149,
        "gas_station_type": "주유소",
        "gas_station_name": "씨앤에스유통(주) 장충드림주유소",
        "distance": 1637.8719366653725,
        "walking_time": "약 25분"
      },
      {
        "gas_station_lat": 37.58767101,
        "gas_station_lon": 127.0183894,
        "gas_station_type": "주유소",
        "gas_station_name": "(주)성북주유소",
        "distance": 1664.0187658360192,
        "walking_time": "약 25분"
      },
      {
        "gas_station_lat": 37.58798513,
        "gas_station_lon": 127.0055411,
        "gas_station_type": "주유소",
        "gas_station_name": "삼선주유소",
        "distance": 1786.089667525647,
        "walking_time": "약 27분"
      }
    ],
    "hospital": [
      {
        "hospital_lat": 37.57275262,
        "hospital_lon": 127.0137133,
        "hospital_type": "병원",
        "hospital_name": "알파스한의원",
        "distance": 54.53432209990538,
        "walking_time": "약 1분"
      },
      {
        "hospital_lat": 37.57275262,
        "hospital_lon": 127.0137133,
        "hospital_type": "병원",
        "hospital_name": "원치과의원",
        "distance": 54.53432209990538,
        "walking_time": "약 1분"
      },
      {
        "hospital_lat": 37.57282555,
        "hospital_lon": 127.0142085,
        "hospital_type": "병원",
        "hospital_name": "우행원신경정신과의원",
        "distance": 75.48154970049279,
        "walking_time": "약 2분"
      },
      {
        "hospital_lat": 37.57301434,
        "hospital_lon": 127.0146473,
        "hospital_type": "병원",
        "hospital_name": "권안과의원",
        "distance": 102.94226295397236,
        "walking_time": "약 2분"
      },
      {
        "hospital_lat": 37.57301434,
        "hospital_lon": 127.0146473,
        "hospital_type": "병원",
        "hospital_name": "연세하나마취통증의학과의원",
        "distance": 102.94226295397236,
        "walking_time": "약 2분"
      },
      {
        "hospital_lat": 37.57237657,
        "hospital_lon": 127.0142845,
        "hospital_type": "병원",
        "hospital_name": "고려수내과의원",
        "distance": 115.70176665011186,
        "walking_time": "약 2분"
      },
      {
        "hospital_lat": 37.57237657,
        "hospital_lon": 127.0142845,
        "hospital_type": "병원",
        "hospital_name": "우리치과의원",
        "distance": 115.70176665011186,
        "walking_time": "약 2분"
      },
      {
        "hospital_lat": 37.57310361,
        "hospital_lon": 127.0148243,
        "hospital_type": "병원",
        "hospital_name": "(의)열린의료재단동대문열린의원",
        "distance": 116.75298297394058,
        "walking_time": "약 2분"
      },
      {
        "hospital_lat": 37.57310361,
        "hospital_lon": 127.0148243,
        "hospital_type": "병원",
        "hospital_name": "강한치과의원",
        "distance": 116.75298297394058,
        "walking_time": "약 2분"
      },
      {
        "hospital_lat": 37.57310361,
        "hospital_lon": 127.0148243,
        "hospital_type": "병원",
        "hospital_name": "동묘더튼튼의원",
        "distance": 116.75298297394058,
        "walking_time": "약 2분"
      }
    ],
    "music_room": [
      {
        "music_room_lat": 37.57266503,
        "music_room_lon": 127.0122772,
        "music_room_type": "노래방",
        "music_room_name": "차차차 노래연습장",
        "distance": 124.44548685007848,
        "walking_time": "약 2분"
      },
      {
        "music_room_lat": 37.57232682,
        "music_room_lon": 127.0120304,
        "music_room_type": "노래방",
        "music_room_name": "싱싱 노래연습장",
        "distance": 163.3664812097806,
        "walking_time": "약 3분"
      },
      {
        "music_room_lat": 37.57221592,
        "music_room_lon": 127.0118544,
        "music_room_type": "노래방",
        "music_room_name": "25시 노래연습장",
        "distance": 183.1776953906108,
        "walking_time": "약 3분"
      },
      {
        "music_room_lat": 37.57155643,
        "music_room_lon": 127.0124367,
        "music_room_type": "노래방",
        "music_room_name": "키스",
        "distance": 207.14725924233468,
        "walking_time": "약 4분"
      },
      {
        "music_room_lat": 37.57271988,
        "music_room_lon": 127.0105946,
        "music_room_type": "노래방",
        "music_room_name": "우정노래방",
        "distance": 262.50963245417176,
        "walking_time": "약 4분"
      },
      {
        "music_room_lat": 37.57529574,
        "music_room_lon": 127.0154356,
        "music_room_type": "노래방",
        "music_room_name": "우즈",
        "distance": 287.08774125042146,
        "walking_time": "약 5분"
      },
      {
        "music_room_lat": 37.57361564,
        "music_room_lon": 127.0186669,
        "music_room_type": "노래방",
        "music_room_name": "우리",
        "distance": 456.9192223423781,
        "walking_time": "약 7분"
      },
      {
        "music_room_lat": 37.57375054,
        "music_room_lon": 127.0190675,
        "music_room_type": "노래방",
        "music_room_name": "팡팡",
        "distance": 493.6516359581067,
        "walking_time": "약 8분"
      },
      {
        "music_room_lat": 37.57475383,
        "music_room_lon": 127.0205154,
        "music_room_type": "노래방",
        "music_room_name": "월드컵",
        "distance": 640.909684245471,
        "walking_time": "약 10분"
      },
      {
        "music_room_lat": 37.57502349,
        "music_room_lon": 127.0210781,
        "music_room_type": "노래방",
        "music_room_name": "3학년3반",
        "distance": 696.8801546251763,
        "walking_time": "약 11분"
      }
    ],
    "outdoor_sports": [
      {
        "outdoor_sports_lat": 37.56748267,
        "outdoor_sports_lon": 127.0180129,
        "outdoor_sports_type": "야외 체육시설",
        "outdoor_sports_name": "쌍림어린이공원",
        "distance": 750.9939929040085,
        "walking_time": "약 12분"
      },
      {
        "outdoor_sports_lat": 37.56753166289,
        "outdoor_sports_lon": 127.018124132041,
        "outdoor_sports_type": "야외 체육시설",
        "outdoor_sports_name": "황학어린이공원",
        "distance": 751.6375297025331,
        "walking_time": "약 12분"
      },
      {
        "outdoor_sports_lat": 37.5673947880932,
        "outdoor_sports_lon": 127.003544929278,
        "outdoor_sports_type": "야외 체육시설",
        "outdoor_sports_name": "훈련원근린공원",
        "distance": 1090.7400378901766,
        "walking_time": "약 17분"
      },
      {
        "outdoor_sports_lat": 37.56375032,
        "outdoor_sports_lon": 127.0186793,
        "outdoor_sports_type": "야외 체육시설",
        "outdoor_sports_name": "충현어린이공원",
        "distance": 1146.9133701569035,
        "walking_time": "약 18분"
      },
      {
        "outdoor_sports_lat": 37.5602724243742,
        "outdoor_sports_lon": 127.018131314772,
        "outdoor_sports_type": "야외 체육시설",
        "outdoor_sports_name": "동화어린이공원",
        "distance": 1495.750195455959,
        "walking_time": "약 23분"
      },
      {
        "outdoor_sports_lat": 37.5606345044677,
        "outdoor_sports_lon": 127.020519752255,
        "outdoor_sports_type": "야외 체육시설",
        "outdoor_sports_name": "꿈누리어린이공원",
        "distance": 1529.3523291912022,
        "walking_time": "약 23분"
      },
      {
        "outdoor_sports_lat": 37.5624337523204,
        "outdoor_sports_lon": 127.024521636985,
        "outdoor_sports_type": "야외 체육시설",
        "outdoor_sports_name": "무학봉근린공원",
        "distance": 1542.598283788006,
        "walking_time": "약 24분"
      }
    ],
    "park": [
      {
        "park_lat": 37.5764419,
        "park_lon": 127.0178267,
        "park_type": "공원",
        "park_name": "숭인근린공원",
        "distance": 523.1363466419837,
        "walking_time": "약 8분"
      },
      {
        "park_lat": 37.580477,
        "park_lon": 127.007587,
        "park_type": "공원",
        "park_name": "낙산근린공원",
        "distance": 961.3684843761266,
        "walking_time": "약 15분"
      },
      {
        "park_lat": 37.5675245,
        "park_lon": 127.0038188,
        "park_type": "공원",
        "park_name": "훈련원근린공원",
        "distance": 1062.7556429091971,
        "walking_time": "약 16분"
      },
      {
        "park_lat": 37.5802295,
        "park_lon": 127.0027886,
        "park_type": "공원",
        "park_name": "마로니에공원",
        "distance": 1224.9811086117124,
        "walking_time": "약 19분"
      }
    ],
    "park_station": [
      {
        "park_station_lat": 37.57487593,
        "park_station_lon": 127.0150568,
        "park_station_type": "주차장",
        "park_station_name": "창신1동공영주차장",
        "distance": 229.7044794616684,
        "walking_time": "약 4분"
      },
      {
        "park_station_lat": 37.57444743,
        "park_station_lon": 127.0162785,
        "park_station_type": "주차장",
        "park_station_name": "롯데캐슬 뒤 이륜차 주차장",
        "distance": 280.0688278651797,
        "walking_time": "약 5분"
      },
      {
        "park_station_lat": 37.57445642,
        "park_station_lon": 127.0164369,
        "park_station_type": "주차장",
        "park_station_name": "창대교회 옆 이륜차 주차장",
        "distance": 292.79301691316783,
        "walking_time": "약 5분"
      },
      {
        "park_station_lat": 37.57598437,
        "park_station_lon": 127.0123679,
        "park_station_type": "주차장",
        "park_station_name": "공유) 창신동 49번~53번",
        "distance": 323.8897945614786,
        "walking_time": "약 5분"
      },
      {
        "park_station_lat": 37.57629006,
        "park_station_lon": 127.0125354,
        "park_station_type": "주차장",
        "park_station_name": "창삼공영",
        "distance": 352.48915654979965,
        "walking_time": "약 6분"
      },
      {
        "park_station_lat": 37.56998741,
        "park_station_lon": 127.0162841,
        "park_station_type": "주차장",
        "park_station_name": "청계7가 공영주차장",
        "distance": 434.4038678642653,
        "walking_time": "약 7분"
      },
      {
        "park_station_lat": 37.56957215,
        "park_station_lon": 127.0114317,
        "park_station_type": "주차장",
        "park_station_name": "청계6 공영주차장",
        "distance": 444.4453806193097,
        "walking_time": "약 7분"
      },
      {
        "park_station_lat": 37.56968149,
        "park_station_lon": 127.0162471,
        "park_station_type": "주차장",
        "park_station_name": "청계8가 공영주차장",
        "distance": 461.18886476015206,
        "walking_time": "약 7분"
      },
      {
        "park_station_lat": 37.57330539,
        "park_station_lon": 127.0188777,
        "park_station_type": "주차장",
        "park_station_name": "동묘공영주차장",
        "distance": 473.42779509002605,
        "walking_time": "약 8분"
      },
      {
        "park_station_lat": 37.57738318,
        "park_station_lon": 127.01221,
        "park_station_type": "주차장",
        "park_station_name": "낙산공영",
        "distance": 477.36678322706894,
        "walking_time": "약 8분"
      }
    ],
    "pc_room": [
      {
        "pc_room_lat": 37.572752624919,
        "pc_room_lon": 127.013713331944,
        "pc_room_type": "PC방",
        "pc_room_name": "BONE pc방",
        "distance": 54.53474507992816,
        "walking_time": "약 1분"
      },
      {
        "pc_room_lat": 37.5731036083714,
        "pc_room_lon": 127.0148243418,
        "pc_room_type": "PC방",
        "pc_room_name": "잇츠PC",
        "distance": 116.75666524695436,
        "walking_time": "약 2분"
      },
      {
        "pc_room_lat": 37.5717611714478,
        "pc_room_lon": 127.012048006993,
        "pc_room_type": "PC방",
        "pc_room_name": "우림게임장 PC",
        "distance": 206.5597884613932,
        "walking_time": "약 4분"
      },
      {
        "pc_room_lat": 37.5738518126169,
        "pc_room_lon": 127.010446207148,
        "pc_room_type": "PC방",
        "pc_room_name": "프렌즈PC방",
        "distance": 278.8866741386303,
        "walking_time": "약 5분"
      },
      {
        "pc_room_lat": 37.5745510412021,
        "pc_room_lon": 127.019838583294,
        "pc_room_type": "PC방",
        "pc_room_name": "장동민의 옹PC",
        "distance": 577.4370908282574,
        "walking_time": "약 9분"
      },
      {
        "pc_room_lat": 37.5735851179002,
        "pc_room_lon": 127.020174307033,
        "pc_room_type": "PC방",
        "pc_room_name": "신설PC",
        "distance": 589.0297879543147,
        "walking_time": "약 9분"
      },
      {
        "pc_room_lat": 37.5742326927433,
        "pc_room_lon": 127.022023632788,
        "pc_room_type": "PC방",
        "pc_room_name": "사이버존PC방",
        "distance": 759.0509726883405,
        "walking_time": "약 12분"
      },
      {
        "pc_room_lat": 37.5742326927433,
        "pc_room_lon": 127.022023632788,
        "pc_room_type": "PC방",
        "pc_room_name": "피시스토리",
        "distance": 759.0509726883405,
        "walking_time": "약 12분"
      },
      {
        "pc_room_lat": 37.5677456759075,
        "pc_room_lon": 127.008181175525,
        "pc_room_type": "PC방",
        "pc_room_name": "긱스타PC카페",
        "distance": 768.2323802824653,
        "walking_time": "약 12분"
      },
      {
        "pc_room_lat": 37.5683927461518,
        "pc_room_lon": 127.020843801082,
        "pc_room_type": "PC방",
        "pc_room_name": "메가PC",
        "distance": 840.0195186510122,
        "walking_time": "약 13분"
      }
    ],
    "police_office": [
      {
        "police_office_lat": 37.57269632,
        "police_office_lon": 127.0171175,
        "police_office_type": "경찰소",
        "police_office_name": "동묘파출소",
        "distance": 323.3802096655173,
        "walking_time": "약 5분"
      },
      {
        "police_office_lat": 37.57598518,
        "police_office_lon": 127.0105262,
        "police_office_type": "경찰소",
        "police_office_name": "덕산파출소",
        "distance": 404.8339688482856,
        "walking_time": "약 7분"
      },
      {
        "police_office_lat": 37.57849369,
        "police_office_lon": 127.013542,
        "police_office_type": "경찰소",
        "police_office_name": "창신파출소",
        "distance": 586.9716515579081,
        "walking_time": "약 9분"
      },
      {
        "police_office_lat": 37.57294307,
        "police_office_lon": 127.0048665,
        "police_office_type": "경찰소",
        "police_office_name": "효제파출소",
        "distance": 762.0913032462807,
        "walking_time": "약 12분"
      },
      {
        "police_office_lat": 37.56526845,
        "police_office_lon": 127.0133764,
        "police_office_type": "경찰소",
        "police_office_name": "광희지구대",
        "distance": 883.6910114998705,
        "walking_time": "약 14분"
      },
      {
        "police_office_lat": 37.57861171,
        "police_office_lon": 127.0060453,
        "police_office_type": "경찰소",
        "police_office_name": "대학로파출소",
        "distance": 890.2319698157891,
        "walking_time": "약 14분"
      },
      {
        "police_office_lat": 37.56504427,
        "police_office_lon": 127.016385,
        "police_office_type": "경찰소",
        "police_office_name": "신당파출소",
        "distance": 943.2875978770836,
        "walking_time": "약 15분"
      },
      {
        "police_office_lat": 37.57073671,
        "police_office_lon": 127.0016317,
        "police_office_type": "경찰소",
        "police_office_name": "종로5가파출소",
        "distance": 1082.2631798426032,
        "walking_time": "약 17분"
      },
      {
        "police_office_lat": 37.56647342,
        "police_office_lon": 127.0039437,
        "police_office_type": "경찰소",
        "police_office_name": "을지지구대",
        "distance": 1127.984157038456,
        "walking_time": "약 17분"
      },
      {
        "police_office_lat": 37.58672153,
        "police_office_lon": 127.0165984,
        "police_office_type": "경찰소",
        "police_office_name": "안암지구대",
        "distance": 1526.3648469364614,
        "walking_time": "약 23분"
      }
    ],
    "post_office": [
      {
        "post_office_lat": 37.57237657,
        "post_office_lon": 127.0142845,
        "post_office_type": "우체국",
        "post_office_name": "서울창신1동우편취급국",
        "distance": 115.70176665011186,
        "walking_time": "약 2분"
      },
      {
        "post_office_lat": 37.57800483,
        "post_office_lon": 127.0155694,
        "post_office_type": "우체국",
        "post_office_name": "서울숭인동우체국",
        "distance": 562.7631940108087,
        "walking_time": "약 9분"
      },
      {
        "post_office_lat": 37.5728892,
        "post_office_lon": 127.0065961,
        "post_office_type": "우체국",
        "post_office_name": "서울종로6가우편취급국",
        "distance": 610.1374527853931,
        "walking_time": "약 10분"
      },
      {
        "post_office_lat": 37.58039622,
        "post_office_lon": 127.0110117,
        "post_office_type": "우체국",
        "post_office_name": "서울창신2동우편취급국",
        "distance": 828.2409012078075,
        "walking_time": "약 13분"
      },
      {
        "post_office_lat": 37.56565287,
        "post_office_lon": 127.0159078,
        "post_office_type": "우체국",
        "post_office_name": "서울흥인동우체국",
        "distance": 867.0843004397551,
        "walking_time": "약 13분"
      },
      {
        "post_office_lat": 37.57477534,
        "post_office_lon": 127.0235321,
        "post_office_type": "우체국",
        "post_office_name": "동대문우체국",
        "distance": 900.3806726155533,
        "walking_time": "약 14분"
      },
      {
        "post_office_lat": 37.57919549,
        "post_office_lon": 127.0032909,
        "post_office_type": "우체국",
        "post_office_name": "한국방송통신대학교우편취급국",
        "distance": 1119.2794386360013,
        "walking_time": "약 17분"
      },
      {
        "post_office_lat": 37.5711774,
        "post_office_lon": 127.0008747,
        "post_office_type": "우체국",
        "post_office_name": "서울종로5가우체국",
        "distance": 1136.12461727593,
        "walking_time": "약 17분"
      },
      {
        "post_office_lat": 37.58323585,
        "post_office_lon": 127.01039,
        "post_office_type": "우체국",
        "post_office_name": "한성대학교우편취급국",
        "distance": 1147.625187400537,
        "walking_time": "약 18분"
      },
      {
        "post_office_lat": 37.56122837,
        "post_office_lon": 127.0126796,
        "post_office_type": "우체국",
        "post_office_name": "서울신당1동우편취급국",
        "distance": 1334.8459362813892,
        "walking_time": "약 20분"
      }
    ],
    "public_health_center": [
      {
        "public_health_center_lat": 37.56748579,
        "public_health_center_lon": 127.0214192,
        "public_health_center_type": "보건소",
        "public_health_center_name": "황학동주민센터",
        "distance": 944.5185469778444,
        "walking_time": "약 15분"
      },
      {
        "public_health_center_lat": 37.56458574,
        "public_health_center_lon": 127.0150951,
        "public_health_center_type": "보건소",
        "public_health_center_name": "중구보건소",
        "distance": 969.684838167847,
        "walking_time": "약 15분"
      }
    ],
    "school": [
      {
        "school_lat": 37.5725712502565,
        "school_lon": 127.017188742529,
        "school_type": "고등학교",
        "school_name": "종로산업정보학교",
        "distance": 332.2764151301658,
        "walking_time": "약 5분"
      },
      {
        "school_lat": 37.5762114748296,
        "school_lon": 127.014293687874,
        "school_type": "초등학교",
        "school_name": "서울창신초등학교",
        "distance": 340.3293114395309,
        "walking_time": "약 6분"
      },
      {
        "school_lat": 37.5721095475785,
        "school_lon": 127.01741265638,
        "school_type": "고등학교",
        "school_name": "오디세이학교",
        "distance": 365.49894205109,
        "walking_time": "약 6분"
      },
      {
        "school_lat": 37.5721095475785,
        "school_lon": 127.01741265638,
        "school_type": "고등학교",
        "school_name": "서울다솜관광고등학교",
        "distance": 365.49894205109,
        "walking_time": "약 6분"
      },
      {
        "school_lat": 37.5693631529572,
        "school_lon": 127.017281730243,
        "school_type": "고등학교",
        "school_name": "성동공업고등학교",
        "distance": 542.3280228641545,
        "walking_time": "약 9분"
      },
      {
        "school_lat": 37.5740805443826,
        "school_lon": 127.020352393515,
        "school_type": "고등학교",
        "school_name": "진형고등학교(2년제)",
        "distance": 610.9119190219983,
        "walking_time": "약 10분"
      },
      {
        "school_lat": 37.5740805443826,
        "school_lon": 127.020352393515,
        "school_type": "중학교",
        "school_name": "진형중학교(2년제)",
        "distance": 610.9119190219983,
        "walking_time": "약 10분"
      },
      {
        "school_lat": 37.5672992845452,
        "school_lon": 127.015687859678,
        "school_type": "초등학교",
        "school_name": "서울광희초등학교",
        "distance": 685.303810172478,
        "walking_time": "약 11분"
      },
      {
        "school_lat": 37.579364496797,
        "school_lon": 127.012786339408,
        "school_type": "고등학교",
        "school_name": "서일문화예술고등학교",
        "distance": 686.7358299980596,
        "walking_time": "약 11분"
      },
      {
        "school_lat": 37.5658547150955,
        "school_lon": 127.0135246262,
        "school_type": "고등학교",
        "school_name": "성동글로벌경영고등학교",
        "distance": 818.4278143890115,
        "walking_time": "약 13분"
      }
    ],
    "self_laundromat": [
      {
        "self_laundromat_lat": 37.57240783,
        "self_laundromat_lon": 127.0164417,
        "self_laundromat_type": "셀프 빨래방",
        "self_laundromat_name": "위니아24크린샵 숭인점",
        "distance": 273.7680280425463,
        "walking_time": "약 5분"
      },
      {
        "self_laundromat_lat": 37.57240783,
        "self_laundromat_lon": 127.0164417,
        "self_laundromat_type": "셀프 빨래방",
        "self_laundromat_name": "위니아24크린샵 숭인점",
        "distance": 273.7680280425463,
        "walking_time": "약 5분"
      },
      {
        "self_laundromat_lat": 37.57375793,
        "self_laundromat_lon": 127.0104533,
        "self_laundromat_type": "셀프 빨래방",
        "self_laundromat_name": "코인워시24빨래터 창신점",
        "distance": 275.8107808044953,
        "walking_time": "약 5분"
      },
      {
        "self_laundromat_lat": 37.57375793,
        "self_laundromat_lon": 127.0104533,
        "self_laundromat_type": "셀프 빨래방",
        "self_laundromat_name": "코인워시24빨래터 창신점",
        "distance": 275.8107808044953,
        "walking_time": "약 5분"
      },
      {
        "self_laundromat_lat": 37.57052441,
        "self_laundromat_lon": 127.0186906,
        "self_laundromat_type": "셀프 빨래방",
        "self_laundromat_name": "워시엔조이 황학동점",
        "distance": 546.0877648219247,
        "walking_time": "약 9분"
      },
      {
        "self_laundromat_lat": 37.57052441,
        "self_laundromat_lon": 127.0186906,
        "self_laundromat_type": "셀프 빨래방",
        "self_laundromat_name": "워시엔조이 황학동점",
        "distance": 546.0877648219247,
        "walking_time": "약 9분"
      },
      {
        "self_laundromat_lat": 37.5668676,
        "self_laundromat_lon": 127.0171229,
        "self_laundromat_type": "셀프 빨래방",
        "self_laundromat_name": "화이트365 신당역점",
        "distance": 774.4102345159711,
        "walking_time": "약 12분"
      },
      {
        "self_laundromat_lat": 37.5668676,
        "self_laundromat_lon": 127.0171229,
        "self_laundromat_type": "셀프 빨래방",
        "self_laundromat_name": "화이트365 신당역점",
        "distance": 774.4102345159711,
        "walking_time": "약 12분"
      },
      {
        "self_laundromat_lat": 37.57274192,
        "self_laundromat_lon": 127.0224194,
        "self_laundromat_type": "셀프 빨래방",
        "self_laundromat_name": "스웨덴 런드리 운종가",
        "distance": 787.2144928789613,
        "walking_time": "약 12분"
      },
      {
        "self_laundromat_lat": 37.57274192,
        "self_laundromat_lon": 127.0224194,
        "self_laundromat_type": "셀프 빨래방",
        "self_laundromat_name": "스웨덴 런드리 운종가",
        "distance": 787.2144928789613,
        "walking_time": "약 12분"
      }
    ],
    "subway": [
      {
        "subway_lat": 37.5722005208773,
        "subway_lon": 127.015678133819,
        "subway_type": "지하철",
        "subway_name": "6호선-동묘앞역",
        "distance": 222.1203886048777,
        "walking_time": "약 4분"
      },
      {
        "subway_lat": 37.5716332944196,
        "subway_lon": 127.01140072111,
        "subway_type": "지하철",
        "subway_name": "1호선-동대문역",
        "distance": 255.71673969226453,
        "walking_time": "약 4분"
      },
      {
        "subway_lat": 37.5733722075697,
        "subway_lon": 127.01675118037,
        "subway_type": "지하철",
        "subway_name": "1호선-동묘앞역",
        "distance": 286.4441638153058,
        "walking_time": "약 5분"
      },
      {
        "subway_lat": 37.5704117093421,
        "subway_lon": 127.009546610861,
        "subway_type": "지하철",
        "subway_name": "4호선-동대문역",
        "distance": 467.96463074333246,
        "walking_time": "약 7분"
      },
      {
        "subway_lat": 37.5800168892429,
        "subway_lon": 127.015211194258,
        "subway_type": "지하철",
        "subway_name": "6호선-창신역",
        "distance": 771.1023421023989,
        "walking_time": "약 12분"
      },
      {
        "subway_lat": 37.5662738884121,
        "subway_lon": 127.016153533586,
        "subway_type": "지하철",
        "subway_name": "6호선-신당역",
        "distance": 806.2917676069632,
        "walking_time": "약 13분"
      },
      {
        "subway_lat": 37.5655895229776,
        "subway_lon": 127.009131498424,
        "subway_type": "지하철",
        "subway_name": "2호선-동대문역사문화공원(DDP)역",
        "distance": 931.4893085551416,
        "walking_time": "약 14분"
      },
      {
        "subway_lat": 37.5656540317328,
        "subway_lon": 127.019540574485,
        "subway_type": "지하철",
        "subway_name": "2호선-신당역",
        "distance": 994.7978863643898,
        "walking_time": "약 15분"
      },
      {
        "subway_lat": 37.5747187974165,
        "subway_lon": 127.025093714935,
        "subway_type": "지하철",
        "subway_name": "1호선-신설동역",
        "distance": 1034.7308027847755,
        "walking_time": "약 16분"
      },
      {
        "subway_lat": 37.5747187974165,
        "subway_lon": 127.025093714935,
        "subway_type": "지하철",
        "subway_name": "2호선-신설동역",
        "distance": 1034.7308027847755,
        "walking_time": "약 16분"
      }
    ],
    "supermarket": [
      {
        "supermarket_lat": 37.57405626,
        "supermarket_lon": 127.016,
        "supermarket_type": "마트",
        "supermarket_name": "홈플러스(주)익스프레스 숭인점",
        "distance": 238.7925339722017,
        "walking_time": "약 4분"
      },
      {
        "supermarket_lat": 37.57051095,
        "supermarket_lon": 127.011128,
        "supermarket_type": "마트",
        "supermarket_name": "동문시장",
        "distance": 366.55992954941007,
        "walking_time": "약 6분"
      },
      {
        "supermarket_lat": 37.56946664,
        "supermarket_lon": 127.0149365,
        "supermarket_type": "마트",
        "supermarket_name": "청평화시장",
        "distance": 435.4232581973792,
        "walking_time": "약 7분"
      },
      {
        "supermarket_lat": 37.56919289,
        "supermarket_lon": 127.0128273,
        "supermarket_type": "마트",
        "supermarket_name": "아트프라자",
        "distance": 451.232195180447,
        "walking_time": "약 7분"
      },
      {
        "supermarket_lat": 37.56915966,
        "supermarket_lon": 127.0149918,
        "supermarket_type": "마트",
        "supermarket_name": "디오트",
        "distance": 469.5369747958279,
        "walking_time": "약 8분"
      },
      {
        "supermarket_lat": 37.57737574,
        "supermarket_lon": 127.0150497,
        "supermarket_type": "마트",
        "supermarket_name": "브라운스톤 창신상가",
        "distance": 482.2153815979444,
        "walking_time": "약 8분"
      },
      {
        "supermarket_lat": 37.5688945,
        "supermarket_lon": 127.0126877,
        "supermarket_type": "마트",
        "supermarket_name": "올레오",
        "distance": 485.81378545470017,
        "walking_time": "약 8분"
      },
      {
        "supermarket_lat": 37.5691712,
        "supermarket_lon": 127.010836,
        "supermarket_type": "마트",
        "supermarket_name": "남평화상가(주)",
        "distance": 507.5425670439718,
        "walking_time": "약 8분"
      },
      {
        "supermarket_lat": 37.56866358,
        "supermarket_lon": 127.0125803,
        "supermarket_type": "마트",
        "supermarket_name": "혜양엘리시움",
        "distance": 512.6425778983048,
        "walking_time": "약 8분"
      },
      {
        "supermarket_lat": 37.56867293,
        "supermarket_lon": 127.0119155,
        "supermarket_type": "마트",
        "supermarket_name": "(주)광희패션몰",
        "distance": 524.1703772521472,
        "walking_time": "약 8분"
      }
    ],
    "tax_office": [
      {
        "tax_office_lat": 37.58790069,
        "tax_office_lon": 127.0109264,
        "tax_office_type": "세무서",
        "tax_office_name": "성북세무서",
        "distance": 1648.7324156706322,
        "walking_time": "약 25분"
      }
    ],
    "theater": [
      {
        "theater_lat": 37.568734553218,
        "theater_lon": 127.007666479829,
        "theater_type": "영화관",
        "theater_name": "CGV 동대문",
        "distance": 716.3558946051218,
        "walking_time": "약 11분"
      },
      {
        "theater_lat": 37.5668021171335,
        "theater_lon": 127.007358177138,
        "theater_type": "영화관",
        "theater_name": "(주)지원엠엠시네마 동대문지점",
        "distance": 895.6346428038481,
        "walking_time": "약 14분"
      }
    ],
    "university": [
      {
        "university_lat": 37.5791954862382,
        "university_lon": 127.003290880975,
        "university_type": "대학교",
        "university_name": "한국방송통신대학교",
        "distance": 1119.280538746126,
        "walking_time": "약 17분"
      },
      {
        "university_lat": 37.5832358514072,
        "university_lon": 127.010390004805,
        "university_type": "대학교",
        "university_name": "한성대학교",
        "distance": 1147.6252379754665,
        "walking_time": "약 18분"
      },
      {
        "university_lat": 37.5849009775207,
        "university_lon": 127.004770664086,
        "university_type": "대학교",
        "university_name": "가톨릭대학교",
        "distance": 1510.3655916977718,
        "walking_time": "약 23분"
      }
    ]
  }
}