{
  "클러스터_위도": 37.552708,
  "클러스터_경도": 127.08675200000002,
  "클러스터_level": 3.0,
  "facilities": {
    "bus": [
      {
        "bus_lat": 37.55449655,
        "bus_lon": 127.0865505,
        "bus_type": "버스정류장",
        "bus_name": "중곡동입구삼거리",
        "distance": 199.66936595840693,
        "walking_time": "약 3분"
      },
      {
        "bus_lat": 37.55458123,
        "bus_lon": 127.086786,
        "bus_type": "버스정류장",
        "bus_name": "아차산역삼거리",
        "distance": 208.31523537460112,
        "walking_time": "약 4분"
      },
      {
        "bus_lat": 37.5527549,
        "bus_lon": 127.0892142,
        "bus_type": "버스정류장",
        "bus_name": "어린이대공원후문아차산역",
        "distance": 217.1167252051773,
        "walking_time": "약 4분"
      },
      {
        "bus_lat": 37.55419672,
        "bus_lon": 127.088669,
        "bus_type": "버스정류장",
        "bus_name": "중곡동입구",
        "distance": 236.56011744471817,
        "walking_time": "약 4분"
      },
      {
        "bus_lat": 37.55479896,
        "bus_lon": 127.0882622,
        "bus_type": "버스정류장",
        "bus_name": "중곡동입구",
        "distance": 267.92078386049263,
        "walking_time": "약 4분"
      },
      {
        "bus_lat": 37.554926,
        "bus_lon": 127.085229,
        "bus_type": "버스정류장",
        "bus_name": "중곡동입구삼거리",
        "distance": 280.8052280353216,
        "walking_time": "약 5분"
      },
      {
        "bus_lat": 37.55120847,
        "bus_lon": 127.0901492,
        "bus_type": "버스정류장",
        "bus_name": "어린이대공원후문아차산역",
        "distance": 342.7703978773088,
        "walking_time": "약 6분"
      },
      {
        "bus_lat": 37.55086668,
        "bus_lon": 127.0905076,
        "bus_type": "버스정류장",
        "bus_name": "어린이대공원후문",
        "distance": 389.2722783602052,
        "walking_time": "약 6분"
      },
      {
        "bus_lat": 37.55072155,
        "bus_lon": 127.0913081,
        "bus_type": "버스정류장",
        "bus_name": "아차산역사거리",
        "distance": 458.37664595089086,
        "walking_time": "약 7분"
      },
      {
        "bus_lat": 37.54948475,
        "bus_lon": 127.0900588,
        "bus_type": "버스정류장",
        "bus_name": "선화예고앞",
        "distance": 461.99405270544537,
        "walking_time": "약 7분"
      }
    ],
    "community_center": [
      {
        "community_center_lat": 37.5537606,
        "community_center_lon": 127.0805521,
        "community_center_type": "주민센터",
        "community_center_name": "능동 자치회관",
        "distance": 558.9376736941188,
        "walking_time": "약 9분"
      },
      {
        "community_center_lat": 37.5471696,
        "community_center_lon": 127.089934,
        "community_center_type": "주민센터",
        "community_center_name": "구의2동 자치회관",
        "distance": 676.7213766774622,
        "walking_time": "약 11분"
      },
      {
        "community_center_lat": 37.55909865,
        "community_center_lon": 127.0894329,
        "community_center_type": "주민센터",
        "community_center_name": "중곡4동 자치회관",
        "distance": 748.8740129946917,
        "walking_time": "약 12분"
      },
      {
        "community_center_lat": 37.56015047,
        "community_center_lon": 127.0814751,
        "community_center_type": "주민센터",
        "community_center_name": "중곡2동 자치회관",
        "distance": 949.3350769036472,
        "walking_time": "약 15분"
      },
      {
        "community_center_lat": 37.55516384,
        "community_center_lon": 127.0758916,
        "community_center_type": "주민센터",
        "community_center_name": "군자동 자치회관",
        "distance": 995.5619679021586,
        "walking_time": "약 15분"
      },
      {
        "community_center_lat": 37.56066762,
        "community_center_lon": 127.0800521,
        "community_center_type": "주민센터",
        "community_center_name": "중곡1동 자치회관",
        "distance": 1064.0255841538626,
        "walking_time": "약 16분"
      },
      {
        "community_center_lat": 37.54241324,
        "community_center_lon": 127.0856773,
        "community_center_type": "주민센터",
        "community_center_name": "구의1동 자치회관",
        "distance": 1148.639354578694,
        "walking_time": "약 18분"
      },
      {
        "community_center_lat": 37.54652678,
        "community_center_lon": 127.0712676,
        "community_center_type": "주민센터",
        "community_center_name": "화양동 자치회관",
        "distance": 1528.3469926043597,
        "walking_time": "약 23분"
      },
      {
        "community_center_lat": 37.56880689,
        "community_center_lon": 127.0801381,
        "community_center_type": "주민센터",
        "community_center_name": "중곡3동 자치회관",
        "distance": 1882.6523480035005,
        "walking_time": "약 29분"
      }
    ],
    "convenience_store": [
      {
        "convenience_store_lat": 37.55342068,
        "convenience_store_lon": 127.086627,
        "convenience_store_type": "편의점",
        "convenience_store_name": "CU 능동빌리지점",
        "distance": 80.0088508279874,
        "walking_time": "약 2분"
      },
      {
        "convenience_store_lat": 37.55213176,
        "convenience_store_lon": 127.0874182,
        "convenience_store_type": "편의점",
        "convenience_store_name": "이마트24 능동점",
        "distance": 86.91761780720596,
        "walking_time": "약 2분"
      },
      {
        "convenience_store_lat": 37.55297543,
        "convenience_store_lon": 127.0876939,
        "convenience_store_type": "편의점",
        "convenience_store_name": "GS25 광진능동점",
        "distance": 88.19692925686954,
        "walking_time": "약 2분"
      },
      {
        "convenience_store_lat": 37.5509798,
        "convenience_store_lon": 127.0870952,
        "convenience_store_type": "편의점",
        "convenience_store_name": "세븐일레븐 선화예고점",
        "distance": 194.53418305889417,
        "walking_time": "약 3분"
      },
      {
        "convenience_store_lat": 37.55159336,
        "convenience_store_lon": 127.0888182,
        "convenience_store_type": "편의점",
        "convenience_store_name": "GS25 능동어린이대공원점",
        "distance": 220.31562640833388,
        "walking_time": "약 4분"
      },
      {
        "convenience_store_lat": 37.55135719,
        "convenience_store_lon": 127.089313,
        "convenience_store_type": "편의점",
        "convenience_store_name": "GS25 광진아차산역점",
        "distance": 271.16643360274065,
        "walking_time": "약 5분"
      },
      {
        "convenience_store_lat": 37.55373451,
        "convenience_store_lon": 127.0896302,
        "convenience_store_type": "편의점",
        "convenience_store_name": "미니스톱 아차산르블랑점",
        "distance": 278.2171476170297,
        "walking_time": "약 5분"
      },
      {
        "convenience_store_lat": 37.55260868,
        "convenience_store_lon": 127.0900295,
        "convenience_store_type": "편의점",
        "convenience_store_name": "세븐일레븐 중곡아차산역점",
        "distance": 289.1377493136968,
        "walking_time": "약 5분"
      },
      {
        "convenience_store_lat": 37.55528651,
        "convenience_store_lon": 127.0861906,
        "convenience_store_type": "편의점",
        "convenience_store_name": "GS25 중곡청운점",
        "distance": 290.95694258108585,
        "walking_time": "약 5분"
      },
      {
        "convenience_store_lat": 37.55461179,
        "convenience_store_lon": 127.0841494,
        "convenience_store_type": "편의점",
        "convenience_store_name": "GS25 능동중앙점",
        "distance": 312.17091009580315,
        "walking_time": "약 5분"
      }
    ],
    "daycare": [
      {
        "daycare_lat": 37.55279334326042,
        "daycare_lon": 127.08596908498556,
        "daycare_type": "어린이집",
        "daycare_name": "구립 능동 꿈맞이어린이집",
        "distance": 69.6668408880249,
        "walking_time": "약 2분"
      },
      {
        "daycare_lat": 37.555233,
        "daycare_lon": 127.087166,
        "daycare_type": "어린이집",
        "daycare_name": "아이와나무어린이집",
        "distance": 283.1291698144743,
        "walking_time": "약 5분"
      },
      {
        "daycare_lat": 37.55523866,
        "daycare_lon": 127.08718850385628,
        "daycare_type": "어린이집",
        "daycare_name": "구립 아이와나무어린이집",
        "distance": 284.0152551463874,
        "walking_time": "약 5분"
      },
      {
        "daycare_lat": 37.552804319466496,
        "daycare_lon": 127.08322474133789,
        "daycare_type": "어린이집",
        "daycare_name": "대공원어린이집",
        "distance": 311.1281263960343,
        "walking_time": "약 5분"
      },
      {
        "daycare_lat": 37.55412744278286,
        "daycare_lon": 127.09045093878092,
        "daycare_type": "어린이집",
        "daycare_name": "꼬마별어린이집",
        "distance": 362.2663068579429,
        "walking_time": "약 6분"
      },
      {
        "daycare_lat": 37.55559176186261,
        "daycare_lon": 127.08896332698151,
        "daycare_type": "어린이집",
        "daycare_name": "구립 대원어린이집",
        "distance": 375.2628478544142,
        "walking_time": "약 6분"
      },
      {
        "daycare_lat": 37.55305665339039,
        "daycare_lon": 127.09099740343936,
        "daycare_type": "어린이집",
        "daycare_name": "영재어린이집",
        "distance": 376.2534367034455,
        "walking_time": "약 6분"
      },
      {
        "daycare_lat": 37.55516593263491,
        "daycare_lon": 127.08971881831144,
        "daycare_type": "어린이집",
        "daycare_name": "늘푸른몬테소리어린이집",
        "distance": 378.28338553012543,
        "walking_time": "약 6분"
      },
      {
        "daycare_lat": 37.55454719965607,
        "daycare_lon": 127.0831088996279,
        "daycare_type": "어린이집",
        "daycare_name": "대공원어린이집",
        "distance": 380.73977262765857,
        "walking_time": "약 6분"
      },
      {
        "daycare_lat": 37.55194632464166,
        "daycare_lon": 127.09140347771005,
        "daycare_type": "어린이집",
        "daycare_name": "신예지어린이집",
        "distance": 418.7063615314652,
        "walking_time": "약 7분"
      }
    ],
    "education": [
      {
        "education_lat": 37.55096285632077,
        "education_lon": 127.08795305531277,
        "education_type": "공연장",
        "education_name": "유니버설아트센터",
        "distance": 221.0573632208828,
        "walking_time": "약 4분"
      },
      {
        "education_lat": 37.55055,
        "education_lon": 127.077569,
        "education_type": "박물관/기념관",
        "education_name": "서울상상나라",
        "distance": 844.3501136474076,
        "walking_time": "약 13분"
      },
      {
        "education_lat": 37.5576985,
        "education_lon": 127.0792261,
        "education_type": "미술관/갤러리",
        "education_name": "삼원갤러리",
        "distance": 864.904981814155,
        "walking_time": "약 13분"
      },
      {
        "education_lat": 37.55548521,
        "education_lon": 127.0753494,
        "education_type": "도서관",
        "education_name": "군자동도서관",
        "distance": 1051.5399496964194,
        "walking_time": "약 16분"
      },
      {
        "education_lat": 37.55079808,
        "education_lon": 127.0745756,
        "education_type": "미술관/갤러리",
        "education_name": "세종뮤지엄갤러리",
        "distance": 1094.2260432429198,
        "walking_time": "약 17분"
      },
      {
        "education_lat": 37.55160931,
        "education_lon": 127.0731836,
        "education_type": "공연장",
        "education_name": "세종대학교 대양홀",
        "distance": 1202.3479164341268,
        "walking_time": "약 18분"
      },
      {
        "education_lat": 37.55160931,
        "education_lon": 127.0731836,
        "education_type": "박물관/기념관",
        "education_name": "세종대학교 박물관",
        "distance": 1202.3479164341268,
        "walking_time": "약 18분"
      },
      {
        "education_lat": 37.54554942,
        "education_lon": 127.0982047,
        "education_type": "문화원",
        "education_name": "몽골 울란바타르 문화진흥원",
        "distance": 1285.6975101754774,
        "walking_time": "약 20분"
      },
      {
        "education_lat": 37.56505808,
        "education_lon": 127.0844568,
        "education_type": "공연장",
        "education_name": "광진어린이공연장",
        "distance": 1388.0892467340118,
        "walking_time": "약 21분"
      },
      {
        "education_lat": 37.54240517067264,
        "education_lon": 127.07559228463867,
        "education_type": "박물관/기념관",
        "education_name": "건국대학교 박물관",
        "distance": 1510.1016532586289,
        "walking_time": "약 23분"
      }
    ],
    "fitness": [
      {
        "fitness_lat": 37.55293395,
        "fitness_lon": 127.0885815,
        "fitness_type": "운동시설",
        "fitness_name": "휘트니스 트리",
        "distance": 163.22377606884302,
        "walking_time": "약 3분"
      },
      {
        "fitness_lat": 37.55284367,
        "fitness_lon": 127.0896517,
        "fitness_type": "운동시설",
        "fitness_name": "아차산역점 스포애니 주)케이디헬스케어",
        "distance": 256.0663064794207,
        "walking_time": "약 4분"
      },
      {
        "fitness_lat": 37.55135719,
        "fitness_lon": 127.089313,
        "fitness_type": "운동시설",
        "fitness_name": "Youn-A PT샵",
        "distance": 271.16643360274065,
        "walking_time": "약 5분"
      },
      {
        "fitness_lat": 37.55453528,
        "fitness_lon": 127.088841,
        "fitness_type": "운동시설",
        "fitness_name": "바디메이트 짐",
        "distance": 274.2189474291831,
        "walking_time": "약 5분"
      },
      {
        "fitness_lat": 37.55316456,
        "fitness_lon": 127.0911235,
        "fitness_type": "운동시설",
        "fitness_name": "드림헬스클럽",
        "distance": 388.6960517445249,
        "walking_time": "약 6분"
      },
      {
        "fitness_lat": 37.55098419,
        "fitness_lon": 127.0906071,
        "fitness_type": "운동시설",
        "fitness_name": "휴먼짐",
        "distance": 390.17670295694825,
        "walking_time": "약 6분"
      },
      {
        "fitness_lat": 37.54993855,
        "fitness_lon": 127.0899328,
        "fitness_type": "운동시설",
        "fitness_name": "다이나믹짐스튜디오",
        "distance": 416.486099005284,
        "walking_time": "약 7분"
      },
      {
        "fitness_lat": 37.55108983,
        "fitness_lon": 127.0914859,
        "fitness_type": "운동시설",
        "fitness_name": "흙감자PT",
        "distance": 454.4569357348396,
        "walking_time": "약 7분"
      },
      {
        "fitness_lat": 37.54924565,
        "fitness_lon": 127.0896166,
        "fitness_type": "운동시설",
        "fitness_name": "발레전문체력 능동센터",
        "distance": 460.4289906535719,
        "walking_time": "약 7분"
      },
      {
        "fitness_lat": 37.55677877,
        "fitness_lon": 127.0883433,
        "fitness_type": "운동시설",
        "fitness_name": "크로스핏 라온2",
        "distance": 473.88668758271774,
        "walking_time": "약 8분"
      }
    ],
    "gas_station": [
      {
        "gas_station_lat": 37.55563801,
        "gas_station_lon": 127.0825017,
        "gas_station_type": "주유소",
        "gas_station_name": "능동주유소(현대오일뱅크㈜직영주유소)",
        "distance": 496.5170428603795,
        "walking_time": "약 8분"
      },
      {
        "gas_station_lat": 37.55973412,
        "gas_station_lon": 127.0878838,
        "gas_station_type": "주유소",
        "gas_station_name": "용마주유소",
        "distance": 787.6134011019019,
        "walking_time": "약 12분"
      },
      {
        "gas_station_lat": 37.54511911,
        "gas_station_lon": 127.0804396,
        "gas_station_type": "주유소",
        "gas_station_name": "㈜창원씨더블유",
        "distance": 1010.822956749495,
        "walking_time": "약 16분"
      },
      {
        "gas_station_lat": 37.56455803,
        "gas_station_lon": 127.0870571,
        "gas_station_type": "주유소",
        "gas_station_name": "대원주유소",
        "distance": 1317.9376425857702,
        "walking_time": "약 20분"
      },
      {
        "gas_station_lat": 37.55498384,
        "gas_station_lon": 127.0715296,
        "gas_station_type": "주유소",
        "gas_station_name": "㈜장수주유소",
        "distance": 1365.556731658315,
        "walking_time": "약 21분"
      },
      {
        "gas_station_lat": 37.55401241,
        "gas_station_lon": 127.0704331,
        "gas_station_type": "주유소",
        "gas_station_name": "KLP제2주유소",
        "distance": 1445.8663410175982,
        "walking_time": "약 22분"
      },
      {
        "gas_station_lat": 37.5618604,
        "gas_station_lon": 127.074779,
        "gas_station_type": "주유소",
        "gas_station_name": "태양주유소",
        "distance": 1466.152737887898,
        "walking_time": "약 22분"
      },
      {
        "gas_station_lat": 37.56586242,
        "gas_station_lon": 127.0777383,
        "gas_station_type": "주유소",
        "gas_station_name": "중원주유소(현대오일뱅크㈜직영주유소)",
        "distance": 1664.5662917007958,
        "walking_time": "약 25분"
      },
      {
        "gas_station_lat": 37.56745201,
        "gas_station_lon": 127.0779359,
        "gas_station_type": "주유소",
        "gas_station_name": "정해네트웍스(주)일진주유소",
        "distance": 1814.3082669347173,
        "walking_time": "약 28분"
      },
      {
        "gas_station_lat": 37.56930309,
        "gas_station_lon": 127.0790442,
        "gas_station_type": "주유소",
        "gas_station_name": "중곡현대주유소(현대오일뱅크㈜직영주유소)",
        "distance": 1966.387966024236,
        "walking_time": "약 30분"
      }
    ],
    "hospital": [
      {
        "hospital_lat": 37.55379861,
        "hospital_lon": 127.0871709,
        "hospital_type": "병원",
        "hospital_name": "바른본병원",
        "distance": 126.76805011087411,
        "walking_time": "약 2분"
      },
      {
        "hospital_lat": 37.55409669,
        "hospital_lon": 127.0883333,
        "hospital_type": "병원",
        "hospital_name": "전영미산부인과의원",
        "distance": 208.02822802214763,
        "walking_time": "약 4분"
      },
      {
        "hospital_lat": 37.55421471,
        "hospital_lon": 127.0882288,
        "hospital_type": "병원",
        "hospital_name": "명이비인후과의원",
        "distance": 212.17297943488333,
        "walking_time": "약 4분"
      },
      {
        "hospital_lat": 37.55421471,
        "hospital_lon": 127.0882288,
        "hospital_type": "병원",
        "hospital_name": "서울에스치과의원",
        "distance": 212.17297943488333,
        "walking_time": "약 4분"
      },
      {
        "hospital_lat": 37.55368769,
        "hospital_lon": 127.0888647,
        "hospital_type": "병원",
        "hospital_name": "푸른한의원",
        "distance": 215.7628221759091,
        "walking_time": "약 4분"
      },
      {
        "hospital_lat": 37.55384937,
        "hospital_lon": 127.088812,
        "hospital_type": "병원",
        "hospital_name": "동서울정형외과의원",
        "distance": 221.5508383568117,
        "walking_time": "약 4분"
      },
      {
        "hospital_lat": 37.55443189,
        "hospital_lon": 127.0881785,
        "hospital_type": "병원",
        "hospital_name": "연세마취통증의학과의원",
        "distance": 229.25431481981795,
        "walking_time": "약 4분"
      },
      {
        "hospital_lat": 37.55404736,
        "hospital_lon": 127.0887556,
        "hospital_type": "병원",
        "hospital_name": "이웅석치과의원",
        "distance": 231.0335605428816,
        "walking_time": "약 4분"
      },
      {
        "hospital_lat": 37.55404736,
        "hospital_lon": 127.0887556,
        "hospital_type": "병원",
        "hospital_name": "밝은미래안과의원",
        "distance": 231.0335605428816,
        "walking_time": "약 4분"
      },
      {
        "hospital_lat": 37.55425695,
        "hospital_lon": 127.088729,
        "hospital_type": "병원",
        "hospital_name": "삼성열린내과의원",
        "distance": 245.0274638593136,
        "walking_time": "약 4분"
      }
    ],
    "music_room": [
      {
        "music_room_lat": 37.55443189,
        "music_room_lon": 127.0881785,
        "music_room_type": "노래방",
        "music_room_name": "유니버셜",
        "distance": 229.25431481981795,
        "walking_time": "약 4분"
      },
      {
        "music_room_lat": 37.55404736,
        "music_room_lon": 127.0887556,
        "music_room_type": "노래방",
        "music_room_name": "코알라",
        "distance": 231.0335605428816,
        "walking_time": "약 4분"
      },
      {
        "music_room_lat": 37.55324712,
        "music_room_lon": 127.0895583,
        "music_room_type": "노래방",
        "music_room_name": "쿨",
        "distance": 254.54692922697885,
        "walking_time": "약 4분"
      },
      {
        "music_room_lat": 37.55349988,
        "music_room_lon": 127.0895195,
        "music_room_type": "노래방",
        "music_room_name": "스카이",
        "distance": 259.37032047057426,
        "walking_time": "약 4분"
      },
      {
        "music_room_lat": 37.55257381,
        "music_room_lon": 127.0899121,
        "music_room_type": "노래방",
        "music_room_name": "연일노래연습장",
        "distance": 278.9767918270226,
        "walking_time": "약 5분"
      },
      {
        "music_room_lat": 37.55505064,
        "music_room_lon": 127.0886191,
        "music_room_type": "노래방",
        "music_room_name": "산",
        "distance": 308.1314696781059,
        "walking_time": "약 5분"
      },
      {
        "music_room_lat": 37.55254781,
        "music_room_lon": 127.0904481,
        "music_room_type": "노래방",
        "music_room_name": "히트 노래연습장",
        "distance": 326.31492909038565,
        "walking_time": "약 5분"
      },
      {
        "music_room_lat": 37.55153957,
        "music_room_lon": 127.0902389,
        "music_room_type": "노래방",
        "music_room_name": "락 노래연습장",
        "distance": 333.7181838679797,
        "walking_time": "약 5분"
      },
      {
        "music_room_lat": 37.5526189,
        "music_room_lon": 127.0906742,
        "music_room_type": "노래방",
        "music_room_name": "BM노래연습장",
        "distance": 345.90193060806,
        "walking_time": "약 6분"
      },
      {
        "music_room_lat": 37.55110662,
        "music_room_lon": 127.0904983,
        "music_room_type": "노래방",
        "music_room_name": "바람개비",
        "distance": 375.202515991697,
        "walking_time": "약 6분"
      }
    ],
    "park": [
      {
        "park_lat": 37.5498987,
        "park_lon": 127.0809212,
        "park_type": "공원",
        "park_name": "어린이대공원",
        "distance": 601.497371567345,
        "walking_time": "약 9분"
      }
    ],
    "park_station": [
      {
        "park_station_lat": 37.55404418,
        "park_station_lon": 127.0802398,
        "park_station_type": "주차장",
        "park_station_name": "능동공영주차장",
        "distance": 592.9899033071526,
        "walking_time": "약 9분"
      },
      {
        "park_station_lat": 37.55214065,
        "park_station_lon": 127.0798196,
        "park_station_type": "주차장",
        "park_station_name": "공유) 능동로24길 IoT 공유주차장",
        "distance": 614.372562989938,
        "walking_time": "약 10분"
      },
      {
        "park_station_lat": 37.55949749,
        "park_station_lon": 127.087071,
        "park_station_type": "주차장",
        "park_station_name": "중곡복개천 공영주차장",
        "distance": 755.4803569504141,
        "walking_time": "약 12분"
      },
      {
        "park_station_lat": 37.55186785,
        "park_station_lon": 127.0773538,
        "park_station_type": "주차장",
        "park_station_name": "공유) 능동 IoT 공유주차장",
        "distance": 833.7491820103872,
        "walking_time": "약 13분"
      },
      {
        "park_station_lat": 37.5602033,
        "park_station_lon": 127.0857558,
        "park_station_type": "주차장",
        "park_station_name": "중곡복개천 공영주차장",
        "distance": 838.0528767706969,
        "walking_time": "약 13분"
      },
      {
        "park_station_lat": 37.56040836,
        "park_station_lon": 127.0857666,
        "park_station_type": "주차장",
        "park_station_name": "중곡복개천 공영주차장",
        "distance": 860.6356800858192,
        "walking_time": "약 13분"
      },
      {
        "park_station_lat": 37.56062644,
        "park_station_lon": 127.0849662,
        "park_station_type": "주차장",
        "park_station_name": "중곡복개천 공영주차장",
        "distance": 894.4516232573577,
        "walking_time": "약 14분"
      },
      {
        "park_station_lat": 37.56099801,
        "park_station_lon": 127.0850885,
        "park_station_type": "주차장",
        "park_station_name": "중곡복개천 공영주차장",
        "distance": 933.39736436862,
        "walking_time": "약 14분"
      },
      {
        "park_station_lat": 37.5615363,
        "park_station_lon": 127.0841672,
        "park_station_type": "주차장",
        "park_station_name": "중곡복개천 공영주차장",
        "distance": 1007.7576659341948,
        "walking_time": "약 16분"
      },
      {
        "park_station_lat": 37.5614748,
        "park_station_lon": 127.0834672,
        "park_station_type": "주차장",
        "park_station_name": "중곡복개천 공영주차장",
        "distance": 1016.9179844254694,
        "walking_time": "약 16분"
      }
    ],
    "pc_room": [
      {
        "pc_room_lat": 37.554096693392,
        "pc_room_lon": 127.088333259008,
        "pc_room_type": "PC방",
        "pc_room_name": "아차산PC",
        "distance": 208.0260865748632,
        "walking_time": "약 4분"
      },
      {
        "pc_room_lat": 37.5550506355341,
        "pc_room_lon": 127.088619127555,
        "pc_room_type": "PC방",
        "pc_room_name": "모아 PC",
        "distance": 308.13234738582184,
        "walking_time": "약 5분"
      },
      {
        "pc_room_lat": 37.5531645632465,
        "pc_room_lon": 127.091123493697,
        "pc_room_type": "PC방",
        "pc_room_name": "1%PC아레나",
        "distance": 388.6955480091316,
        "walking_time": "약 6분"
      },
      {
        "pc_room_lat": 37.5508051349791,
        "pc_room_lon": 127.091104212028,
        "pc_room_type": "PC방",
        "pc_room_name": "TEN PC",
        "distance": 438.14866778618455,
        "walking_time": "약 7분"
      },
      {
        "pc_room_lat": 37.5506056415504,
        "pc_room_lon": 127.091469948053,
        "pc_room_type": "PC방",
        "pc_room_name": "제로백PC 아차산역점",
        "distance": 477.1100738808799,
        "walking_time": "약 8분"
      },
      {
        "pc_room_lat": 37.557021695282,
        "pc_room_lon": 127.087723525693,
        "pc_room_type": "PC방",
        "pc_room_name": "쇼타임 PC방 (중곡점)",
        "distance": 487.2465966322141,
        "walking_time": "약 8분"
      },
      {
        "pc_room_lat": 37.5571682562834,
        "pc_room_lon": 127.088249060157,
        "pc_room_type": "PC방",
        "pc_room_name": "3 pop PC방",
        "distance": 513.2153096479836,
        "walking_time": "약 8분"
      },
      {
        "pc_room_lat": 37.5575751995081,
        "pc_room_lon": 127.089257377181,
        "pc_room_type": "PC방",
        "pc_room_name": "물라PC",
        "distance": 584.5358169212041,
        "walking_time": "약 9분"
      },
      {
        "pc_room_lat": 37.5583365801856,
        "pc_room_lon": 127.088006200556,
        "pc_room_type": "PC방",
        "pc_room_name": "아지트PC",
        "distance": 635.5596514452432,
        "walking_time": "약 10분"
      },
      {
        "pc_room_lat": 37.5588238392141,
        "pc_room_lon": 127.088006320923,
        "pc_room_type": "PC방",
        "pc_room_name": "제노PC방",
        "distance": 688.9804281720131,
        "walking_time": "약 11분"
      }
    ],
    "police_office": [
      {
        "police_office_lat": 37.54589543,
        "police_office_lon": 127.0916677,
        "police_office_type": "경찰소",
        "police_office_name": "구의파출소",
        "distance": 872.7217947620869,
        "walking_time": "약 14분"
      },
      {
        "police_office_lat": 37.56015047,
        "police_office_lon": 127.0814751,
        "police_office_type": "경찰소",
        "police_office_name": "중곡2파출소",
        "distance": 949.3350769036472,
        "walking_time": "약 15분"
      },
      {
        "police_office_lat": 37.56372011,
        "police_office_lon": 127.0827881,
        "police_office_type": "경찰소",
        "police_office_name": "중곡1파출소",
        "distance": 1273.3675831691924,
        "walking_time": "약 20분"
      },
      {
        "police_office_lat": 37.56535103,
        "police_office_lon": 127.0872605,
        "police_office_type": "경찰소",
        "police_office_name": "중곡4파출소",
        "distance": 1406.555160289062,
        "walking_time": "약 21분"
      },
      {
        "police_office_lat": 37.54652678,
        "police_office_lon": 127.0712676,
        "police_office_type": "경찰소",
        "police_office_name": "화양지구대",
        "distance": 1528.3469926043597,
        "walking_time": "약 23분"
      },
      {
        "police_office_lat": 37.56880689,
        "police_office_lon": 127.0801381,
        "police_office_type": "경찰소",
        "police_office_name": "중곡3파출소",
        "distance": 1882.6523480035005,
        "walking_time": "약 29분"
      }
    ],
    "post_office": [
      {
        "post_office_lat": 37.54793719,
        "post_office_lon": 127.0889468,
        "post_office_type": "우체국",
        "post_office_name": "서울경안우편취급국",
        "distance": 564.6742735693065,
        "walking_time": "약 9분"
      },
      {
        "post_office_lat": 37.56152982,
        "post_office_lon": 127.0832682,
        "post_office_type": "우체국",
        "post_office_name": "서울중곡동우체국",
        "distance": 1027.88793856755,
        "walking_time": "약 16분"
      },
      {
        "post_office_lat": 37.55594856,
        "post_office_lon": 127.0755462,
        "post_office_type": "우체국",
        "post_office_name": "서울능동우편취급국",
        "distance": 1051.4896769906702,
        "walking_time": "약 16분"
      },
      {
        "post_office_lat": 37.55160931,
        "post_office_lon": 127.0731836,
        "post_office_type": "우체국",
        "post_office_name": "세종대학교우편취급국",
        "distance": 1202.3479164341268,
        "walking_time": "약 18분"
      }
    ],
    "public_health_center": [
      {
        "public_health_center_lat": 37.55933773,
        "public_health_center_lon": 127.0870912,
        "public_health_center_type": "보건소",
        "public_health_center_name": "중곡보건지소",
        "distance": 737.7984814884336,
        "walking_time": "약 12분"
      }
    ],
    "school": [
      {
        "school_lat": 37.5509798002896,
        "school_lon": 127.087095159462,
        "school_type": "고등학교",
        "school_name": "선화예술고등학교",
        "distance": 194.5335954870719,
        "walking_time": "약 3분"
      },
      {
        "school_lat": 37.5509798002896,
        "school_lon": 127.087095159462,
        "school_type": "중학교",
        "school_name": "선화예술중학교",
        "distance": 194.5335954870719,
        "walking_time": "약 3분"
      },
      {
        "school_lat": 37.5498138606171,
        "school_lon": 127.086793350213,
        "school_type": "초등학교",
        "school_name": "경복초등학교",
        "distance": 321.8342613178153,
        "walking_time": "약 5분"
      },
      {
        "school_lat": 37.5578273465317,
        "school_lon": 127.083527417056,
        "school_type": "초등학교",
        "school_name": "서울용마초등학교",
        "distance": 636.2699401867419,
        "walking_time": "약 10분"
      },
      {
        "school_lat": 37.5476114602117,
        "school_lon": 127.091332532375,
        "school_type": "초등학교",
        "school_name": "서울광진초등학교",
        "distance": 695.85983069599,
        "walking_time": "약 11분"
      },
      {
        "school_lat": 37.5534224448219,
        "school_lon": 127.099047310011,
        "school_type": "초등학교",
        "school_name": "서울동의초등학교",
        "distance": 1086.7898804953686,
        "walking_time": "약 17분"
      },
      {
        "school_lat": 37.5624502219725,
        "school_lon": 127.089376716312,
        "school_type": "고등학교",
        "school_name": "대원고등학교",
        "distance": 1107.717404611264,
        "walking_time": "약 17분"
      },
      {
        "school_lat": 37.5624502219725,
        "school_lon": 127.089376716312,
        "school_type": "고등학교",
        "school_name": "대원여자고등학교",
        "distance": 1107.717404611264,
        "walking_time": "약 17분"
      },
      {
        "school_lat": 37.5624502219725,
        "school_lon": 127.089376716312,
        "school_type": "고등학교",
        "school_name": "대원외국어고등학교",
        "distance": 1107.717404611264,
        "walking_time": "약 17분"
      },
      {
        "school_lat": 37.5624502219725,
        "school_lon": 127.089376716312,
        "school_type": "중학교",
        "school_name": "대원국제중학교",
        "distance": 1107.717404611264,
        "walking_time": "약 17분"
      }
    ],
    "subway": [
      {
        "subway_lat": 37.5524011361136,
        "subway_lon": 127.08937059931,
        "subway_type": "지하철",
        "subway_name": "5호선-아차산(어린이대공원후문)역",
        "distance": 233.35014962349712,
        "walking_time": "약 4분"
      },
      {
        "subway_lat": 37.5573631939521,
        "subway_lon": 127.079017279019,
        "subway_type": "지하철",
        "subway_name": "5호선-군자(능동)역",
        "distance": 856.0587179503435,
        "walking_time": "약 13분"
      },
      {
        "subway_lat": 37.5573631939521,
        "subway_lon": 127.079017279019,
        "subway_type": "지하철",
        "subway_name": "7호선-군자(능동)역",
        "distance": 856.0587179503435,
        "walking_time": "약 13분"
      },
      {
        "subway_lat": 37.547871203305,
        "subway_lon": 127.074549925093,
        "subway_type": "지하철",
        "subway_name": "7호선-어린이대공원(세종대)역",
        "distance": 1202.662052349256,
        "walking_time": "약 18분"
      },
      {
        "subway_lat": 37.5655258842084,
        "subway_lon": 127.084072412789,
        "subway_type": "지하철",
        "subway_name": "7호선-중곡역",
        "distance": 1444.7224207663724,
        "walking_time": "약 22분"
      },
      {
        "subway_lat": 37.540657941434,
        "subway_lon": 127.07141185507,
        "subway_type": "지하철",
        "subway_name": "7호선-건대입구역",
        "distance": 1903.777130826884,
        "walking_time": "약 29분"
      }
    ],
    "supermarket": [
      {
        "supermarket_lat": 37.55453528,
        "supermarket_lon": 127.088841,
        "supermarket_type": "마트",
        "supermarket_name": "홈플러스익스프레스 중곡2점",
        "distance": 274.2189474291831,
        "walking_time": "약 5분"
      },
      {
        "supermarket_lat": 37.55196758,
        "supermarket_lon": 127.0921743,
        "supermarket_type": "마트",
        "supermarket_name": "롯데 FRESH 아차산점",
        "distance": 485.0413334219525,
        "walking_time": "약 8분"
      },
      {
        "supermarket_lat": 37.55495119,
        "supermarket_lon": 127.0811921,
        "supermarket_type": "마트",
        "supermarket_name": "GS THE FRESH 광진능동점",
        "distance": 549.9424520594285,
        "walking_time": "약 9분"
      },
      {
        "supermarket_lat": 37.55803218,
        "supermarket_lon": 127.0886696,
        "supermarket_type": "마트",
        "supermarket_name": "신성종합시장",
        "distance": 615.681775440225,
        "walking_time": "약 10분"
      },
      {
        "supermarket_lat": 37.55761884,
        "supermarket_lon": 127.0800399,
        "supermarket_type": "마트",
        "supermarket_name": "홈플러스(주)익스프레스 중곡점",
        "distance": 805.1524678994064,
        "walking_time": "약 13분"
      },
      {
        "supermarket_lat": 37.54550282,
        "supermarket_lon": 127.0887807,
        "supermarket_type": "마트",
        "supermarket_name": "구의 자이르네 판매시설",
        "distance": 820.898936462522,
        "walking_time": "약 13분"
      },
      {
        "supermarket_lat": 37.54263602,
        "supermarket_lon": 127.0846048,
        "supermarket_type": "마트",
        "supermarket_name": "GS THE FRESH 광진구의점",
        "distance": 1135.8383358180013,
        "walking_time": "약 17분"
      },
      {
        "supermarket_lat": 37.5635863,
        "supermarket_lon": 127.0811202,
        "supermarket_type": "마트",
        "supermarket_name": "광성시장",
        "distance": 1307.519011150046,
        "walking_time": "약 20분"
      },
      {
        "supermarket_lat": 37.56390828,
        "supermarket_lon": 127.0813014,
        "supermarket_type": "마트",
        "supermarket_name": "(주)이마트에브리데이 중곡동점",
        "distance": 1334.877440614268,
        "walking_time": "약 20분"
      },
      {
        "supermarket_lat": 37.56390828,
        "supermarket_lon": 127.0813014,
        "supermarket_type": "마트",
        "supermarket_name": "중곡제일시장",
        "distance": 1334.877440614268,
        "walking_time": "약 20분"
      }
    ],
    "theater": [
      {
        "theater_lat": 37.5557904109818,
        "theater_lon": 127.078344497368,
        "theater_type": "영화관",
        "theater_name": "메가박스 군자",
        "distance": 816.5607503821959,
        "walking_time": "약 13분"
      }
    ],
    "university": [
      {
        "university_lat": 37.5516093089619,
        "university_lon": 127.07318364213,
        "university_type": "대학교",
        "university_name": "세종대학교",
        "distance": 1202.3442334135584,
        "walking_time": "약 18분"
      },
      {
        "university_lat": 37.5464762611364,
        "university_lon": 127.071367614735,
        "university_type": "대학교",
        "university_name": "건국대학교",
        "distance": 1523.0249307177137,
        "walking_time": "약 23분"
      }
    ]
  }
}