{
  "클러스터_위도": 37.52731900000001,
  "클러스터_경도": 126.887667,
  "클러스터_level": 3.0,
  "facilities": {
    "bus": [
      {
        "bus_lat": 37.52536169,
        "bus_lon": 126.888207,
        "bus_type": "버스정류장",
        "bus_name": "영은교회",
        "distance": 222.7917030903917,
        "walking_time": "약 4분"
      },
      {
        "bus_lat": 37.52533294,
        "bus_lon": 126.886255,
        "bus_type": "버스정류장",
        "bus_name": "양평역",
        "distance": 253.52518411636703,
        "walking_time": "약 4분"
      },
      {
        "bus_lat": 37.52508675,
        "bus_lon": 126.8888972,
        "bus_type": "버스정류장",
        "bus_name": "영은교회",
        "distance": 270.8872464145026,
        "walking_time": "약 5분"
      },
      {
        "bus_lat": 37.52505719,
        "bus_lon": 126.8860807,
        "bus_type": "버스정류장",
        "bus_name": "양평역",
        "distance": 287.78842250759493,
        "walking_time": "약 5분"
      },
      {
        "bus_lat": 37.526998,
        "bus_lon": 126.890987,
        "bus_type": "버스정류장",
        "bus_name": "당중초등학교",
        "distance": 294.94120981375494,
        "walking_time": "약 5분"
      },
      {
        "bus_lat": 37.52690465,
        "bus_lon": 126.8912932,
        "bus_type": "버스정류장",
        "bus_name": "당중초등학교",
        "distance": 323.0779321459686,
        "walking_time": "약 5분"
      },
      {
        "bus_lat": 37.52538663,
        "bus_lon": 126.8906255,
        "bus_type": "버스정류장",
        "bus_name": "당중초등학교.노동부남부지청",
        "distance": 337.9888915127736,
        "walking_time": "약 6분"
      },
      {
        "bus_lat": 37.52537247,
        "bus_lon": 126.8909005,
        "bus_type": "버스정류장",
        "bus_name": "노동부남부지청",
        "distance": 357.9913694422302,
        "walking_time": "약 6분"
      },
      {
        "bus_lat": 37.52836662,
        "bus_lon": 126.891661,
        "bus_type": "버스정류장",
        "bus_name": "코스트코",
        "distance": 370.9710452966002,
        "walking_time": "약 6분"
      },
      {
        "bus_lat": 37.52381997,
        "bus_lon": 126.8902117,
        "bus_type": "버스정류장",
        "bus_name": "남부고용노동지청",
        "distance": 449.1526252630145,
        "walking_time": "약 7분"
      }
    ],
    "community_center": [
      {
        "community_center_lat": 37.52364629,
        "community_center_lon": 126.8882263,
        "community_center_type": "주민센터",
        "community_center_name": "양평1동 자치회관",
        "distance": 411.3544163350208,
        "walking_time": "약 7분"
      },
      {
        "community_center_lat": 37.52512811,
        "community_center_lon": 126.8974049,
        "community_center_type": "주민센터",
        "community_center_name": "당산1동 자치회관",
        "distance": 892.6321026215774,
        "walking_time": "약 14분"
      },
      {
        "community_center_lat": 37.53101151,
        "community_center_lon": 126.8973478,
        "community_center_type": "주민센터",
        "community_center_name": "당산2동 자치회관",
        "distance": 947.2833803555604,
        "walking_time": "약 15분"
      },
      {
        "community_center_lat": 37.53718334,
        "community_center_lon": 126.8817165,
        "community_center_type": "주민센터",
        "community_center_name": "목5동 자치회관",
        "distance": 1215.9070630899498,
        "walking_time": "약 19분"
      },
      {
        "community_center_lat": 37.53775661,
        "community_center_lon": 126.8959331,
        "community_center_type": "주민센터",
        "community_center_name": "양평2동 자치회관",
        "distance": 1370.5096873481732,
        "walking_time": "약 21분"
      },
      {
        "community_center_lat": 37.53036563,
        "community_center_lon": 126.8711898,
        "community_center_type": "주민센터",
        "community_center_name": "목1동 자치회관",
        "distance": 1491.9749931069534,
        "walking_time": "약 23분"
      },
      {
        "community_center_lat": 37.51710975,
        "community_center_lon": 126.8995233,
        "community_center_type": "주민센터",
        "community_center_name": "문래동 자치회관",
        "distance": 1543.3815584514514,
        "walking_time": "약 24분"
      },
      {
        "community_center_lat": 37.51921418,
        "community_center_lon": 126.870674,
        "community_center_type": "주민센터",
        "community_center_name": "신정2동 자치회관",
        "distance": 1748.7127062999866,
        "walking_time": "약 27분"
      }
    ],
    "convenience_store": [
      {
        "convenience_store_lat": 37.52720953,
        "convenience_store_lon": 126.8883743,
        "convenience_store_type": "편의점",
        "convenience_store_name": "CU 양평경남점",
        "distance": 63.54967404075577,
        "walking_time": "약 1분"
      },
      {
        "convenience_store_lat": 37.52581568,
        "convenience_store_lon": 126.8871441,
        "convenience_store_type": "편의점",
        "convenience_store_name": "GS25 양평보보점",
        "distance": 173.4050734726504,
        "walking_time": "약 3분"
      },
      {
        "convenience_store_lat": 37.52576103,
        "convenience_store_lon": 126.8879423,
        "convenience_store_type": "편의점",
        "convenience_store_name": "미니스톱 양평우림점",
        "distance": 174.93120022508438,
        "walking_time": "약 3분"
      },
      {
        "convenience_store_lat": 37.52616284,
        "convenience_store_lon": 126.8861127,
        "convenience_store_type": "편의점",
        "convenience_store_name": "GS25 양평역점",
        "distance": 187.9218853135915,
        "walking_time": "약 3분"
      },
      {
        "convenience_store_lat": 37.52563167,
        "convenience_store_lon": 126.8889225,
        "convenience_store_type": "편의점",
        "convenience_store_name": "세븐일레븐 비즈센터점",
        "distance": 217.8542367897876,
        "walking_time": "약 4분"
      },
      {
        "convenience_store_lat": 37.52658628,
        "convenience_store_lon": 126.8850663,
        "convenience_store_type": "편의점",
        "convenience_store_name": "세븐일레븐 양평미소점",
        "distance": 243.3849595909724,
        "walking_time": "약 4분"
      },
      {
        "convenience_store_lat": 37.52804038,
        "convenience_store_lon": 126.891021,
        "convenience_store_type": "편의점",
        "convenience_store_name": "CU SK양평동충전소점",
        "distance": 306.4538159981596,
        "walking_time": "약 5분"
      },
      {
        "convenience_store_lat": 37.52610937,
        "convenience_store_lon": 126.8839432,
        "convenience_store_type": "편의점",
        "convenience_store_name": "GS25 양평코업점",
        "distance": 354.86312384209725,
        "walking_time": "약 6분"
      },
      {
        "convenience_store_lat": 37.52685171,
        "convenience_store_lon": 126.8918288,
        "convenience_store_type": "편의점",
        "convenience_store_name": "세븐일레븐 양평이엔씨타워점",
        "distance": 370.6677086410712,
        "walking_time": "약 6분"
      },
      {
        "convenience_store_lat": 37.52392222,
        "convenience_store_lon": 126.8852719,
        "convenience_store_type": "편의점",
        "convenience_store_name": "GS25 양평역길점",
        "distance": 432.7504058996903,
        "walking_time": "약 7분"
      }
    ],
    "daycare": [
      {
        "daycare_lat": 37.52723237,
        "daycare_lon": 126.8881379,
        "daycare_type": "어린이집",
        "daycare_name": "열린세상어린이집",
        "distance": 42.62876641256592,
        "walking_time": "약 1분"
      },
      {
        "daycare_lat": 37.52685109,
        "daycare_lon": 126.8873573,
        "daycare_type": "어린이집",
        "daycare_name": "양평3가어린이집",
        "distance": 58.76156980237119,
        "walking_time": "약 1분"
      },
      {
        "daycare_lat": 37.52591824,
        "daycare_lon": 126.8857036,
        "daycare_type": "어린이집",
        "daycare_name": "석화어린이집",
        "distance": 232.89256754685235,
        "walking_time": "약 4분"
      },
      {
        "daycare_lat": 37.52528749,
        "daycare_lon": 126.88999,
        "daycare_type": "어린이집",
        "daycare_name": "영은어린이집",
        "distance": 304.9487265444317,
        "walking_time": "약 5분"
      },
      {
        "daycare_lat": 37.52412536,
        "daycare_lon": 126.888236,
        "daycare_type": "어린이집",
        "daycare_name": "양평 병아리 어린이집",
        "distance": 358.644136842988,
        "walking_time": "약 6분"
      },
      {
        "daycare_lat": 37.52362454,
        "daycare_lon": 126.8883816,
        "daycare_type": "어린이집",
        "daycare_name": "양평1동 어린이집",
        "distance": 415.6106601423179,
        "walking_time": "약 7분"
      },
      {
        "daycare_lat": 37.52769435354669,
        "daycare_lon": 126.8932447,
        "daycare_type": "어린이집",
        "daycare_name": "아이네오어린이집",
        "distance": 493.6335422719082,
        "walking_time": "약 8분"
      },
      {
        "daycare_lat": 37.52434698,
        "daycare_lon": 126.8825717,
        "daycare_type": "어린이집",
        "daycare_name": "삼성래미안어린이집",
        "distance": 557.7772553204378,
        "walking_time": "약 9분"
      },
      {
        "daycare_lat": 37.52221151,
        "daycare_lon": 126.8865766,
        "daycare_type": "어린이집",
        "daycare_name": "하늘사랑어린이집",
        "distance": 576.0101988043325,
        "walking_time": "약 9분"
      },
      {
        "daycare_lat": 37.52221151,
        "daycare_lon": 126.8865766,
        "daycare_type": "어린이집",
        "daycare_name": "베베몬테소리어린이집",
        "distance": 576.0101988043325,
        "walking_time": "약 9분"
      }
    ],
    "education": [
      {
        "education_lat": 37.51685657,
        "education_lon": 126.8908946,
        "education_type": "도서관",
        "education_name": "문래도서관",
        "distance": 1197.6853698131133,
        "walking_time": "약 18분"
      },
      {
        "education_lat": 37.5335602,
        "education_lon": 126.8762308,
        "education_type": "도서관",
        "education_name": "서울특별시교육청 양천도서관",
        "distance": 1224.173969248684,
        "walking_time": "약 19분"
      },
      {
        "education_lat": 37.52392536,
        "education_lon": 126.8720147,
        "education_type": "박물관/기념관",
        "education_name": "한생연생명과학박물관",
        "distance": 1430.9746840166702,
        "walking_time": "약 22분"
      },
      {
        "education_lat": 37.52698169,
        "education_lon": 126.8713942,
        "education_type": "공연장",
        "education_name": "한국방송회관 코바코홀",
        "distance": 1435.5033714746255,
        "walking_time": "약 22분"
      },
      {
        "education_lat": 37.51076244,
        "education_lon": 126.8702069,
        "education_type": "문화원",
        "education_name": "양천문화원",
        "distance": 2400.112305304899,
        "walking_time": "약 36분"
      }
    ],
    "electric_gas_station": [
      {
        "electric_gas_station_lat": 37.52472308,
        "electric_gas_station_lon": 126.895522,
        "electric_gas_station_type": "전기차 충전소",
        "electric_gas_station_name": "영등포구청 환승공영주차장",
        "distance": 750.437607185429,
        "walking_time": "약 12분"
      },
      {
        "electric_gas_station_lat": 37.53024475,
        "electric_gas_station_lon": 126.8733001,
        "electric_gas_station_type": "전기차 충전소",
        "electric_gas_station_name": "홈플러스 목동점",
        "distance": 1308.017690170695,
        "walking_time": "약 20분"
      }
    ],
    "fitness": [
      {
        "fitness_lat": 37.52576103,
        "fitness_lon": 126.8879423,
        "fitness_type": "운동시설",
        "fitness_name": "우림헬스클럽",
        "distance": 174.93120022508438,
        "walking_time": "약 3분"
      },
      {
        "fitness_lat": 37.52616284,
        "fitness_lon": 126.8861127,
        "fitness_type": "운동시설",
        "fitness_name": "피티다움",
        "distance": 187.9218853135915,
        "walking_time": "약 3분"
      },
      {
        "fitness_lat": 37.52537852,
        "fitness_lon": 126.8913761,
        "fitness_type": "운동시설",
        "fitness_name": "(주) 스포짐 양평점",
        "distance": 391.8482033170967,
        "walking_time": "약 6분"
      },
      {
        "fitness_lat": 37.52519274,
        "fitness_lon": 126.8917831,
        "fitness_type": "운동시설",
        "fitness_name": "소울메이트짐",
        "distance": 433.1911346693778,
        "walking_time": "약 7분"
      },
      {
        "fitness_lat": 37.52287387,
        "fitness_lon": 126.8880507,
        "fitness_type": "운동시설",
        "fitness_name": "핏타운",
        "distance": 495.43278185717656,
        "walking_time": "약 8분"
      },
      {
        "fitness_lat": 37.52329201,
        "fitness_lon": 126.8852223,
        "fitness_type": "운동시설",
        "fitness_name": "올바른 PT",
        "distance": 496.9778976272468,
        "walking_time": "약 8분"
      },
      {
        "fitness_lat": 37.52668263,
        "fitness_lon": 126.893757,
        "fitness_type": "운동시설",
        "fitness_name": "유어무브",
        "distance": 541.6880637089643,
        "walking_time": "약 9분"
      },
      {
        "fitness_lat": 37.52547854,
        "fitness_lon": 126.8937625,
        "fitness_type": "운동시설",
        "fitness_name": "나의 운동 공간",
        "distance": 575.1749491702072,
        "walking_time": "약 9분"
      },
      {
        "fitness_lat": 37.52547854,
        "fitness_lon": 126.8937625,
        "fitness_type": "운동시설",
        "fitness_name": "핏랩(FIT LAB)",
        "distance": 575.1749491702072,
        "walking_time": "약 9분"
      },
      {
        "fitness_lat": 37.52209338,
        "fitness_lon": 126.8844551,
        "fitness_type": "운동시설",
        "fitness_name": "팝스짐 스마트",
        "distance": 646.4240861704499,
        "walking_time": "약 10분"
      }
    ],
    "gas_station": [
      {
        "gas_station_lat": 37.5310483,
        "gas_station_lon": 126.8935067,
        "gas_station_type": "주유소",
        "gas_station_name": "SK에너지㈜양평주유소",
        "distance": 661.166587206033,
        "walking_time": "약 10분"
      },
      {
        "gas_station_lat": 37.5169566,
        "gas_station_lon": 126.8898397,
        "gas_station_type": "주유소",
        "gas_station_name": "한일주유소",
        "distance": 1168.0696432705806,
        "walking_time": "약 18분"
      },
      {
        "gas_station_lat": 37.53216383,
        "gas_station_lon": 126.8755403,
        "gas_station_type": "주유소",
        "gas_station_name": "㈜삼표에너지 목동주유소",
        "distance": 1197.3872049453046,
        "walking_time": "약 18분"
      },
      {
        "gas_station_lat": 37.53552489,
        "gas_station_lon": 126.8979649,
        "gas_station_type": "주유소",
        "gas_station_name": "㈜한미석유 제2한강주유소",
        "distance": 1287.305335739993,
        "walking_time": "약 20분"
      },
      {
        "gas_station_lat": 37.53633216,
        "gas_station_lon": 126.8987743,
        "gas_station_type": "주유소",
        "gas_station_name": "SK에너지㈜ 기린주유소",
        "distance": 1401.3315312849982,
        "walking_time": "약 21분"
      },
      {
        "gas_station_lat": 37.51948933,
        "gas_station_lon": 126.8710714,
        "gas_station_type": "주유소",
        "gas_station_name": "현대오일뱅크㈜직영 신목동셀프주유소",
        "distance": 1702.928456949155,
        "walking_time": "약 26분"
      },
      {
        "gas_station_lat": 37.51325696,
        "gas_station_lon": 126.8964817,
        "gas_station_type": "주유소",
        "gas_station_name": "지에스칼텍스㈜화일주유소",
        "distance": 1746.216545180172,
        "walking_time": "약 27분"
      },
      {
        "gas_station_lat": 37.53960054,
        "gas_station_lon": 126.8745528,
        "gas_station_type": "주유소",
        "gas_station_name": "목동주유소",
        "distance": 1789.466198569226,
        "walking_time": "약 27분"
      },
      {
        "gas_station_lat": 37.51047311,
        "gas_station_lon": 126.8712656,
        "gas_station_type": "주유소",
        "gas_station_name": "현대오일뱅크㈜직영 양천셀프주유소",
        "distance": 2366.684669295297,
        "walking_time": "약 36분"
      }
    ],
    "hospital": [
      {
        "hospital_lat": 37.52581568,
        "hospital_lon": 126.8871441,
        "hospital_type": "병원",
        "hospital_name": "연세원치과의원",
        "distance": 173.4050734726504,
        "walking_time": "약 3분"
      },
      {
        "hospital_lat": 37.52616284,
        "hospital_lon": 126.8861127,
        "hospital_type": "병원",
        "hospital_name": "서울웰치과의원",
        "distance": 187.9218853135915,
        "walking_time": "약 3분"
      },
      {
        "hospital_lat": 37.52616284,
        "hospital_lon": 126.8861127,
        "hospital_type": "병원",
        "hospital_name": "소담한의원",
        "distance": 187.9218853135915,
        "walking_time": "약 3분"
      },
      {
        "hospital_lat": 37.52616284,
        "hospital_lon": 126.8861127,
        "hospital_type": "병원",
        "hospital_name": "연세노블의원",
        "distance": 187.9218853135915,
        "walking_time": "약 3분"
      },
      {
        "hospital_lat": 37.52685171,
        "hospital_lon": 126.8918288,
        "hospital_type": "병원",
        "hospital_name": "이앤씨치과의원",
        "distance": 370.6677086410712,
        "walking_time": "약 6분"
      },
      {
        "hospital_lat": 37.52606589,
        "hospital_lon": 126.891572,
        "hospital_type": "병원",
        "hospital_name": "365열린의원",
        "distance": 371.485980441634,
        "walking_time": "약 6분"
      },
      {
        "hospital_lat": 37.52443186,
        "hospital_lon": 126.8847533,
        "hospital_type": "병원",
        "hospital_name": "다정한의원",
        "distance": 411.20086306887583,
        "walking_time": "약 7분"
      },
      {
        "hospital_lat": 37.52411581,
        "hospital_lon": 126.8842221,
        "hospital_type": "병원",
        "hospital_name": "서울이치과의원",
        "distance": 468.1384941188886,
        "walking_time": "약 7분"
      },
      {
        "hospital_lat": 37.52329201,
        "hospital_lon": 126.8852223,
        "hospital_type": "병원",
        "hospital_name": "박준형내과의원",
        "distance": 496.9778976272468,
        "walking_time": "약 8분"
      },
      {
        "hospital_lat": 37.52329201,
        "hospital_lon": 126.8852223,
        "hospital_type": "병원",
        "hospital_name": "연세디딤정형외과의원",
        "distance": 496.9778976272468,
        "walking_time": "약 8분"
      }
    ],
    "music_room": [
      {
        "music_room_lat": 37.52459896,
        "music_room_lon": 126.8848061,
        "music_room_type": "노래방",
        "music_room_name": "신모아노래연습장",
        "distance": 393.8654597229496,
        "walking_time": "약 6분"
      },
      {
        "music_room_lat": 37.52464763,
        "music_room_lon": 126.8845386,
        "music_room_type": "노래방",
        "music_room_name": "팡팡노래연습장",
        "distance": 405.3949522085457,
        "walking_time": "약 7분"
      },
      {
        "music_room_lat": 37.52329201,
        "music_room_lon": 126.8852223,
        "music_room_type": "노래방",
        "music_room_name": "판타스틱코인노래연습장 서울양평역점",
        "distance": 496.9778976272468,
        "walking_time": "약 8분"
      },
      {
        "music_room_lat": 37.52351703,
        "music_room_lon": 126.8840631,
        "music_room_type": "노래방",
        "music_room_name": "아라리 노래연습장",
        "distance": 528.898063270893,
        "walking_time": "약 8분"
      },
      {
        "music_room_lat": 37.52696557,
        "music_room_lon": 126.8942913,
        "music_room_type": "노래방",
        "music_room_name": "와와노래연습장",
        "distance": 585.4829544165678,
        "walking_time": "약 9분"
      },
      {
        "music_room_lat": 37.52689375,
        "music_room_lon": 126.8947758,
        "music_room_type": "노래방",
        "music_room_name": "한마음노래연습장",
        "distance": 628.6691631136366,
        "walking_time": "약 10분"
      },
      {
        "music_room_lat": 37.52245258,
        "music_room_lon": 126.8916486,
        "music_room_type": "노래방",
        "music_room_name": "샤방샤방노래연습장",
        "distance": 645.0600478780873,
        "walking_time": "약 10분"
      },
      {
        "music_room_lat": 37.52295023,
        "music_room_lon": 126.8927583,
        "music_room_type": "노래방",
        "music_room_name": "태양노래연습장",
        "distance": 661.4958220474866,
        "walking_time": "약 10분"
      },
      {
        "music_room_lat": 37.52134883,
        "music_room_lon": 126.8895828,
        "music_room_type": "노래방",
        "music_room_name": "삼차노래연습장",
        "distance": 685.0143508262432,
        "walking_time": "약 11분"
      },
      {
        "music_room_lat": 37.5220662,
        "music_room_lon": 126.8931963,
        "music_room_type": "노래방",
        "music_room_name": "하나노래연습장",
        "distance": 760.8708681492271,
        "walking_time": "약 12분"
      }
    ],
    "outdoor_sports": [
      {
        "outdoor_sports_lat": 37.5150485748267,
        "outdoor_sports_lon": 126.881767101681,
        "outdoor_sports_type": "야외 체육시설",
        "outdoor_sports_name": "신정교 사거리 하부",
        "distance": 1460.2560928642688,
        "walking_time": "약 22분"
      },
      {
        "outdoor_sports_lat": 37.513408307801,
        "outdoor_sports_lon": 126.884970696268,
        "outdoor_sports_type": "야외 체육시설",
        "outdoor_sports_name": "우성아파트2차 앞(제방위)",
        "distance": 1564.9701431238518,
        "walking_time": "약 24분"
      },
      {
        "outdoor_sports_lat": 37.5131027225936,
        "outdoor_sports_lon": 126.886591117087,
        "outdoor_sports_type": "야외 체육시설",
        "outdoor_sports_name": "우성아파트3차 앞(제방아래)",
        "distance": 1583.6230825278972,
        "walking_time": "약 24분"
      },
      {
        "outdoor_sports_lat": 37.5147985493136,
        "outdoor_sports_lon": 126.879099752342,
        "outdoor_sports_type": "야외 체육시설",
        "outdoor_sports_name": "C축구장 그늘막 옆",
        "distance": 1584.0218089930952,
        "walking_time": "약 24분"
      },
      {
        "outdoor_sports_lat": 37.5141676768376,
        "outdoor_sports_lon": 126.880081894243,
        "outdoor_sports_type": "야외 체육시설",
        "outdoor_sports_name": "안양천 제방(C축구장 위쪽)",
        "distance": 1608.1013166853757,
        "walking_time": "약 25분"
      },
      {
        "outdoor_sports_lat": 37.5109208726143,
        "outdoor_sports_lon": 126.889850401879,
        "outdoor_sports_type": "야외 체육시설",
        "outdoor_sports_name": "도림천 농구장(제방위)",
        "distance": 1833.528456306724,
        "walking_time": "약 28분"
      },
      {
        "outdoor_sports_lat": 37.5122190661574,
        "outdoor_sports_lon": 126.878397440723,
        "outdoor_sports_type": "야외 체육시설",
        "outdoor_sports_name": "안양천 제방(오금교~신정교, 이씨다리앞)",
        "distance": 1867.482972769241,
        "walking_time": "약 28분"
      },
      {
        "outdoor_sports_lat": 37.5102134696968,
        "outdoor_sports_lon": 126.888958025216,
        "outdoor_sports_type": "야외 체육시설",
        "outdoor_sports_name": "미래사랑어린이공원",
        "distance": 1905.4531648677776,
        "walking_time": "약 29분"
      }
    ],
    "park": [
      {
        "park_lat": 37.5349739,
        "park_lon": 126.8763932,
        "park_type": "공원",
        "park_name": "파리근린공원",
        "distance": 1308.740168954088,
        "walking_time": "약 20분"
      }
    ],
    "park_station": [
      {
        "park_station_lat": 37.52892593,
        "park_station_lon": 126.890197,
        "park_station_type": "주차장",
        "park_station_name": "유수지복개주차장",
        "distance": 285.83750496347915,
        "walking_time": "약 5분"
      },
      {
        "park_station_lat": 37.52844984,
        "park_station_lon": 126.8943446,
        "park_station_type": "주차장",
        "park_station_name": "영등포구청별관 공영주차장",
        "distance": 602.132802430519,
        "walking_time": "약 9분"
      },
      {
        "park_station_lat": 37.52523377,
        "park_station_lon": 126.8943048,
        "park_station_type": "주차장",
        "park_station_name": "영등포구청",
        "distance": 629.6097125994073,
        "walking_time": "약 10분"
      },
      {
        "park_station_lat": 37.52551222,
        "park_station_lon": 126.8957694,
        "park_station_type": "주차장",
        "park_station_name": "당산근린공원 공영",
        "distance": 742.2230015711789,
        "walking_time": "약 12분"
      },
      {
        "park_station_lat": 37.52457674,
        "park_station_lon": 126.8955989,
        "park_station_type": "주차장",
        "park_station_name": "영등포구청환승주차장",
        "distance": 763.0580265076292,
        "walking_time": "약 12분"
      },
      {
        "park_station_lat": 37.52431028,
        "park_station_lon": 126.8955585,
        "park_station_type": "주차장",
        "park_station_name": "영등포구청역 공영주차장",
        "distance": 772.1625385426129,
        "walking_time": "약 12분"
      },
      {
        "park_station_lat": 37.52784391,
        "park_station_lon": 126.8778033,
        "park_station_type": "주차장",
        "park_station_name": "목동공영주차장",
        "distance": 871.7792873710008,
        "walking_time": "약 14분"
      },
      {
        "park_station_lat": 37.53055283,
        "park_station_lon": 126.8778655,
        "park_station_type": "주차장",
        "park_station_name": "한마음주차장",
        "distance": 936.1383404634984,
        "walking_time": "약 14분"
      },
      {
        "park_station_lat": 37.52702223,
        "park_station_lon": 126.8994271,
        "park_station_type": "주차장",
        "park_station_name": "공유) 당산1동거주자우선주차장",
        "distance": 1037.5864381754664,
        "walking_time": "약 16분"
      },
      {
        "park_station_lat": 37.52622277,
        "park_station_lon": 126.8995408,
        "park_station_type": "주차장",
        "park_station_name": "당산노외 공영주차장",
        "distance": 1054.1649798360356,
        "walking_time": "약 16분"
      }
    ],
    "pc_room": [
      {
        "pc_room_lat": 37.5261628364547,
        "pc_room_lon": 126.886112724011,
        "pc_room_type": "PC방",
        "pc_room_name": "피씨마루(PC MARU)",
        "distance": 187.9206106128184,
        "walking_time": "약 3분"
      },
      {
        "pc_room_lat": 37.5207126294149,
        "pc_room_lon": 126.890835544798,
        "pc_room_type": "PC방",
        "pc_room_name": "제너스PC 문래점",
        "distance": 785.9454914732996,
        "walking_time": "약 12분"
      },
      {
        "pc_room_lat": 37.5262984376337,
        "pc_room_lon": 126.897005507687,
        "pc_room_type": "PC방",
        "pc_room_name": "GEEK STAR PC CAFE",
        "distance": 831.300154166835,
        "walking_time": "약 13분"
      },
      {
        "pc_room_lat": 37.5237859836516,
        "pc_room_lon": 126.897200709329,
        "pc_room_type": "PC방",
        "pc_room_name": "ZERO100 PC",
        "distance": 928.0020585523032,
        "walking_time": "약 14분"
      },
      {
        "pc_room_lat": 37.5257144999376,
        "pc_room_lon": 126.898359325917,
        "pc_room_type": "PC방",
        "pc_room_name": "곰PC",
        "distance": 959.6391112997492,
        "walking_time": "약 15분"
      },
      {
        "pc_room_lat": 37.5229055369719,
        "pc_room_lon": 126.877299423799,
        "pc_room_type": "PC방",
        "pc_room_name": "강구PC",
        "distance": 1037.671255440326,
        "walking_time": "약 16분"
      },
      {
        "pc_room_lat": 37.5247775349288,
        "pc_room_lon": 126.875820730078,
        "pc_room_type": "PC방",
        "pc_room_name": "긱스타피씨카페",
        "distance": 1082.2245073760057,
        "walking_time": "약 17분"
      },
      {
        "pc_room_lat": 37.5225865099354,
        "pc_room_lon": 126.876366110642,
        "pc_room_type": "PC방",
        "pc_room_name": "xoxo핫도그 x 3POP",
        "distance": 1126.9960207109832,
        "walking_time": "약 17분"
      },
      {
        "pc_room_lat": 37.5235884341471,
        "pc_room_lon": 126.875774509668,
        "pc_room_type": "PC방",
        "pc_room_name": "아이센스리그PC방 오목교점",
        "distance": 1127.8183409425974,
        "walking_time": "약 17분"
      },
      {
        "pc_room_lat": 37.5358735419191,
        "pc_room_lon": 126.880270604347,
        "pc_room_type": "PC방",
        "pc_room_name": "이츠PC",
        "distance": 1153.3435642247343,
        "walking_time": "약 18분"
      }
    ],
    "police_office": [
      {
        "police_office_lat": 37.52272305,
        "police_office_lon": 126.8896845,
        "police_office_type": "경찰소",
        "police_office_name": "양평파출소",
        "distance": 541.1313275527975,
        "walking_time": "약 9분"
      },
      {
        "police_office_lat": 37.53515594,
        "police_office_lon": 126.8784581,
        "police_office_type": "경찰소",
        "police_office_name": "목1지구대",
        "distance": 1191.1323152899522,
        "walking_time": "약 18분"
      },
      {
        "police_office_lat": 37.51358216,
        "police_office_lon": 126.8976501,
        "police_office_type": "경찰소",
        "police_office_name": "문래지구대",
        "distance": 1763.043865898434,
        "walking_time": "약 27분"
      }
    ],
    "post_office": [
      {
        "post_office_lat": 37.52385231,
        "post_office_lon": 126.8884734,
        "post_office_type": "우체국",
        "post_office_name": "서울양평1가우편취급국",
        "distance": 391.9830466915328,
        "walking_time": "약 6분"
      },
      {
        "post_office_lat": 37.52966114,
        "post_office_lon": 126.8949451,
        "post_office_type": "우체국",
        "post_office_name": "서울영등포우체국",
        "distance": 692.6333883958041,
        "walking_time": "약 11분"
      },
      {
        "post_office_lat": 37.52019592,
        "post_office_lon": 126.8828555,
        "post_office_type": "우체국",
        "post_office_name": "서울문래현대A우편취급국",
        "distance": 898.5496890920354,
        "walking_time": "약 14분"
      },
      {
        "post_office_lat": 37.52964806,
        "post_office_lon": 126.898845,
        "post_office_type": "우체국",
        "post_office_name": "서울당산2동우편취급국",
        "distance": 1019.1655037462032,
        "walking_time": "약 16분"
      },
      {
        "post_office_lat": 37.53672622,
        "post_office_lon": 126.8822136,
        "post_office_type": "우체국",
        "post_office_name": "서울양천우체국",
        "distance": 1151.273522667765,
        "walking_time": "약 18분"
      },
      {
        "post_office_lat": 37.52369426,
        "post_office_lon": 126.8736991,
        "post_office_type": "우체국",
        "post_office_name": "서울목동대림우편취급국",
        "distance": 1296.0484762125404,
        "walking_time": "약 20분"
      },
      {
        "post_office_lat": 37.53651462,
        "post_office_lon": 126.897112,
        "post_office_type": "우체국",
        "post_office_name": "서울양평동우체국",
        "distance": 1318.7727661862434,
        "walking_time": "약 20분"
      },
      {
        "post_office_lat": 37.51389666,
        "post_office_lon": 126.895143,
        "post_office_type": "우체국",
        "post_office_name": "서울문래동우체국",
        "distance": 1631.642436282922,
        "walking_time": "약 25분"
      },
      {
        "post_office_lat": 37.51732856,
        "post_office_lon": 126.8714995,
        "post_office_type": "우체국",
        "post_office_name": "서울신정6동우편취급국",
        "distance": 1807.492732712522,
        "walking_time": "약 27분"
      },
      {
        "post_office_lat": 37.51048264,
        "post_office_lon": 126.8894812,
        "post_office_type": "우체국",
        "post_office_name": "서울신도림우체국",
        "distance": 1878.9427664253108,
        "walking_time": "약 29분"
      }
    ],
    "public_health_center": [
      {
        "public_health_center_lat": 37.52596316,
        "public_health_center_lon": 126.8963671,
        "public_health_center_type": "보건소",
        "public_health_center_name": "영등포구보건소",
        "distance": 781.8941048108252,
        "walking_time": "약 12분"
      }
    ],
    "school": [
      {
        "school_lat": 37.52628923031,
        "school_lon": 126.889413529916,
        "school_type": "초등학교",
        "school_name": "서울당중초등학교",
        "distance": 191.9192518767564,
        "walking_time": "약 3분"
      },
      {
        "school_lat": 37.5328710177851,
        "school_lon": 126.885695675904,
        "school_type": "초등학교",
        "school_name": "서울경인초등학교",
        "distance": 641.3633307190624,
        "walking_time": "약 10분"
      },
      {
        "school_lat": 37.5217916605406,
        "school_lon": 126.88292354628,
        "school_type": "고등학교",
        "school_name": "관악고등학교",
        "distance": 743.4618069907935,
        "walking_time": "약 12분"
      },
      {
        "school_lat": 37.532879190933,
        "school_lon": 126.892776819259,
        "school_type": "초등학교",
        "school_name": "서울선유초등학교",
        "distance": 765.0381785495983,
        "walking_time": "약 12분"
      },
      {
        "school_lat": 37.520362407627,
        "school_lon": 126.884670886121,
        "school_type": "중학교",
        "school_name": "문래중학교",
        "distance": 817.4195261962036,
        "walking_time": "약 13분"
      },
      {
        "school_lat": 37.5198074103506,
        "school_lon": 126.887589090951,
        "school_type": "초등학교",
        "school_name": "서울영문초등학교",
        "distance": 835.2789186523999,
        "walking_time": "약 13분"
      },
      {
        "school_lat": 37.5332864654562,
        "school_lon": 126.894300682029,
        "school_type": "중학교",
        "school_name": "선유중학교",
        "distance": 884.581954377413,
        "walking_time": "약 14분"
      },
      {
        "school_lat": 37.5353922607054,
        "school_lon": 126.887734285049,
        "school_type": "고등학교",
        "school_name": "양정고등학교",
        "distance": 897.7252387196721,
        "walking_time": "약 14분"
      },
      {
        "school_lat": 37.5353922607054,
        "school_lon": 126.887734285049,
        "school_type": "중학교",
        "school_name": "양정중학교",
        "distance": 897.7252387196721,
        "walking_time": "약 14분"
      },
      {
        "school_lat": 37.5339016190568,
        "school_lon": 126.894850696134,
        "school_type": "고등학교",
        "school_name": "선유고등학교",
        "distance": 968.0042122665574,
        "walking_time": "약 15분"
      }
    ],
    "self_laundromat": [
      {
        "self_laundromat_lat": 37.52489845,
        "self_laundromat_lon": 126.8833325,
        "self_laundromat_type": "셀프 빨래방",
        "self_laundromat_name": "워시프렌즈셀프빨래방 양평동점",
        "distance": 467.4959073622621,
        "walking_time": "약 7분"
      },
      {
        "self_laundromat_lat": 37.52489845,
        "self_laundromat_lon": 126.8833325,
        "self_laundromat_type": "셀프 빨래방",
        "self_laundromat_name": "워시프렌즈셀프빨래방 양평동점",
        "distance": 467.4959073622621,
        "walking_time": "약 7분"
      },
      {
        "self_laundromat_lat": 37.52209338,
        "self_laundromat_lon": 126.8844551,
        "self_laundromat_type": "셀프 빨래방",
        "self_laundromat_name": "셀프빨래방 양평동점",
        "distance": 646.4240861704499,
        "walking_time": "약 10분"
      },
      {
        "self_laundromat_lat": 37.52209338,
        "self_laundromat_lon": 126.8844551,
        "self_laundromat_type": "셀프 빨래방",
        "self_laundromat_name": "셀프빨래방 양평동점",
        "distance": 646.4240861704499,
        "walking_time": "약 10분"
      },
      {
        "self_laundromat_lat": 37.5234518,
        "self_laundromat_lon": 126.8982341,
        "self_laundromat_type": "셀프 빨래방",
        "self_laundromat_name": "셀빨래방 당산점",
        "distance": 1026.3091560315802,
        "walking_time": "약 16분"
      },
      {
        "self_laundromat_lat": 37.5234518,
        "self_laundromat_lon": 126.8982341,
        "self_laundromat_type": "셀프 빨래방",
        "self_laundromat_name": "셀빨래방 당산점",
        "distance": 1026.3091560315802,
        "walking_time": "약 16분"
      },
      {
        "self_laundromat_lat": 37.52789254,
        "self_laundromat_lon": 126.899677,
        "self_laundromat_type": "셀프 빨래방",
        "self_laundromat_name": "워시엔조이 셀프빨래방 당산2동점",
        "distance": 1061.011148487103,
        "walking_time": "약 16분"
      },
      {
        "self_laundromat_lat": 37.52789254,
        "self_laundromat_lon": 126.899677,
        "self_laundromat_type": "셀프 빨래방",
        "self_laundromat_name": "워시엔조이 셀프빨래방 당산2동점",
        "distance": 1061.011148487103,
        "walking_time": "약 16분"
      },
      {
        "self_laundromat_lat": 37.53180824,
        "self_laundromat_lon": 126.8756617,
        "self_laundromat_type": "셀프 빨래방",
        "self_laundromat_name": "양천목동 빨래방(파리공원)워시프렌즈",
        "distance": 1170.4367747315127,
        "walking_time": "약 18분"
      },
      {
        "self_laundromat_lat": 37.53180824,
        "self_laundromat_lon": 126.8756617,
        "self_laundromat_type": "셀프 빨래방",
        "self_laundromat_name": "양천목동 빨래방(파리공원)워시프렌즈",
        "distance": 1170.4367747315127,
        "walking_time": "약 18분"
      }
    ],
    "subway": [
      {
        "subway_lat": 37.5255116853806,
        "subway_lon": 126.886865676125,
        "subway_type": "지하철",
        "subway_name": "5호선-양평역",
        "distance": 213.0262804281492,
        "walking_time": "약 4분"
      },
      {
        "subway_lat": 37.5242266062117,
        "subway_lon": 126.895289064995,
        "subway_type": "지하철",
        "subway_name": "5호선-영등포구청역",
        "distance": 755.0106927688751,
        "walking_time": "약 12분"
      },
      {
        "subway_lat": 37.5256996614804,
        "subway_lon": 126.896626898379,
        "subway_type": "지하철",
        "subway_name": "2호선-영등포구청역",
        "distance": 810.3908245281906,
        "walking_time": "약 13분"
      },
      {
        "subway_lat": 37.5244500703802,
        "subway_lon": 126.875354626254,
        "subway_type": "지하철",
        "subway_name": "5호선-오목교(목동운동장앞)역",
        "distance": 1131.676216107476,
        "walking_time": "약 17분"
      },
      {
        "subway_lat": 37.5179214637526,
        "subway_lon": 126.894763060556,
        "subway_type": "지하철",
        "subway_name": "2호선-문래역",
        "distance": 1218.0175606074265,
        "walking_time": "약 19분"
      },
      {
        "subway_lat": 37.5144420510515,
        "subway_lon": 126.882702584468,
        "subway_type": "지하철",
        "subway_name": "2호선-도림천역",
        "distance": 1497.2932631558651,
        "walking_time": "약 23분"
      }
    ],
    "supermarket": [
      {
        "supermarket_lat": 37.52606589,
        "supermarket_lon": 126.891572,
        "supermarket_type": "마트",
        "supermarket_name": "롯데쇼핑(주) 롯데마트 양평점",
        "distance": 371.485980441634,
        "walking_time": "약 6분"
      },
      {
        "supermarket_lat": 37.52766726,
        "supermarket_lon": 126.8921857,
        "supermarket_type": "마트",
        "supermarket_name": "코스트코 홀세일",
        "distance": 400.35597705352166,
        "walking_time": "약 6분"
      },
      {
        "supermarket_lat": 37.52766726,
        "supermarket_lon": 126.8921857,
        "supermarket_type": "마트",
        "supermarket_name": "코스트코홀세일",
        "distance": 400.35597705352166,
        "walking_time": "약 6분"
      },
      {
        "supermarket_lat": 37.52358939,
        "supermarket_lon": 126.8861051,
        "supermarket_type": "마트",
        "supermarket_name": "영등포 중흥 에스클래스",
        "distance": 436.9891041392684,
        "walking_time": "약 7분"
      },
      {
        "supermarket_lat": 37.52134276,
        "supermarket_lon": 126.8857535,
        "supermarket_type": "마트",
        "supermarket_name": "GS THE FRESH 문래점",
        "distance": 685.6185246090863,
        "walking_time": "약 11분"
      },
      {
        "supermarket_lat": 37.52241744,
        "supermarket_lon": 126.8939303,
        "supermarket_type": "마트",
        "supermarket_name": "영등포유통상가",
        "distance": 775.9773003475403,
        "walking_time": "약 12분"
      },
      {
        "supermarket_lat": 37.52205753,
        "supermarket_lon": 126.8952868,
        "supermarket_type": "마트",
        "supermarket_name": "포레나당산동역세권청년주택 상업시설",
        "distance": 890.9709266912356,
        "walking_time": "약 14분"
      },
      {
        "supermarket_lat": 37.52205753,
        "supermarket_lon": 126.8952868,
        "supermarket_type": "마트",
        "supermarket_name": "(주)이마트에브리데이 영등포구청점",
        "distance": 890.9709266912356,
        "walking_time": "약 14분"
      },
      {
        "supermarket_lat": 37.52921099,
        "supermarket_lon": 126.8759847,
        "supermarket_type": "마트",
        "supermarket_name": "행복한백화점",
        "distance": 1051.4476281216937,
        "walking_time": "약 16분"
      },
      {
        "supermarket_lat": 37.52732178,
        "supermarket_lon": 126.8746191,
        "supermarket_type": "마트",
        "supermarket_name": "현대백화점목동점",
        "distance": 1150.6236116933685,
        "walking_time": "약 18분"
      }
    ],
    "tax_office": [
      {
        "tax_office_lat": 37.52530828,
        "tax_office_lon": 126.8927976,
        "tax_office_type": "세무서",
        "tax_office_name": "영등포세무서",
        "distance": 504.6743000795136,
        "walking_time": "약 8분"
      },
      {
        "tax_office_lat": 37.51361958,
        "tax_office_lon": 126.8994697,
        "tax_office_type": "세무서",
        "tax_office_name": "구로세무서",
        "distance": 1844.9819412417737,
        "walking_time": "약 28분"
      }
    ],
    "theater": [
      {
        "theater_lat": 37.5292109947037,
        "theater_lon": 126.875984665042,
        "theater_type": "영화관",
        "theater_name": "메가박스중앙(주) 목동지점",
        "distance": 1051.4507531212112,
        "walking_time": "약 16분"
      },
      {
        "theater_lat": 37.5273217750941,
        "theater_lon": 126.874619136454,
        "theater_type": "영화관",
        "theater_name": "메가박스중앙(주)더부티크목동현대백화점",
        "distance": 1150.6203969050375,
        "walking_time": "약 18분"
      }
    ]
  }
}