{
  "클러스터_위도": 37.481107,
  "클러스터_경도": 126.943954,
  "클러스터_level": 3.0,
  "facilities": {
    "bus": [
      {
        "bus_lat": 37.48199482,
        "bus_lon": 126.9441415,
        "bus_type": "버스정류장",
        "bus_name": "봉천역",
        "distance": 100.097853583578,
        "walking_time": "약 2분"
      },
      {
        "bus_lat": 37.48205514,
        "bus_lon": 126.9431154,
        "bus_type": "버스정류장",
        "bus_name": "봉천역.관악초등학교",
        "distance": 128.80481805488466,
        "walking_time": "약 2분"
      },
      {
        "bus_lat": 37.48244034,
        "bus_lon": 126.9431519,
        "bus_type": "버스정류장",
        "bus_name": "봉천역.관악초등학교",
        "distance": 164.2877444077858,
        "walking_time": "약 3분"
      },
      {
        "bus_lat": 37.47973045,
        "bus_lon": 126.9429334,
        "bus_type": "버스정류장",
        "bus_name": "e편한세상서울대입구아파트",
        "distance": 177.59337207345249,
        "walking_time": "약 3분"
      },
      {
        "bus_lat": 37.47953218,
        "bus_lon": 126.942829,
        "bus_type": "버스정류장",
        "bus_name": "e편한세상서울대입구아파트",
        "distance": 201.29274347080977,
        "walking_time": "약 4분"
      },
      {
        "bus_lat": 37.48321314,
        "bus_lon": 126.9435329,
        "bus_type": "버스정류장",
        "bus_name": "봉천역6번출구",
        "distance": 237.1214330340601,
        "walking_time": "약 4분"
      },
      {
        "bus_lat": 37.47939646,
        "bus_lon": 126.9456414,
        "bus_type": "버스정류장",
        "bus_name": "영락고교.영락의료과학고",
        "distance": 241.5522507693661,
        "walking_time": "약 4분"
      },
      {
        "bus_lat": 37.47921263,
        "bus_lon": 126.9456223,
        "bus_type": "버스정류장",
        "bus_name": "영락고교.영락의료과학고",
        "distance": 256.9867705812921,
        "walking_time": "약 4분"
      },
      {
        "bus_lat": 37.48271209,
        "bus_lon": 126.9415037,
        "bus_type": "버스정류장",
        "bus_name": "봉천역",
        "distance": 280.3590121975097,
        "walking_time": "약 5분"
      },
      {
        "bus_lat": 37.48323621,
        "bus_lon": 126.9421197,
        "bus_type": "버스정류장",
        "bus_name": "봉천역",
        "distance": 286.7943992917523,
        "walking_time": "약 5분"
      }
    ],
    "community_center": [
      {
        "community_center_lat": 37.4791175,
        "community_center_lon": 126.9416407,
        "community_center_type": "주민센터",
        "community_center_name": "청룡동 자치회관",
        "distance": 301.0098064571393,
        "walking_time": "약 5분"
      },
      {
        "community_center_lat": 37.48533865,
        "community_center_lon": 126.9424717,
        "community_center_type": "주민센터",
        "community_center_name": "은천동 자치회관",
        "distance": 488.3778156144453,
        "walking_time": "약 8분"
      },
      {
        "community_center_lat": 37.48419282,
        "community_center_lon": 126.9497511,
        "community_center_type": "주민센터",
        "community_center_name": "중앙동 자치회관",
        "distance": 615.9464518478995,
        "walking_time": "약 10분"
      },
      {
        "community_center_lat": 37.47499588,
        "community_center_lon": 126.9349996,
        "community_center_type": "주민센터",
        "community_center_name": "서림동 자치회관",
        "distance": 1042.165894590912,
        "walking_time": "약 16분"
      },
      {
        "community_center_lat": 37.47976918,
        "community_center_lon": 126.9313747,
        "community_center_type": "주민센터",
        "community_center_name": "서원동 자치회관",
        "distance": 1119.920848563831,
        "walking_time": "약 17분"
      },
      {
        "community_center_lat": 37.48064257,
        "community_center_lon": 126.9570309,
        "community_center_type": "주민센터",
        "community_center_name": "행운동 자치회관",
        "distance": 1155.0535869911555,
        "walking_time": "약 18분"
      },
      {
        "community_center_lat": 37.48817585,
        "community_center_lon": 126.932778,
        "community_center_type": "주민센터",
        "community_center_name": "보라매동 자치회관",
        "distance": 1261.0509733731635,
        "walking_time": "약 19분"
      },
      {
        "community_center_lat": 37.48721429,
        "community_center_lon": 126.956633,
        "community_center_type": "주민센터",
        "community_center_name": "성현동 자치회관",
        "distance": 1308.7218994880216,
        "walking_time": "약 20분"
      },
      {
        "community_center_lat": 37.47059604,
        "community_center_lon": 126.9369573,
        "community_center_type": "주민센터",
        "community_center_name": "대학동 자치회관",
        "distance": 1321.827565518315,
        "walking_time": "약 20분"
      },
      {
        "community_center_lat": 37.47649632,
        "community_center_lon": 126.9583326,
        "community_center_type": "주민센터",
        "community_center_name": "낙성대동 자치회관",
        "distance": 1368.4611781643264,
        "walking_time": "약 21분"
      }
    ],
    "convenience_store": [
      {
        "convenience_store_lat": 37.48010403,
        "convenience_store_lon": 126.9444922,
        "convenience_store_type": "편의점",
        "convenience_store_name": "GS25 관악영락점",
        "distance": 121.21561911222,
        "walking_time": "약 2분"
      },
      {
        "convenience_store_lat": 37.48102874,
        "convenience_store_lon": 126.9420592,
        "convenience_store_type": "편의점",
        "convenience_store_name": "CU 관악장군점",
        "distance": 167.42199901276334,
        "walking_time": "약 3분"
      },
      {
        "convenience_store_lat": 37.47982753,
        "convenience_store_lon": 126.9426421,
        "convenience_store_type": "편의점",
        "convenience_store_name": "CU 관악써니점",
        "distance": 183.41687669136903,
        "walking_time": "약 3분"
      },
      {
        "convenience_store_lat": 37.48255359,
        "convenience_store_lon": 126.9427597,
        "convenience_store_type": "편의점",
        "convenience_store_name": "GS25 봉천역점",
        "distance": 192.3003448971056,
        "walking_time": "약 3분"
      },
      {
        "convenience_store_lat": 37.48170083,
        "convenience_store_lon": 126.9461146,
        "convenience_store_type": "편의점",
        "convenience_store_name": "세븐일레븐 봉천점",
        "distance": 201.7598824635768,
        "walking_time": "약 4분"
      },
      {
        "convenience_store_lat": 37.47931705,
        "convenience_store_lon": 126.9445844,
        "convenience_store_type": "편의점",
        "convenience_store_name": "CU 관악쑥고개점",
        "distance": 206.6605957137376,
        "walking_time": "약 4분"
      },
      {
        "convenience_store_lat": 37.48042909,
        "convenience_store_lon": 126.9461903,
        "convenience_store_type": "편의점",
        "convenience_store_name": "CU 봉천카라점",
        "distance": 211.23770251824652,
        "walking_time": "약 4분"
      },
      {
        "convenience_store_lat": 37.47974699,
        "convenience_store_lon": 126.9460967,
        "convenience_store_type": "편의점",
        "convenience_store_name": "세븐일레븐 관악청룡로점",
        "distance": 242.1105516874954,
        "walking_time": "약 4분"
      },
      {
        "convenience_store_lat": 37.4818341,
        "convenience_store_lon": 126.9408657,
        "convenience_store_type": "편의점",
        "convenience_store_name": "GS25 관악아미움점",
        "distance": 284.2484201305119,
        "walking_time": "약 5분"
      },
      {
        "convenience_store_lat": 37.48347795,
        "convenience_store_lon": 126.9452649,
        "convenience_store_type": "편의점",
        "convenience_store_name": "GS25 봉천은천점",
        "distance": 287.8967685111426,
        "walking_time": "약 5분"
      }
    ],
    "daycare": [
      {
        "daycare_lat": 37.48007722,
        "daycare_lon": 126.945412,
        "daycare_type": "어린이집",
        "daycare_name": "늘푸른어린이집",
        "distance": 172.23079847624777,
        "walking_time": "약 3분"
      },
      {
        "daycare_lat": 37.47966108,
        "daycare_lon": 126.9449226,
        "daycare_type": "어린이집",
        "daycare_name": "관악여성인력개발센터방과후교실어린이집",
        "distance": 182.0848092269001,
        "walking_time": "약 3분"
      },
      {
        "daycare_lat": 37.47968446,
        "daycare_lon": 126.9452208,
        "daycare_type": "어린이집",
        "daycare_name": "성요셉어린이집",
        "distance": 193.69044263334743,
        "walking_time": "약 3분"
      },
      {
        "daycare_lat": 37.48007212,
        "daycare_lon": 126.9414713,
        "daycare_type": "어린이집",
        "daycare_name": "행복나라어린이집",
        "distance": 247.45674319929745,
        "walking_time": "약 4분"
      },
      {
        "daycare_lat": 37.47890529035939,
        "daycare_lon": 126.94326758624211,
        "daycare_type": "어린이집",
        "daycare_name": "샛별몬테소리어린이집",
        "distance": 252.20027042981968,
        "walking_time": "약 4분"
      },
      {
        "daycare_lat": 37.47885648,
        "daycare_lon": 126.9422057,
        "daycare_type": "어린이집",
        "daycare_name": "구립청룡어린이집",
        "distance": 293.9774993537087,
        "walking_time": "약 5분"
      },
      {
        "daycare_lat": 37.47847804,
        "daycare_lon": 126.94291743202088,
        "daycare_type": "어린이집",
        "daycare_name": "구립e편한1단지어린이집",
        "distance": 306.3027759532744,
        "walking_time": "약 5분"
      },
      {
        "daycare_lat": 37.48376325995358,
        "daycare_lon": 126.94270763276435,
        "daycare_type": "어린이집",
        "daycare_name": "솔샘어린이집",
        "distance": 315.17282211569443,
        "walking_time": "약 5분"
      },
      {
        "daycare_lat": 37.48376326,
        "daycare_lon": 126.9427076,
        "daycare_type": "어린이집",
        "daycare_name": "해나린어린이집",
        "distance": 315.1738357690844,
        "walking_time": "약 5분"
      },
      {
        "daycare_lat": 37.47976784,
        "daycare_lon": 126.9407423,
        "daycare_type": "어린이집",
        "daycare_name": "재롱이어린이집",
        "distance": 320.1394614903998,
        "walking_time": "약 5분"
      }
    ],
    "education": [
      {
        "education_lat": 37.48624318,
        "education_lon": 126.9596703,
        "education_type": "도서관",
        "education_name": "글빛정보도서관",
        "distance": 1499.7462162042043,
        "walking_time": "약 23분"
      },
      {
        "education_lat": 37.49543351,
        "education_lon": 126.9405902,
        "education_type": "도서관",
        "education_name": "국사봉숲속작은도서관",
        "distance": 1620.4461859621226,
        "walking_time": "약 25분"
      },
      {
        "education_lat": 37.47197208,
        "education_lon": 126.959371,
        "education_type": "도서관",
        "education_name": "낙성대공원도서관",
        "distance": 1697.8313309352236,
        "walking_time": "약 26분"
      },
      {
        "education_lat": 37.49788488,
        "education_lon": 126.9474555,
        "education_type": "도서관",
        "education_name": "약수도서관",
        "distance": 1891.0210330676853,
        "walking_time": "약 29분"
      },
      {
        "education_lat": 37.49642897,
        "education_lon": 126.9551579,
        "education_type": "박물관/기념관",
        "education_name": "숭실대학교 한국기독교박물관",
        "distance": 1969.7347406733943,
        "walking_time": "약 30분"
      },
      {
        "education_lat": 37.49925547,
        "education_lon": 126.9403722,
        "education_type": "공연장",
        "education_name": "상도어울마당 아트홀",
        "distance": 2042.611653143512,
        "walking_time": "약 31분"
      }
    ],
    "fitness": [
      {
        "fitness_lat": 37.48175846,
        "fitness_lon": 126.9427794,
        "fitness_type": "운동시설",
        "fitness_name": "천샘PT",
        "distance": 126.4506309235882,
        "walking_time": "약 2분"
      },
      {
        "fitness_lat": 37.48198569,
        "fitness_lon": 126.9427729,
        "fitness_type": "운동시설",
        "fitness_name": "더 스페셜 짐",
        "distance": 142.85647165126588,
        "walking_time": "약 3분"
      },
      {
        "fitness_lat": 37.47966365,
        "fitness_lon": 126.9449325,
        "fitness_type": "운동시설",
        "fitness_name": "운동하는날 서울대봉천점",
        "distance": 182.2447757631051,
        "walking_time": "약 3분"
      },
      {
        "fitness_lat": 37.48255359,
        "fitness_lon": 126.9427597,
        "fitness_type": "운동시설",
        "fitness_name": "휘트니스 에일린 2호점",
        "distance": 192.3003448971056,
        "walking_time": "약 3분"
      },
      {
        "fitness_lat": 37.48109218,
        "fitness_lon": 126.9464702,
        "fitness_type": "운동시설",
        "fitness_name": "짐박스피트니스 봉천점",
        "distance": 222.03356843468976,
        "walking_time": "약 4분"
      },
      {
        "fitness_lat": 37.47947399,
        "fitness_lon": 126.942303,
        "fitness_type": "운동시설",
        "fitness_name": "온핸드짐",
        "distance": 232.8006576903823,
        "walking_time": "약 4분"
      },
      {
        "fitness_lat": 37.48313622,
        "fitness_lon": 126.9453157,
        "fitness_type": "운동시설",
        "fitness_name": "탁구앤짐",
        "distance": 255.6361616421652,
        "walking_time": "약 4분"
      },
      {
        "fitness_lat": 37.47930422,
        "fitness_lon": 126.9474845,
        "fitness_type": "운동시설",
        "fitness_name": "GYM PRIVATE",
        "distance": 370.4544697036159,
        "walking_time": "약 6분"
      },
      {
        "fitness_lat": 37.48398984,
        "fitness_lon": 126.9415579,
        "fitness_type": "운동시설",
        "fitness_name": "인바이트짐",
        "distance": 384.0023271007764,
        "walking_time": "약 6분"
      },
      {
        "fitness_lat": 37.47928799,
        "fitness_lon": 126.9478459,
        "fitness_type": "운동시설",
        "fitness_name": "봉천동점 스포애니 (주)케이디헬스케어",
        "distance": 398.5597157821746,
        "walking_time": "약 6분"
      }
    ],
    "gas_station": [
      {
        "gas_station_lat": 37.48233196,
        "gas_station_lon": 126.9450663,
        "gas_station_type": "주유소",
        "gas_station_name": "시몬주유소",
        "distance": 167.88669530093708,
        "walking_time": "약 3분"
      },
      {
        "gas_station_lat": 37.4737677,
        "gas_station_lon": 126.9348256,
        "gas_station_type": "주유소",
        "gas_station_name": "유림주유소",
        "distance": 1146.6793493887255,
        "walking_time": "약 18분"
      },
      {
        "gas_station_lat": 37.48041974,
        "gas_station_lon": 126.9306687,
        "gas_station_type": "주유소",
        "gas_station_name": "신관주유소",
        "distance": 1174.7776091095573,
        "walking_time": "약 18분"
      },
      {
        "gas_station_lat": 37.4787977,
        "gas_station_lon": 126.9583966,
        "gas_station_type": "주유소",
        "gas_station_name": "SK에너지㈜ 신봉천주유소",
        "distance": 1300.0349896740272,
        "walking_time": "약 20분"
      },
      {
        "gas_station_lat": 37.47909674,
        "gas_station_lon": 126.9591692,
        "gas_station_type": "주유소",
        "gas_station_name": "행운주유소",
        "distance": 1361.0756627279316,
        "walking_time": "약 21분"
      },
      {
        "gas_station_lat": 37.49347189,
        "gas_station_lon": 126.9564351,
        "gas_station_type": "주유소",
        "gas_station_name": "현대오일뱅크㈜직영동작주유소",
        "distance": 1761.5605024926772,
        "walking_time": "약 27분"
      },
      {
        "gas_station_lat": 37.4983605,
        "gas_station_lon": 126.951389,
        "gas_station_type": "주유소",
        "gas_station_name": "살피재주유소",
        "distance": 2027.5506821720228,
        "walking_time": "약 31분"
      }
    ],
    "hospital": [
      {
        "hospital_lat": 37.48140921,
        "hospital_lon": 126.9431059,
        "hospital_type": "병원",
        "hospital_name": "마나스정신건강의학과의원",
        "distance": 82.03411170263064,
        "walking_time": "약 2분"
      },
      {
        "hospital_lat": 37.48140921,
        "hospital_lon": 126.9431059,
        "hospital_type": "병원",
        "hospital_name": "윤가정의학과의원",
        "distance": 82.03411170263064,
        "walking_time": "약 2분"
      },
      {
        "hospital_lat": 37.4816822,
        "hospital_lon": 126.9432691,
        "hospital_type": "병원",
        "hospital_name": "광제당한의원",
        "distance": 87.99521521657702,
        "walking_time": "약 2분"
      },
      {
        "hospital_lat": 37.4819001,
        "hospital_lon": 126.9433373,
        "hospital_type": "병원",
        "hospital_name": "세강한의원",
        "distance": 103.62642481298714,
        "walking_time": "약 2분"
      },
      {
        "hospital_lat": 37.4819001,
        "hospital_lon": 126.9433373,
        "hospital_type": "병원",
        "hospital_name": "아이빛소아과의원",
        "distance": 103.62642481298714,
        "walking_time": "약 2분"
      },
      {
        "hospital_lat": 37.4819001,
        "hospital_lon": 126.9433373,
        "hospital_type": "병원",
        "hospital_name": "이근하치과의원",
        "distance": 103.62642481298714,
        "walking_time": "약 2분"
      },
      {
        "hospital_lat": 37.48197058,
        "hospital_lon": 126.9430186,
        "hospital_type": "병원",
        "hospital_name": "늘튼튼정형외과의원",
        "distance": 126.62359313900384,
        "walking_time": "약 2분"
      },
      {
        "hospital_lat": 37.48197058,
        "hospital_lon": 126.9430186,
        "hospital_type": "병원",
        "hospital_name": "미래의원",
        "distance": 126.62359313900384,
        "walking_time": "약 2분"
      },
      {
        "hospital_lat": 37.48197058,
        "hospital_lon": 126.9430186,
        "hospital_type": "병원",
        "hospital_name": "매일튼튼의원",
        "distance": 126.62359313900384,
        "walking_time": "약 2분"
      },
      {
        "hospital_lat": 37.48197058,
        "hospital_lon": 126.9430186,
        "hospital_type": "병원",
        "hospital_name": "신봉침한의원",
        "distance": 126.62359313900384,
        "walking_time": "약 2분"
      }
    ],
    "music_room": [
      {
        "music_room_lat": 37.4819001,
        "music_room_lon": 126.9433373,
        "music_room_type": "노래방",
        "music_room_name": "명노래방",
        "distance": 103.62642481298714,
        "walking_time": "약 2분"
      },
      {
        "music_room_lat": 37.48198569,
        "music_room_lon": 126.9427729,
        "music_room_type": "노래방",
        "music_room_name": "용가리",
        "distance": 142.85647165126588,
        "walking_time": "약 3분"
      },
      {
        "music_room_lat": 37.48242728,
        "music_room_lon": 126.9439007,
        "music_room_type": "노래방",
        "music_room_name": "패밀리노래연습장",
        "distance": 146.8837520251815,
        "walking_time": "약 3분"
      },
      {
        "music_room_lat": 37.48206617,
        "music_room_lon": 126.9422508,
        "music_room_type": "노래방",
        "music_room_name": "윙크노래연습장",
        "distance": 184.28711480569083,
        "walking_time": "약 3분"
      },
      {
        "music_room_lat": 37.48120013,
        "music_room_lon": 126.9460784,
        "music_room_type": "노래방",
        "music_room_name": "썬 노래연습장",
        "distance": 187.74102124083447,
        "walking_time": "약 3분"
      },
      {
        "music_room_lat": 37.47943773,
        "music_room_lon": 126.9433308,
        "music_room_type": "노래방",
        "music_room_name": "둘리",
        "distance": 193.58907236337524,
        "walking_time": "약 3분"
      },
      {
        "music_room_lat": 37.48208252,
        "music_room_lon": 126.9417972,
        "music_room_type": "노래방",
        "music_room_name": "한마음",
        "distance": 219.05572950472413,
        "walking_time": "약 4분"
      },
      {
        "music_room_lat": 37.48258361,
        "music_room_lon": 126.942236,
        "music_room_type": "노래방",
        "music_room_name": "코인쏭동전노래연습장",
        "distance": 223.4713097592365,
        "walking_time": "약 4분"
      },
      {
        "music_room_lat": 37.48151703,
        "music_room_lon": 126.9465227,
        "music_room_type": "노래방",
        "music_room_name": "영노래연습장",
        "distance": 231.19950965152904,
        "walking_time": "약 4분"
      },
      {
        "music_room_lat": 37.47948752,
        "music_room_lon": 126.9457558,
        "music_room_type": "노래방",
        "music_room_name": "짝노래연습장",
        "distance": 240.2212225334448,
        "walking_time": "약 4분"
      }
    ],
    "park": [
      {
        "park_lat": 37.492299,
        "park_lon": 126.9385469,
        "park_type": "공원",
        "park_name": "상도근린공원",
        "distance": 1332.8060373836383,
        "walking_time": "약 20분"
      }
    ],
    "park_station": [
      {
        "park_station_lat": 37.48685341,
        "park_station_lon": 126.9331906,
        "park_station_type": "주차장",
        "park_station_name": "봉천복개3 공영주차장",
        "distance": 1144.660348105181,
        "walking_time": "약 18분"
      },
      {
        "park_station_lat": 37.47785677,
        "park_station_lon": 126.9588859,
        "park_station_type": "주차장",
        "park_station_name": "낙성대제1공영",
        "distance": 1366.2743259314268,
        "walking_time": "약 21분"
      },
      {
        "park_station_lat": 37.49193146,
        "park_station_lon": 126.9331501,
        "park_station_type": "주차장",
        "park_station_name": "당곡중학교공영 ",
        "distance": 1535.387411639584,
        "walking_time": "약 23분"
      },
      {
        "park_station_lat": 37.47480251,
        "park_station_lon": 126.9598846,
        "park_station_type": "주차장",
        "park_station_name": "낙성대제2공영",
        "distance": 1570.8619466230086,
        "walking_time": "약 24분"
      },
      {
        "park_station_lat": 37.49330922,
        "park_station_lon": 126.9336841,
        "park_station_type": "주차장",
        "park_station_name": "빙수골장미",
        "distance": 1631.579609936738,
        "walking_time": "약 25분"
      },
      {
        "park_station_lat": 37.49725268,
        "park_station_lon": 126.9338844,
        "park_station_type": "주차장",
        "park_station_name": "공유) 성대주차장",
        "distance": 2003.1191715013829,
        "walking_time": "약 30분"
      },
      {
        "park_station_lat": 37.49727728,
        "park_station_lon": 126.9540285,
        "park_station_type": "주차장",
        "park_station_name": "살피재 공유주차장",
        "distance": 2005.7626526797103,
        "walking_time": "약 30분"
      },
      {
        "park_station_lat": 37.49727728,
        "park_station_lon": 126.9540285,
        "park_station_type": "주차장",
        "park_station_name": "살피재 공유주차장",
        "distance": 2005.7626526797103,
        "walking_time": "약 30분"
      },
      {
        "park_station_lat": 37.49978486,
        "park_station_lon": 126.9354957,
        "park_station_type": "주차장",
        "park_station_name": "도화공영주차장",
        "distance": 2206.886579952249,
        "walking_time": "약 33분"
      }
    ],
    "pc_room": [
      {
        "pc_room_lat": 37.4815170316646,
        "pc_room_lon": 126.946522694417,
        "pc_room_type": "PC방",
        "pc_room_name": "브라보PC",
        "distance": 231.19906318505127,
        "walking_time": "약 4분"
      },
      {
        "pc_room_lat": 37.4792117658952,
        "pc_room_lon": 126.945267468435,
        "pc_room_type": "PC방",
        "pc_room_name": "Q PC",
        "distance": 240.5088993763001,
        "walking_time": "약 4분"
      },
      {
        "pc_room_lat": 37.4799546008071,
        "pc_room_lon": 126.947344732144,
        "pc_room_type": "PC방",
        "pc_room_name": "욜로PC방 봉천점",
        "distance": 325.483315839937,
        "walking_time": "약 5분"
      },
      {
        "pc_room_lat": 37.4825397376028,
        "pc_room_lon": 126.940613730465,
        "pc_room_type": "PC방",
        "pc_room_name": "3POP PC방",
        "distance": 335.040663790065,
        "walking_time": "약 6분"
      },
      {
        "pc_room_lat": 37.4793763605135,
        "pc_room_lon": 126.947204153908,
        "pc_room_type": "PC방",
        "pc_room_name": "탑티어 PC방 서울대점",
        "distance": 345.37436231985424,
        "walking_time": "약 6분"
      },
      {
        "pc_room_lat": 37.4812382481402,
        "pc_room_lon": 126.948113779028,
        "pc_room_type": "PC방",
        "pc_room_name": "더블m PC방",
        "distance": 367.345195408957,
        "walking_time": "약 6분"
      },
      {
        "pc_room_lat": 37.4841495810369,
        "pc_room_lon": 126.941358237708,
        "pc_room_type": "PC방",
        "pc_room_name": "스타덤PC 봉천점",
        "distance": 408.5596145921348,
        "walking_time": "약 7분"
      },
      {
        "pc_room_lat": 37.4808713899046,
        "pc_room_lon": 126.948600646271,
        "pc_room_type": "PC방",
        "pc_room_name": "이스테이션PC방",
        "distance": 410.8530631755914,
        "walking_time": "약 7분"
      },
      {
        "pc_room_lat": 37.4806186063628,
        "pc_room_lon": 126.951245075921,
        "pc_room_type": "PC방",
        "pc_room_name": "맥스피드PC 서울대입구역점",
        "distance": 645.6486700094263,
        "walking_time": "약 10분"
      },
      {
        "pc_room_lat": 37.479783254518,
        "pc_room_lon": 126.951181288015,
        "pc_room_type": "PC방",
        "pc_room_name": "왕바다PC랜드",
        "distance": 654.5019095074413,
        "walking_time": "약 10분"
      }
    ],
    "police_office": [
      {
        "police_office_lat": 37.48735272,
        "police_office_lon": 126.9454289,
        "police_office_type": "경찰소",
        "police_office_name": "구암지구대",
        "distance": 706.5802850451876,
        "walking_time": "약 11분"
      },
      {
        "police_office_lat": 37.48401647,
        "police_office_lon": 126.9333173,
        "police_office_type": "경찰소",
        "police_office_name": "신림지구대",
        "distance": 992.748912603516,
        "walking_time": "약 15분"
      },
      {
        "police_office_lat": 37.48600685,
        "police_office_lon": 126.9343644,
        "police_office_type": "경찰소",
        "police_office_name": "당곡지구대",
        "distance": 1006.389580164346,
        "walking_time": "약 16분"
      },
      {
        "police_office_lat": 37.4738594,
        "police_office_lon": 126.9352631,
        "police_office_type": "경찰소",
        "police_office_name": "관악산지구대",
        "distance": 1112.4871678068723,
        "walking_time": "약 17분"
      },
      {
        "police_office_lat": 37.47832691,
        "police_office_lon": 126.9575957,
        "police_office_type": "경찰소",
        "police_office_name": "낙성대지구대",
        "distance": 1242.814655266219,
        "walking_time": "약 19분"
      }
    ],
    "post_office": [
      {
        "post_office_lat": 37.48227075,
        "post_office_lon": 126.9412539,
        "post_office_type": "우체국",
        "post_office_name": "서울봉천역전우편취급국",
        "distance": 271.1264271291347,
        "walking_time": "약 5분"
      },
      {
        "post_office_lat": 37.47864491,
        "post_office_lon": 126.947376,
        "post_office_type": "우체국",
        "post_office_name": "서울청룡동우편취급국",
        "distance": 407.5911877263262,
        "walking_time": "약 7분"
      },
      {
        "post_office_lat": 37.48582895,
        "post_office_lon": 126.9416713,
        "post_office_type": "우체국",
        "post_office_name": "서울은천동우체국",
        "distance": 562.364318432181,
        "walking_time": "약 9분"
      },
      {
        "post_office_lat": 37.48084938,
        "post_office_lon": 126.9547091,
        "post_office_type": "우체국",
        "post_office_name": "서울행운동우체국",
        "distance": 949.4551059277876,
        "walking_time": "약 15분"
      },
      {
        "post_office_lat": 37.48501424,
        "post_office_lon": 126.9331367,
        "post_office_type": "우체국",
        "post_office_name": "서울관악우체국",
        "distance": 1048.7140728432062,
        "walking_time": "약 16분"
      },
      {
        "post_office_lat": 37.48677759,
        "post_office_lon": 126.9567026,
        "post_office_type": "우체국",
        "post_office_name": "서울봉천동우체국",
        "distance": 1289.5519793004437,
        "walking_time": "약 20분"
      },
      {
        "post_office_lat": 37.49642897,
        "post_office_lon": 126.9551579,
        "post_office_type": "우체국",
        "post_office_name": "숭실대학교우편취급국",
        "distance": 1969.7347406733943,
        "walking_time": "약 30분"
      },
      {
        "post_office_lat": 37.49941236,
        "post_office_lon": 126.9437362,
        "post_office_type": "우체국",
        "post_office_name": "서울동작약수우편취급국",
        "distance": 2035.5538670116407,
        "walking_time": "약 31분"
      }
    ],
    "public_health_center": [
      {
        "public_health_center_lat": 37.47821067,
        "public_health_center_lon": 126.9515012,
        "public_health_center_type": "보건소",
        "public_health_center_name": "관악구보건소",
        "distance": 739.756108115063,
        "walking_time": "약 12분"
      },
      {
        "public_health_center_lat": 37.48784455,
        "public_health_center_lon": 126.932302,
        "public_health_center_type": "보건소",
        "public_health_center_name": "관악구보건지소",
        "distance": 1272.1228209356989,
        "walking_time": "약 19분"
      }
    ],
    "school": [
      {
        "school_lat": 37.4810297131995,
        "school_lon": 126.942570541831,
        "school_type": "초등학교",
        "school_name": "서울관악초등학교",
        "distance": 122.3774053984498,
        "walking_time": "약 2분"
      },
      {
        "school_lat": 37.476541242971,
        "school_lon": 126.945416499639,
        "school_type": "고등학교",
        "school_name": "영락고등학교",
        "distance": 523.8348979448248,
        "walking_time": "약 8분"
      },
      {
        "school_lat": 37.476541242971,
        "school_lon": 126.945416499639,
        "school_type": "고등학교",
        "school_name": "영락의료과학고등학교",
        "distance": 523.8348979448248,
        "walking_time": "약 8분"
      },
      {
        "school_lat": 37.4811981682395,
        "school_lon": 126.937702673305,
        "school_type": "중학교",
        "school_name": "봉림중학교",
        "distance": 551.7047650276684,
        "walking_time": "약 9분"
      },
      {
        "school_lat": 37.4865852040387,
        "school_lon": 126.942679132637,
        "school_type": "초등학교",
        "school_name": "서울은천초등학교",
        "distance": 619.4478951447384,
        "walking_time": "약 10분"
      },
      {
        "school_lat": 37.4855779476851,
        "school_lon": 126.949130876206,
        "school_type": "초등학교",
        "school_name": "서울신봉초등학교",
        "distance": 675.13823177819,
        "walking_time": "약 11분"
      },
      {
        "school_lat": 37.4878154195732,
        "school_lon": 126.943760849751,
        "school_type": "고등학교",
        "school_name": "서울관광고등학교",
        "distance": 746.13688500228,
        "walking_time": "약 12분"
      },
      {
        "school_lat": 37.4767252713626,
        "school_lon": 126.951284574125,
        "school_type": "초등학교",
        "school_name": "서울청룡초등학교",
        "distance": 809.827570825319,
        "walking_time": "약 13분"
      },
      {
        "school_lat": 37.4802012453571,
        "school_lon": 126.934452241482,
        "school_type": "중학교",
        "school_name": "신관중학교",
        "distance": 844.4599507225312,
        "walking_time": "약 13분"
      },
      {
        "school_lat": 37.4892174749954,
        "school_lon": 126.946271723126,
        "school_type": "초등학교",
        "school_name": "서울구암초등학교",
        "distance": 924.7396620024596,
        "walking_time": "약 14분"
      }
    ],
    "subway": [
      {
        "subway_lat": 37.4825562153548,
        "subway_lon": 126.941495272047,
        "subway_type": "지하철",
        "subway_name": "2호선-봉천역",
        "distance": 270.25338866496634,
        "walking_time": "약 5분"
      },
      {
        "subway_lat": 37.4811526631844,
        "subway_lon": 126.952645104944,
        "subway_type": "지하철",
        "subway_name": "2호선-서울대입구(관악구청)역",
        "distance": 766.9125693773689,
        "walking_time": "약 12분"
      },
      {
        "subway_lat": 37.4958143308836,
        "subway_lon": 126.954060246067,
        "subway_type": "지하철",
        "subway_name": "7호선-숭실대입구(살피재)역",
        "distance": 1862.6758379501448,
        "walking_time": "약 28분"
      }
    ],
    "supermarket": [
      {
        "supermarket_lat": 37.47933913,
        "supermarket_lon": 126.9490155,
        "supermarket_type": "마트",
        "supermarket_name": "(주)지에스리테일 관악점",
        "distance": 487.9748610044597,
        "walking_time": "약 8분"
      },
      {
        "supermarket_lat": 37.48629672,
        "supermarket_lon": 126.9412497,
        "supermarket_type": "마트",
        "supermarket_name": "(주)이마트에브리데이 봉천동점",
        "distance": 624.4585199754497,
        "walking_time": "약 10분"
      },
      {
        "supermarket_lat": 37.48615809,
        "supermarket_lon": 126.9472386,
        "supermarket_type": "마트",
        "supermarket_name": "홈플러스 익스프레스 봉천점",
        "distance": 632.022931383279,
        "walking_time": "약 10분"
      },
      {
        "supermarket_lat": 37.48658496,
        "supermarket_lon": 126.9465719,
        "supermarket_type": "마트",
        "supermarket_name": "봉천현대시장",
        "distance": 651.4495727355262,
        "walking_time": "약 10분"
      },
      {
        "supermarket_lat": 37.480948,
        "supermarket_lon": 126.9520838,
        "supermarket_type": "마트",
        "supermarket_name": "라붐아울렛",
        "distance": 717.5855034267545,
        "walking_time": "약 11분"
      },
      {
        "supermarket_lat": 37.48665276,
        "supermarket_lon": 126.9392236,
        "supermarket_type": "마트",
        "supermarket_name": "GS THE FRESH 관악은천점",
        "distance": 744.637752104667,
        "walking_time": "약 12분"
      },
      {
        "supermarket_lat": 37.48362314,
        "supermarket_lon": 126.9551835,
        "supermarket_type": "마트",
        "supermarket_name": "관악프라자",
        "distance": 1029.6076166428384,
        "walking_time": "약 16분"
      },
      {
        "supermarket_lat": 37.4755685,
        "supermarket_lon": 126.9328111,
        "supermarket_type": "마트",
        "supermarket_name": "신림현대종합상가",
        "distance": 1160.219098182066,
        "walking_time": "약 18분"
      },
      {
        "supermarket_lat": 37.48385134,
        "supermarket_lon": 126.9302345,
        "supermarket_type": "마트",
        "supermarket_name": "타임스트림",
        "distance": 1248.4442289866374,
        "walking_time": "약 19분"
      },
      {
        "supermarket_lat": 37.48476254,
        "supermarket_lon": 126.9300965,
        "supermarket_type": "마트",
        "supermarket_name": "르네상스쇼핑몰(주)",
        "distance": 1288.5372385320225,
        "walking_time": "약 20분"
      }
    ],
    "theater": [
      {
        "theater_lat": 37.4809479979455,
        "theater_lon": 126.952083773717,
        "theater_type": "영화관",
        "theater_name": "롯데시네마 서울대입구",
        "distance": 717.5831905777657,
        "walking_time": "약 11분"
      },
      {
        "theater_lat": 37.4838513393186,
        "theater_lon": 126.930234545397,
        "theater_type": "영화관",
        "theater_name": "롯데시네마 신림",
        "distance": 1248.440326257139,
        "walking_time": "약 19분"
      }
    ],
    "university": [
      {
        "university_lat": 37.4964019323152,
        "university_lon": 126.956588222367,
        "university_type": "대학교",
        "university_name": "숭실대학교",
        "distance": 2033.48073225114,
        "walking_time": "약 31분"
      }
    ]
  }
}