{
  "클러스터_위도": 37.50100899999999,
  "클러스터_경도": 126.951741,
  "클러스터_level": 3.0,
  "facilities": {
    "bus": [
      {
        "bus_lat": 37.50094074,
        "bus_lon": 126.953569,
        "bus_type": "버스정류장",
        "bus_name": "상도3차삼성래미안후문",
        "distance": 161.4368560224177,
        "walking_time": "약 3분"
      },
      {
        "bus_lat": 37.50105476,
        "bus_lon": 126.9538227,
        "bus_type": "버스정류장",
        "bus_name": "상도3차삼성래미안후문",
        "distance": 183.7089929498236,
        "walking_time": "약 3분"
      },
      {
        "bus_lat": 37.50124906,
        "bus_lon": 126.9495197,
        "bus_type": "버스정류장",
        "bus_name": "상도역",
        "distance": 197.76294495049075,
        "walking_time": "약 3분"
      },
      {
        "bus_lat": 37.499875,
        "bus_lon": 126.953868,
        "bus_type": "버스정류장",
        "bus_name": "래미안상도3차중문",
        "distance": 226.0692172172256,
        "walking_time": "약 4분"
      },
      {
        "bus_lat": 37.49950651,
        "bus_lon": 126.9535019,
        "bus_type": "버스정류장",
        "bus_name": "금양빌딩",
        "distance": 228.1289635446236,
        "walking_time": "약 4분"
      },
      {
        "bus_lat": 37.49881318,
        "bus_lon": 126.951185,
        "bus_type": "버스정류장",
        "bus_name": "상도동중앙하이츠빌.상도전통시장",
        "distance": 249.04186195354904,
        "walking_time": "약 4분"
      },
      {
        "bus_lat": 37.49868997,
        "bus_lon": 126.9517744,
        "bus_type": "버스정류장",
        "bus_name": "상도동중앙하이츠빌.상도전통시장",
        "distance": 257.8812037701792,
        "walking_time": "약 4분"
      },
      {
        "bus_lat": 37.50265464,
        "bus_lon": 126.9539709,
        "bus_type": "버스정류장",
        "bus_name": "상도SH빌아파트상도팰리스후문",
        "distance": 268.66147120112214,
        "walking_time": "약 5분"
      },
      {
        "bus_lat": 37.50162713,
        "bus_lon": 126.9486225,
        "bus_type": "버스정류장",
        "bus_name": "상도역",
        "distance": 283.5558449583268,
        "walking_time": "약 5분"
      },
      {
        "bus_lat": 37.49840616,
        "bus_lon": 126.9533572,
        "bus_type": "버스정류장",
        "bus_name": "상도1동주민센터.상도3차래미안",
        "distance": 322.6353149195885,
        "walking_time": "약 5분"
      }
    ],
    "community_center": [
      {
        "community_center_lat": 37.49810133,
        "community_center_lon": 126.9530811,
        "community_center_type": "주민센터",
        "community_center_name": "상도1동 자치회관",
        "distance": 344.2537233965225,
        "walking_time": "약 6분"
      },
      {
        "community_center_lat": 37.50546805,
        "community_center_lon": 126.9423012,
        "community_center_type": "주민센터",
        "community_center_name": "상도2동 자치회관",
        "distance": 969.150596683468,
        "walking_time": "약 15분"
      },
      {
        "community_center_lat": 37.49184717,
        "community_center_lon": 126.9586277,
        "community_center_type": "주민센터",
        "community_center_name": "청림동 자치회관",
        "distance": 1186.1573140764226,
        "walking_time": "약 18분"
      },
      {
        "community_center_lat": 37.505777,
        "community_center_lon": 126.9665927,
        "community_center_type": "주민센터",
        "community_center_name": "흑석동 자치회관",
        "distance": 1413.321848546106,
        "walking_time": "약 22분"
      },
      {
        "community_center_lat": 37.51230121,
        "community_center_lon": 126.9419936,
        "community_center_type": "주민센터",
        "community_center_name": "노량진1동 자치회관",
        "distance": 1521.8059897898502,
        "walking_time": "약 23분"
      }
    ],
    "convenience_store": [
      {
        "convenience_store_lat": 37.50043135,
        "convenience_store_lon": 126.9522316,
        "convenience_store_type": "편의점",
        "convenience_store_name": "세븐일레븐 상도한마을점",
        "distance": 77.45172812482541,
        "walking_time": "약 2분"
      },
      {
        "convenience_store_lat": 37.49973981,
        "convenience_store_lon": 126.9512941,
        "convenience_store_type": "편의점",
        "convenience_store_name": "GS25 상도장안점",
        "distance": 146.5305892991871,
        "walking_time": "약 3분"
      },
      {
        "convenience_store_lat": 37.5025033,
        "convenience_store_lon": 126.9511162,
        "convenience_store_type": "편의점",
        "convenience_store_name": "세븐일레븐 상도한사랑점",
        "distance": 175.06145530711655,
        "walking_time": "약 3분"
      },
      {
        "convenience_store_lat": 37.49980716,
        "convenience_store_lon": 126.9499021,
        "convenience_store_type": "편의점",
        "convenience_store_name": "세븐일레븐 상도하이츠점",
        "distance": 210.1783523310692,
        "walking_time": "약 4분"
      },
      {
        "convenience_store_lat": 37.50163381,
        "convenience_store_lon": 126.9493491,
        "convenience_store_type": "편의점",
        "convenience_store_name": "GS25 상도역점",
        "distance": 222.14589088622387,
        "walking_time": "약 4분"
      },
      {
        "convenience_store_lat": 37.50144811,
        "convenience_store_lon": 126.9487312,
        "convenience_store_type": "편의점",
        "convenience_store_name": "CU 상도대로점",
        "distance": 269.9629944871087,
        "walking_time": "약 5분"
      },
      {
        "convenience_store_lat": 37.50253458,
        "convenience_store_lon": 126.954541,
        "convenience_store_type": "편의점",
        "convenience_store_name": "세븐일레븐 상도주공점",
        "distance": 299.6436271701841,
        "walking_time": "약 5분"
      },
      {
        "convenience_store_lat": 37.50355103,
        "convenience_store_lon": 126.9501412,
        "convenience_store_type": "편의점",
        "convenience_store_name": "GS25 상도모아점",
        "distance": 315.9326276189699,
        "walking_time": "약 5분"
      },
      {
        "convenience_store_lat": 37.50261402,
        "convenience_store_lon": 126.9487402,
        "convenience_store_type": "편의점",
        "convenience_store_name": "GS25 상도소망점",
        "distance": 319.2576843328467,
        "walking_time": "약 5분"
      },
      {
        "convenience_store_lat": 37.50401557,
        "convenience_store_lon": 126.9516179,
        "convenience_store_type": "편의점",
        "convenience_store_name": "CU 동작상도원룸점",
        "distance": 334.4916456350914,
        "walking_time": "약 5분"
      }
    ],
    "daycare": [
      {
        "daycare_lat": 37.50133741,
        "daycare_lon": 126.9514894,
        "daycare_type": "어린이집",
        "daycare_name": "하늘빛어린이집",
        "distance": 42.733457383814034,
        "walking_time": "약 1분"
      },
      {
        "daycare_lat": 37.50074022,
        "daycare_lon": 126.9512071,
        "daycare_type": "어린이집",
        "daycare_name": "하나놀이방 어린이집",
        "distance": 55.780763175229424,
        "walking_time": "약 1분"
      },
      {
        "daycare_lat": 37.50197689,
        "daycare_lon": 126.9508505,
        "daycare_type": "어린이집",
        "daycare_name": "린아어린이집",
        "distance": 133.24412979408442,
        "walking_time": "약 2분"
      },
      {
        "daycare_lat": 37.49899198438039,
        "daycare_lon": 126.9527946,
        "daycare_type": "어린이집",
        "daycare_name": "가나어린이집",
        "distance": 242.77808655976256,
        "walking_time": "약 4분"
      },
      {
        "daycare_lat": 37.50247428,
        "daycare_lon": 126.9496356,
        "daycare_type": "어린이집",
        "daycare_name": "상도복지관어린이집",
        "distance": 247.06563575750505,
        "walking_time": "약 4분"
      },
      {
        "daycare_lat": 37.50303166,
        "daycare_lon": 126.9501006,
        "daycare_type": "어린이집",
        "daycare_name": "동작상도 방과후교실어린이집",
        "distance": 267.44050179942326,
        "walking_time": "약 4분"
      },
      {
        "daycare_lat": 37.4995101,
        "daycare_lon": 126.9547426,
        "daycare_type": "어린이집",
        "daycare_name": "삼성짐키드어린이집",
        "distance": 312.8787234683883,
        "walking_time": "약 5분"
      },
      {
        "daycare_lat": 37.50413341797949,
        "daycare_lon": 126.95116068716996,
        "daycare_type": "어린이집",
        "daycare_name": "엔젤스어린이집",
        "distance": 351.1706715870517,
        "walking_time": "약 6분"
      },
      {
        "daycare_lat": 37.50383968,
        "daycare_lon": 126.9496719,
        "daycare_type": "어린이집",
        "daycare_name": "초록햇살어린이집",
        "distance": 363.85023175261136,
        "walking_time": "약 6분"
      },
      {
        "daycare_lat": 37.49780738,
        "daycare_lon": 126.9527375,
        "daycare_type": "어린이집",
        "daycare_name": "해오름어린이집",
        "distance": 366.6970621695637,
        "walking_time": "약 6분"
      }
    ],
    "education": [
      {
        "education_lat": 37.49788488,
        "education_lon": 126.9474555,
        "education_type": "도서관",
        "education_name": "약수도서관",
        "distance": 513.4235226532422,
        "walking_time": "약 8분"
      },
      {
        "education_lat": 37.50547361,
        "education_lon": 126.9499672,
        "education_type": "도서관",
        "education_name": "김영삼도서관",
        "distance": 520.5172589478065,
        "walking_time": "약 8분"
      },
      {
        "education_lat": 37.49642897,
        "education_lon": 126.9551579,
        "education_type": "박물관/기념관",
        "education_name": "숭실대학교 한국기독교박물관",
        "distance": 591.797456648892,
        "walking_time": "약 9분"
      },
      {
        "education_lat": 37.50512021,
        "education_lon": 126.960611,
        "education_type": "도서관",
        "education_name": "까망돌도서관",
        "distance": 906.2077676843128,
        "walking_time": "약 14분"
      },
      {
        "education_lat": 37.50444553,
        "education_lon": 126.9410884,
        "education_type": "문화원",
        "education_name": "동작문화원 동작본원",
        "distance": 1014.4279901477782,
        "walking_time": "약 16분"
      },
      {
        "education_lat": 37.49925547,
        "education_lon": 126.9403722,
        "education_type": "공연장",
        "education_name": "상도어울마당 아트홀",
        "distance": 1021.696336885919,
        "walking_time": "약 16분"
      },
      {
        "education_lat": 37.49543351,
        "education_lon": 126.9405902,
        "education_type": "도서관",
        "education_name": "국사봉숲속작은도서관",
        "distance": 1162.7757819943045,
        "walking_time": "약 18분"
      },
      {
        "education_lat": 37.50596845,
        "education_lon": 126.9401029,
        "education_type": "도서관",
        "education_name": "서울특별시교육청 동작도서관",
        "distance": 1165.3673103630565,
        "walking_time": "약 18분"
      },
      {
        "education_lat": 37.50920443,
        "education_lon": 126.9434315,
        "education_type": "도서관",
        "education_name": "동작영어마루도서관",
        "distance": 1169.4961218919514,
        "walking_time": "약 18분"
      },
      {
        "education_lat": 37.51345799,
        "education_lon": 126.9494111,
        "education_type": "박물관/기념관",
        "education_name": "사육신역사관",
        "distance": 1399.4375107213416,
        "walking_time": "약 21분"
      }
    ],
    "fitness": [
      {
        "fitness_lat": 37.50033982,
        "fitness_lon": 126.950513,
        "fitness_type": "운동시설",
        "fitness_name": "더블유짐 상도점",
        "distance": 131.42300578994147,
        "walking_time": "약 2분"
      },
      {
        "fitness_lat": 37.50093239,
        "fitness_lon": 126.9502432,
        "fitness_type": "운동시설",
        "fitness_name": "LIKE PT STUDIO",
        "distance": 132.403826785946,
        "walking_time": "약 2분"
      },
      {
        "fitness_lat": 37.49951936,
        "fitness_lon": 126.9517961,
        "fitness_type": "운동시설",
        "fitness_name": "피지컬리지PT",
        "distance": 165.71171448040934,
        "walking_time": "약 3분"
      },
      {
        "fitness_lat": 37.49851669,
        "fitness_lon": 126.9512843,
        "fitness_type": "운동시설",
        "fitness_name": "101짐 PT 상도점",
        "distance": 280.04545460736387,
        "walking_time": "약 5분"
      },
      {
        "fitness_lat": 37.50238508,
        "fitness_lon": 126.9479362,
        "fitness_type": "운동시설",
        "fitness_name": "아워러스(OUROUS)",
        "distance": 368.8728223568,
        "walking_time": "약 6분"
      },
      {
        "fitness_lat": 37.50349967,
        "fitness_lon": 126.9488562,
        "fitness_type": "운동시설",
        "fitness_name": "위드미짐",
        "distance": 376.1136386799905,
        "walking_time": "약 6분"
      },
      {
        "fitness_lat": 37.50403979,
        "fitness_lon": 126.9487843,
        "fitness_type": "운동시설",
        "fitness_name": "더 본짐",
        "distance": 426.1488247541516,
        "walking_time": "약 7분"
      },
      {
        "fitness_lat": 37.49698948,
        "fitness_lon": 126.9526144,
        "fitness_type": "운동시설",
        "fitness_name": "커브스 상도클럽",
        "distance": 453.5428944253608,
        "walking_time": "약 7분"
      },
      {
        "fitness_lat": 37.49678355,
        "fitness_lon": 126.9524934,
        "fitness_type": "운동시설",
        "fitness_name": "트루머슬짐",
        "distance": 474.5138531331491,
        "walking_time": "약 8분"
      },
      {
        "fitness_lat": 37.49693976,
        "fitness_lon": 126.9535408,
        "fitness_type": "운동시설",
        "fitness_name": "H GYM FITNESS(에이치짐 휘트니스)",
        "distance": 479.52744608198304,
        "walking_time": "약 8분"
      }
    ],
    "gas_station": [
      {
        "gas_station_lat": 37.4983605,
        "gas_station_lon": 126.951389,
        "gas_station_type": "주유소",
        "gas_station_name": "살피재주유소",
        "distance": 296.1323459365037,
        "walking_time": "약 5분"
      },
      {
        "gas_station_lat": 37.49347189,
        "gas_station_lon": 126.9564351,
        "gas_station_type": "주유소",
        "gas_station_name": "현대오일뱅크㈜직영동작주유소",
        "distance": 934.8169015684056,
        "walking_time": "약 14분"
      },
      {
        "gas_station_lat": 37.49493633,
        "gas_station_lon": 126.9614459,
        "gas_station_type": "주유소",
        "gas_station_name": "㈜창원이엔지",
        "distance": 1090.399519961015,
        "walking_time": "약 17분"
      },
      {
        "gas_station_lat": 37.50810003,
        "gas_station_lon": 126.9652391,
        "gas_station_type": "주유소",
        "gas_station_name": "현대오일뱅크㈜흑석셀프주유소",
        "distance": 1428.0923125447234,
        "walking_time": "약 22분"
      }
    ],
    "hospital": [
      {
        "hospital_lat": 37.50023,
        "hospital_lon": 126.9507441,
        "hospital_type": "병원",
        "hospital_name": "연세의원",
        "distance": 123.43858202337525,
        "walking_time": "약 2분"
      },
      {
        "hospital_lat": 37.49981192,
        "hospital_lon": 126.9511503,
        "hospital_type": "병원",
        "hospital_name": "몸과맘엔한의원",
        "distance": 142.94564171959576,
        "walking_time": "약 3분"
      },
      {
        "hospital_lat": 37.50099787,
        "hospital_lon": 126.9499582,
        "hospital_type": "병원",
        "hospital_name": "상도밝은안과의원",
        "distance": 157.2757854300247,
        "walking_time": "약 3분"
      },
      {
        "hospital_lat": 37.50099787,
        "hospital_lon": 126.9499582,
        "hospital_type": "병원",
        "hospital_name": "연세어린이사랑치과의원",
        "distance": 157.2757854300247,
        "walking_time": "약 3분"
      },
      {
        "hospital_lat": 37.50110728,
        "hospital_lon": 126.9498116,
        "hospital_type": "병원",
        "hospital_name": "장대영정형외과의원",
        "distance": 170.5536839890879,
        "walking_time": "약 3분"
      },
      {
        "hospital_lat": 37.49946948,
        "hospital_lon": 126.9512344,
        "hospital_type": "병원",
        "hospital_name": "나은치과의원",
        "distance": 176.92418660177864,
        "walking_time": "약 3분"
      },
      {
        "hospital_lat": 37.50173307,
        "hospital_lon": 126.9499265,
        "hospital_type": "병원",
        "hospital_name": "신병철한의원",
        "distance": 179.17486993350064,
        "walking_time": "약 3분"
      },
      {
        "hospital_lat": 37.50122895,
        "hospital_lon": 126.9497006,
        "hospital_type": "병원",
        "hospital_name": "건강치과의원",
        "distance": 181.6490011527061,
        "walking_time": "약 3분"
      },
      {
        "hospital_lat": 37.50122895,
        "hospital_lon": 126.9497006,
        "hospital_type": "병원",
        "hospital_name": "정제경가정의원",
        "distance": 181.6490011527061,
        "walking_time": "약 3분"
      },
      {
        "hospital_lat": 37.49874471,
        "hospital_lon": 126.9521015,
        "hospital_type": "병원",
        "hospital_name": "김앤방여성의원",
        "distance": 253.778095899376,
        "walking_time": "약 4분"
      }
    ],
    "music_room": [
      {
        "music_room_lat": 37.49946948,
        "music_room_lon": 126.9512344,
        "music_room_type": "노래방",
        "music_room_name": "골든벨노래연습장",
        "distance": 176.92418660177864,
        "walking_time": "약 3분"
      },
      {
        "music_room_lat": 37.50171974,
        "music_room_lon": 126.9495162,
        "music_room_type": "노래방",
        "music_room_name": "보가코인 노래연습장",
        "distance": 211.5758632966533,
        "walking_time": "약 4분"
      },
      {
        "music_room_lat": 37.50163381,
        "music_room_lon": 126.9493491,
        "music_room_type": "노래방",
        "music_room_name": "나가수노래연습장",
        "distance": 222.14589088622387,
        "walking_time": "약 4분"
      },
      {
        "music_room_lat": 37.50318371,
        "music_room_lon": 126.9482871,
        "music_room_type": "노래방",
        "music_room_name": "로로코인노래연습장",
        "distance": 388.9826098318502,
        "walking_time": "약 6분"
      },
      {
        "music_room_lat": 37.50440505,
        "music_room_lon": 126.9504522,
        "music_room_type": "노래방",
        "music_room_name": "신바람노래연습장",
        "distance": 394.3664488132105,
        "walking_time": "약 6분"
      },
      {
        "music_room_lat": 37.50287836,
        "music_room_lon": 126.9474901,
        "music_room_type": "노래방",
        "music_room_name": "KBS노래연습장",
        "distance": 428.74894578008616,
        "walking_time": "약 7분"
      },
      {
        "music_room_lat": 37.50356558,
        "music_room_lon": 126.9471264,
        "music_room_type": "노래방",
        "music_room_name": "Zicoin노래연습장",
        "distance": 496.5107124718375,
        "walking_time": "약 8분"
      },
      {
        "music_room_lat": 37.4958908,
        "music_room_lon": 126.9533133,
        "music_room_type": "노래방",
        "music_room_name": "고고노래연습장",
        "distance": 585.7769030223815,
        "walking_time": "약 9분"
      },
      {
        "music_room_lat": 37.49571032,
        "music_room_lon": 126.9537496,
        "music_room_type": "노래방",
        "music_room_name": "SBS 노래연습장",
        "distance": 615.2552814679967,
        "walking_time": "약 10분"
      },
      {
        "music_room_lat": 37.49542761,
        "music_room_lon": 126.9535671,
        "music_room_type": "노래방",
        "music_room_name": "MBC 노래연습장",
        "distance": 641.1896086128254,
        "walking_time": "약 10분"
      }
    ],
    "park": [
      {
        "park_lat": 37.5137049,
        "park_lon": 126.948636,
        "park_type": "공원",
        "park_name": "사육신공원",
        "distance": 1438.0424794881103,
        "walking_time": "약 22분"
      }
    ],
    "park_station": [
      {
        "park_station_lat": 37.50106976,
        "park_station_lon": 126.9536962,
        "park_station_type": "주차장",
        "park_station_name": "공유) 상도동 134번지 일대",
        "distance": 172.61148970546233,
        "walking_time": "약 3분"
      },
      {
        "park_station_lat": 37.49727728,
        "park_station_lon": 126.9540285,
        "park_station_type": "주차장",
        "park_station_name": "살피재 공유주차장",
        "distance": 461.4159850185264,
        "walking_time": "약 7분"
      },
      {
        "park_station_lat": 37.49727728,
        "park_station_lon": 126.9540285,
        "park_station_type": "주차장",
        "park_station_name": "살피재 공유주차장",
        "distance": 461.4159850185264,
        "walking_time": "약 7분"
      },
      {
        "park_station_lat": 37.501405,
        "park_station_lon": 126.9410975,
        "park_station_type": "주차장",
        "park_station_name": "공유) 장승배기로A",
        "distance": 939.9529995956424,
        "walking_time": "약 15분"
      },
      {
        "park_station_lat": 37.50482472,
        "park_station_lon": 126.94137,
        "park_station_type": "주차장",
        "park_station_name": "공유) 상도2동 170-27",
        "distance": 1008.4603372334176,
        "walking_time": "약 16분"
      },
      {
        "park_station_lat": 37.50250138,
        "park_station_lon": 126.9402727,
        "park_station_type": "주차장",
        "park_station_name": "공유) 장승배기로C",
        "distance": 1025.1933776389535,
        "walking_time": "약 16분"
      },
      {
        "park_station_lat": 37.50642272,
        "park_station_lon": 126.9418691,
        "park_station_type": "주차장",
        "park_station_name": "공유) 동작도서관",
        "distance": 1058.6375603485433,
        "walking_time": "약 16분"
      },
      {
        "park_station_lat": 37.50856741,
        "park_station_lon": 126.9629645,
        "park_station_type": "주차장",
        "park_station_name": "흑석빗물펌프장공영주차장",
        "distance": 1298.670069253807,
        "walking_time": "약 20분"
      },
      {
        "park_station_lat": 37.51993817,
        "park_station_lon": 126.9692464,
        "park_station_type": "주차장",
        "park_station_name": "이촌로54길",
        "distance": 2610.4415305223465,
        "walking_time": "약 39분"
      }
    ],
    "pc_room": [
      {
        "pc_room_lat": 37.5001498564897,
        "pc_room_lon": 126.950642842417,
        "pc_room_type": "PC방",
        "pc_room_name": "DT PC방",
        "distance": 136.05608086286213,
        "walking_time": "약 3분"
      },
      {
        "pc_room_lat": 37.4995313792265,
        "pc_room_lon": 126.951448103234,
        "pc_room_type": "PC방",
        "pc_room_name": "이스포츠센터-중앙대점",
        "distance": 166.32318676452158,
        "walking_time": "약 3분"
      },
      {
        "pc_room_lat": 37.4989009766383,
        "pc_room_lon": 126.951965775693,
        "pc_room_type": "PC방",
        "pc_room_name": "원픽PC방",
        "distance": 235.2387184214564,
        "walking_time": "약 4분"
      },
      {
        "pc_room_lat": 37.4983346547989,
        "pc_room_lon": 126.952761819279,
        "pc_room_type": "PC방",
        "pc_room_name": "본PC방(숭실대점)",
        "distance": 310.71010466295365,
        "walking_time": "약 5분"
      },
      {
        "pc_room_lat": 37.5042628196748,
        "pc_room_lon": 126.950123964573,
        "pc_room_type": "PC방",
        "pc_room_name": "e-sports center 상도동점",
        "distance": 388.9122405202801,
        "walking_time": "약 6분"
      },
      {
        "pc_room_lat": 37.4962031524693,
        "pc_room_lon": 126.95300945859,
        "pc_room_type": "PC방",
        "pc_room_name": "매직월드 PC방",
        "distance": 545.976376660173,
        "walking_time": "약 9분"
      },
      {
        "pc_room_lat": 37.5055716741287,
        "pc_room_lon": 126.947140586127,
        "pc_room_type": "PC방",
        "pc_room_name": "하이넷 PC방",
        "distance": 649.6822145693092,
        "walking_time": "약 10분"
      },
      {
        "pc_room_lat": 37.5042108879341,
        "pc_room_lon": 126.945558089006,
        "pc_room_type": "PC방",
        "pc_room_name": "오투 PC존",
        "distance": 651.3376627481936,
        "walking_time": "약 10분"
      },
      {
        "pc_room_lat": 37.4953876873201,
        "pc_room_lon": 126.9540168575,
        "pc_room_type": "PC방",
        "pc_room_name": "인터파크 수 PC방",
        "distance": 656.5150119713014,
        "walking_time": "약 10분"
      },
      {
        "pc_room_lat": 37.4954053993678,
        "pc_room_lon": 126.95485331925,
        "pc_room_type": "PC방",
        "pc_room_name": "하늘다리PC",
        "distance": 680.9037264495965,
        "walking_time": "약 11분"
      }
    ],
    "police_office": [
      {
        "police_office_lat": 37.5093774,
        "police_office_lon": 126.9601456,
        "police_office_type": "경찰소",
        "police_office_name": "흑석지구대",
        "distance": 1189.7531036873047,
        "walking_time": "약 18분"
      }
    ],
    "post_office": [
      {
        "post_office_lat": 37.50472672,
        "post_office_lon": 126.9538339,
        "post_office_type": "우체국",
        "post_office_name": "중앙대학교우편취급국",
        "distance": 452.7448462078317,
        "walking_time": "약 7분"
      },
      {
        "post_office_lat": 37.49642897,
        "post_office_lon": 126.9551579,
        "post_office_type": "우체국",
        "post_office_name": "숭실대학교우편취급국",
        "distance": 591.797456648892,
        "walking_time": "약 9분"
      },
      {
        "post_office_lat": 37.49941236,
        "post_office_lon": 126.9437362,
        "post_office_type": "우체국",
        "post_office_name": "서울동작약수우편취급국",
        "distance": 728.1323159929103,
        "walking_time": "약 11분"
      },
      {
        "post_office_lat": 37.50500444,
        "post_office_lon": 126.9448543,
        "post_office_type": "우체국",
        "post_office_name": "서울상도동우체국",
        "distance": 752.6172863039855,
        "walking_time": "약 12분"
      },
      {
        "post_office_lat": 37.50838441,
        "post_office_lon": 126.9623867,
        "post_office_type": "우체국",
        "post_office_name": "서울흑석동우체국",
        "distance": 1246.7686917061517,
        "walking_time": "약 19분"
      },
      {
        "post_office_lat": 37.51246533,
        "post_office_lon": 126.9506359,
        "post_office_type": "우체국",
        "post_office_name": "서울노량진우체국",
        "distance": 1277.6099755445844,
        "walking_time": "약 20분"
      },
      {
        "post_office_lat": 37.50964891,
        "post_office_lon": 126.9403493,
        "post_office_type": "우체국",
        "post_office_name": "서울노량진1동우편취급국",
        "distance": 1390.2273540950123,
        "walking_time": "약 21분"
      }
    ],
    "public_health_center": [
      {
        "public_health_center_lat": 37.50444553,
        "public_health_center_lon": 126.9410884,
        "public_health_center_type": "보건소",
        "public_health_center_name": "동작문화복지센타",
        "distance": 1014.4279901477782,
        "walking_time": "약 16분"
      }
    ],
    "school": [
      {
        "school_lat": 37.5062047182589,
        "school_lon": 126.953567101813,
        "school_type": "초등학교",
        "school_name": "서울강남초등학교",
        "distance": 599.7741843303428,
        "walking_time": "약 9분"
      },
      {
        "school_lat": 37.4948743920855,
        "school_lon": 126.952669123087,
        "school_type": "초등학교",
        "school_name": "서울상현초등학교",
        "distance": 687.0337195194757,
        "walking_time": "약 11분"
      },
      {
        "school_lat": 37.5008246344742,
        "school_lon": 126.943817704578,
        "school_type": "초등학교",
        "school_name": "서울신상도초등학교",
        "distance": 699.2602875152394,
        "walking_time": "약 11분"
      },
      {
        "school_lat": 37.5033929766399,
        "school_lon": 126.959778422441,
        "school_type": "초등학교",
        "school_name": "서울은로초등학교",
        "distance": 756.9500449822646,
        "walking_time": "약 12분"
      },
      {
        "school_lat": 37.5052685494717,
        "school_lon": 126.960162287237,
        "school_type": "초등학교",
        "school_name": "중앙대학교사범대학부속초등학교",
        "distance": 881.0156061621827,
        "walking_time": "약 14분"
      },
      {
        "school_lat": 37.503629418993,
        "school_lon": 126.961732578732,
        "school_type": "중학교",
        "school_name": "중앙대학교사범대학부속중학교",
        "distance": 928.3123661797258,
        "walking_time": "약 14분"
      },
      {
        "school_lat": 37.4927662360841,
        "school_lon": 126.949035651603,
        "school_type": "중학교",
        "school_name": "구암중학교",
        "distance": 947.1179726015724,
        "walking_time": "약 15분"
      },
      {
        "school_lat": 37.4925540129161,
        "school_lon": 126.950219161074,
        "school_type": "고등학교",
        "school_name": "구암고등학교",
        "distance": 949.6895681373202,
        "walking_time": "약 15분"
      },
      {
        "school_lat": 37.5031485833795,
        "school_lon": 126.940834004372,
        "school_type": "중학교",
        "school_name": "장승중학교",
        "distance": 991.1317971792968,
        "walking_time": "약 15분"
      },
      {
        "school_lat": 37.493532631943,
        "school_lon": 126.944055659373,
        "school_type": "중학교",
        "school_name": "국사봉중학교",
        "distance": 1072.7546358824402,
        "walking_time": "약 17분"
      }
    ],
    "subway": [
      {
        "subway_lat": 37.5032080456431,
        "subway_lon": 126.947700373641,
        "subway_type": "지하철",
        "subway_name": "7호선-상도역",
        "distance": 432.2519889205156,
        "walking_time": "약 7분"
      },
      {
        "subway_lat": 37.4958143308836,
        "subway_lon": 126.954060246067,
        "subway_type": "지하철",
        "subway_name": "7호선-숭실대입구(살피재)역",
        "distance": 612.7865907680839,
        "walking_time": "약 10분"
      }
    ],
    "supermarket": [
      {
        "supermarket_lat": 37.49678998,
        "supermarket_lon": 126.9516675,
        "supermarket_type": "마트",
        "supermarket_name": "(주)지에스리테일 상도 엠코타운점",
        "distance": 469.1784261601676,
        "walking_time": "약 8분"
      },
      {
        "supermarket_lat": 37.50762648,
        "supermarket_lon": 126.9495479,
        "supermarket_type": "마트",
        "supermarket_name": "홈플러스 익스프레스 상도2점",
        "distance": 760.836240294175,
        "walking_time": "약 12분"
      },
      {
        "supermarket_lat": 37.49700194,
        "supermarket_lon": 126.9436426,
        "supermarket_type": "마트",
        "supermarket_name": "홈플러스 익스프레스 상도3점",
        "distance": 841.9804040505838,
        "walking_time": "약 13분"
      },
      {
        "supermarket_lat": 37.50623587,
        "supermarket_lon": 126.9445418,
        "supermarket_type": "마트",
        "supermarket_name": "(주)이마트에브리데이 상도동점",
        "distance": 860.8695421909233,
        "walking_time": "약 13분"
      },
      {
        "supermarket_lat": 37.50431826,
        "supermarket_lon": 126.942467,
        "supermarket_type": "마트",
        "supermarket_name": "GS THE FRESH 동작구청점",
        "distance": 897.0406457679951,
        "walking_time": "약 14분"
      },
      {
        "supermarket_lat": 37.50662658,
        "supermarket_lon": 126.9621838,
        "supermarket_type": "마트",
        "supermarket_name": "해가든프라자",
        "distance": 1112.997331284183,
        "walking_time": "약 17분"
      },
      {
        "supermarket_lat": 37.49205505,
        "supermarket_lon": 126.9589248,
        "supermarket_type": "마트",
        "supermarket_name": "관악현대상가",
        "distance": 1180.229068173871,
        "walking_time": "약 18분"
      }
    ],
    "university": [
      {
        "university_lat": 37.5047267237807,
        "university_lon": 126.953833907628,
        "university_type": "대학교",
        "university_name": "중앙대학교 서울캠퍼스",
        "distance": 452.7455044536253,
        "walking_time": "약 7분"
      },
      {
        "university_lat": 37.4964019323152,
        "university_lon": 126.956588222367,
        "university_type": "대학교",
        "university_name": "숭실대학교",
        "distance": 667.2985106845498,
        "walking_time": "약 10분"
      },
      {
        "university_lat": 37.4908791135567,
        "university_lon": 126.967182104111,
        "university_type": "대학교",
        "university_name": "총신대학교",
        "distance": 1767.6131272771154,
        "walking_time": "약 27분"
      }
    ]
  }
}