{
  "클러스터_위도": 37.51249199999997,
  "클러스터_경도": 126.944764,
  "클러스터_level": 3.0,
  "facilities": {
    "bus": [
      {
        "bus_lat": 37.5123537,
        "bus_lon": 126.9443313,
        "bus_type": "버스정류장",
        "bus_name": "노량진한국법학교육원",
        "distance": 41.14686700073631,
        "walking_time": "약 1분"
      },
      {
        "bus_lat": 37.51215539,
        "bus_lon": 126.9441708,
        "bus_type": "버스정류장",
        "bus_name": "노량진신한은행",
        "distance": 64.33121244943653,
        "walking_time": "약 1분"
      },
      {
        "bus_lat": 37.51383259,
        "bus_lon": 126.9447115,
        "bus_type": "버스정류장",
        "bus_name": "노량진역",
        "distance": 149.13871071131732,
        "walking_time": "약 3분"
      },
      {
        "bus_lat": 37.513733,
        "bus_lon": 126.943811,
        "bus_type": "버스정류장",
        "bus_name": "노량진역",
        "distance": 161.57796022856343,
        "walking_time": "약 3분"
      },
      {
        "bus_lat": 37.51336661,
        "bus_lon": 126.9463011,
        "bus_type": "버스정류장",
        "bus_name": "사육신공원",
        "distance": 166.84866956564997,
        "walking_time": "약 3분"
      },
      {
        "bus_lat": 37.51350389,
        "bus_lon": 126.9432479,
        "bus_type": "버스정류장",
        "bus_name": "노량진역",
        "distance": 174.76194724535284,
        "walking_time": "약 3분"
      },
      {
        "bus_lat": 37.51390589,
        "bus_lon": 126.9434702,
        "bus_type": "버스정류장",
        "bus_name": "노량진역2번출구",
        "distance": 194.26656342122573,
        "walking_time": "약 3분"
      },
      {
        "bus_lat": 37.51027785,
        "bus_lon": 126.944929,
        "bus_type": "버스정류장",
        "bus_name": "강남교회.오거리",
        "distance": 246.6320184984144,
        "walking_time": "약 4분"
      },
      {
        "bus_lat": 37.51024624,
        "bus_lon": 126.9447876,
        "bus_type": "버스정류장",
        "bus_name": "강남교회.오거리",
        "distance": 249.7257942504509,
        "walking_time": "약 4분"
      },
      {
        "bus_lat": 37.51349516,
        "bus_lon": 126.9418756,
        "bus_type": "버스정류장",
        "bus_name": "노량진역3번출구",
        "distance": 278.11125906180126,
        "walking_time": "약 5분"
      }
    ],
    "community_center": [
      {
        "community_center_lat": 37.51230121,
        "community_center_lon": 126.9419936,
        "community_center_type": "주민센터",
        "community_center_name": "노량진1동 자치회관",
        "distance": 245.27463302010736,
        "walking_time": "약 4분"
      },
      {
        "community_center_lat": 37.50851669,
        "community_center_lon": 126.9373567,
        "community_center_type": "주민센터",
        "community_center_name": "노량진2동 자치회관",
        "distance": 788.8406106810943,
        "walking_time": "약 12분"
      },
      {
        "community_center_lat": 37.50546805,
        "community_center_lon": 126.9423012,
        "community_center_type": "주민센터",
        "community_center_name": "상도2동 자치회관",
        "distance": 810.6755763115833,
        "walking_time": "약 13분"
      },
      {
        "community_center_lat": 37.51769391,
        "community_center_lon": 126.934614,
        "community_center_type": "주민센터",
        "community_center_name": "여의동 자치회관",
        "distance": 1065.8310368481475,
        "walking_time": "약 16분"
      },
      {
        "community_center_lat": 37.50059942,
        "community_center_lon": 126.9377767,
        "community_center_type": "주민센터",
        "community_center_name": "상도4동 자치회관",
        "distance": 1458.9746030449742,
        "walking_time": "약 22분"
      },
      {
        "community_center_lat": 37.52628266,
        "community_center_lon": 126.9546591,
        "community_center_type": "주민센터",
        "community_center_name": "이촌2동 자치회관",
        "distance": 1764.3859124629917,
        "walking_time": "약 27분"
      }
    ],
    "convenience_store": [
      {
        "convenience_store_lat": 37.51285494,
        "convenience_store_lon": 126.9440071,
        "convenience_store_type": "편의점",
        "convenience_store_name": "CU 노량진장미점",
        "distance": 78.01021470990415,
        "walking_time": "약 2분"
      },
      {
        "convenience_store_lat": 37.51311264,
        "convenience_store_lon": 126.9455694,
        "convenience_store_type": "편의점",
        "convenience_store_name": "미니스톱 노량진학원점",
        "distance": 99.04045076821149,
        "walking_time": "약 2분"
      },
      {
        "convenience_store_lat": 37.51281758,
        "convenience_store_lon": 126.9431323,
        "convenience_store_type": "편의점",
        "convenience_store_name": "GS25 노량아카데미점",
        "distance": 148.40263617015668,
        "walking_time": "약 3분"
      },
      {
        "convenience_store_lat": 37.51316035,
        "convenience_store_lon": 126.9462634,
        "convenience_store_type": "편의점",
        "convenience_store_name": "GS25 노량그린점",
        "distance": 151.7003771208023,
        "walking_time": "약 3분"
      },
      {
        "convenience_store_lat": 37.51331258,
        "convenience_store_lon": 126.9461859,
        "convenience_store_type": "편의점",
        "convenience_store_name": "CU 노량진미도점",
        "distance": 155.09407089070686,
        "walking_time": "약 3분"
      },
      {
        "convenience_store_lat": 37.51402685,
        "convenience_store_lon": 126.9439418,
        "convenience_store_type": "편의점",
        "convenience_store_name": "GS25 노량남부점",
        "distance": 185.4357462248605,
        "walking_time": "약 3분"
      },
      {
        "convenience_store_lat": 37.51037004,
        "convenience_store_lon": 126.945493,
        "convenience_store_type": "편의점",
        "convenience_store_name": "CU 노량진삼익점",
        "distance": 244.55568789286409,
        "walking_time": "약 4분"
      },
      {
        "convenience_store_lat": 37.51326555,
        "convenience_store_lon": 126.9421684,
        "convenience_store_type": "편의점",
        "convenience_store_name": "세븐일레븐 노량진역점",
        "distance": 244.5615167011464,
        "walking_time": "약 4분"
      },
      {
        "convenience_store_lat": 37.51275688,
        "convenience_store_lon": 126.9417006,
        "convenience_store_type": "편의점",
        "convenience_store_name": "GS25 노량메가점",
        "distance": 271.7984118640867,
        "walking_time": "약 5분"
      },
      {
        "convenience_store_lat": 37.51000082,
        "convenience_store_lon": 126.9449513,
        "convenience_store_type": "편의점",
        "convenience_store_name": "GS25 노량스터디점",
        "distance": 277.4987780403874,
        "walking_time": "약 5분"
      }
    ],
    "daycare": [
      {
        "daycare_lat": 37.51168903208115,
        "daycare_lon": 126.94266876250468,
        "daycare_type": "어린이집",
        "daycare_name": "구립노량진어린이집",
        "distance": 205.2437603154122,
        "walking_time": "약 4분"
      },
      {
        "daycare_lat": 37.51031507,
        "daycare_lon": 126.945076,
        "daycare_type": "어린이집",
        "daycare_name": "강남방과후교실어린이집",
        "distance": 243.62285055517768,
        "walking_time": "약 4분"
      },
      {
        "daycare_lat": 37.510311000471255,
        "daycare_lon": 126.9437188668727,
        "daycare_type": "어린이집",
        "daycare_name": "성모어린이집",
        "distance": 259.44555031514403,
        "walking_time": "약 4분"
      },
      {
        "daycare_lat": 37.51023255,
        "daycare_lon": 126.945506,
        "daycare_type": "어린이집",
        "daycare_name": "구립강남어린이집",
        "distance": 259.62382063054696,
        "walking_time": "약 4분"
      },
      {
        "daycare_lat": 37.50976719707572,
        "daycare_lon": 126.94323714195724,
        "daycare_type": "어린이집",
        "daycare_name": "해피아이어린이집",
        "distance": 331.5670336730682,
        "walking_time": "약 5분"
      },
      {
        "daycare_lat": 37.50994592961912,
        "daycare_lon": 126.94774305438888,
        "daycare_type": "어린이집",
        "daycare_name": "튼튼맘스키즈어린이집",
        "distance": 386.2588682420436,
        "walking_time": "약 6분"
      },
      {
        "daycare_lat": 37.50991203321506,
        "daycare_lon": 126.9480398,
        "daycare_type": "어린이집",
        "daycare_name": "구립해와별어린이집",
        "distance": 407.16647291124434,
        "walking_time": "약 7분"
      },
      {
        "daycare_lat": 37.50956316,
        "daycare_lon": 126.9477549,
        "daycare_type": "어린이집",
        "daycare_name": "해와별어린이집",
        "distance": 419.11509193724527,
        "walking_time": "약 7분"
      },
      {
        "daycare_lat": 37.508639928103946,
        "daycare_lon": 126.94483953878309,
        "daycare_type": "어린이집",
        "daycare_name": "해나라어린이집",
        "distance": 428.3826703882317,
        "walking_time": "약 7분"
      },
      {
        "daycare_lat": 37.51234662,
        "daycare_lon": 126.9394088,
        "daycare_type": "어린이집",
        "daycare_name": "동작구청어린이집",
        "distance": 472.6169233279842,
        "walking_time": "약 8분"
      }
    ],
    "education": [
      {
        "education_lat": 37.50920443,
        "education_lon": 126.9434315,
        "education_type": "도서관",
        "education_name": "동작영어마루도서관",
        "distance": 383.990452622704,
        "walking_time": "약 6분"
      },
      {
        "education_lat": 37.51345799,
        "education_lon": 126.9494111,
        "education_type": "박물관/기념관",
        "education_name": "사육신역사관",
        "distance": 423.7219807330383,
        "walking_time": "약 7분"
      },
      {
        "education_lat": 37.51294863,
        "education_lon": 126.9370008,
        "education_type": "공연장",
        "education_name": "CTS 아트홀",
        "distance": 686.6084798475628,
        "walking_time": "약 11분"
      },
      {
        "education_lat": 37.50596845,
        "education_lon": 126.9401029,
        "education_type": "도서관",
        "education_name": "서울특별시교육청 동작도서관",
        "distance": 833.7972359445298,
        "walking_time": "약 13분"
      },
      {
        "education_lat": 37.50547361,
        "education_lon": 126.9499672,
        "education_type": "도서관",
        "education_name": "김영삼도서관",
        "distance": 905.3608426416688,
        "walking_time": "약 14분"
      },
      {
        "education_lat": 37.50444553,
        "education_lon": 126.9410884,
        "education_type": "문화원",
        "education_name": "동작문화원 동작본원",
        "distance": 951.6564083358226,
        "walking_time": "약 15분"
      },
      {
        "education_lat": 37.51976516,
        "education_lon": 126.9302412,
        "education_type": "박물관/기념관",
        "education_name": "한국잡지박물관",
        "distance": 1514.8297859699,
        "walking_time": "약 23분"
      }
    ],
    "electric_gas_station": [
      {
        "electric_gas_station_lat": 37.51394028,
        "electric_gas_station_lon": 126.9343584,
        "electric_gas_station_type": "전기차 충전소",
        "electric_gas_station_name": "현대차 남부서비스센터",
        "distance": 931.8085499158,
        "walking_time": "약 14분"
      }
    ],
    "fitness": [
      {
        "fitness_lat": 37.51231087,
        "fitness_lon": 126.944863,
        "fitness_type": "운동시설",
        "fitness_name": "주-한국스포츠개발짐리턴",
        "distance": 21.95216268522013,
        "walking_time": "약 1분"
      },
      {
        "fitness_lat": 37.51204931,
        "fitness_lon": 126.9452604,
        "fitness_type": "운동시설",
        "fitness_name": "아이언짐2관",
        "distance": 65.87941620456701,
        "walking_time": "약 1분"
      },
      {
        "fitness_lat": 37.51318717,
        "fitness_lon": 126.9452138,
        "fitness_type": "운동시설",
        "fitness_name": "투혼짐",
        "distance": 86.88584669455363,
        "walking_time": "약 2분"
      },
      {
        "fitness_lat": 37.51136715,
        "fitness_lon": 126.9452257,
        "fitness_type": "운동시설",
        "fitness_name": "슈트짐(SUIT GYM)",
        "distance": 131.5400696041992,
        "walking_time": "약 2분"
      },
      {
        "fitness_lat": 37.51326555,
        "fitness_lon": 126.9421684,
        "fitness_type": "운동시설",
        "fitness_name": "J.J GYM",
        "distance": 244.5615167011464,
        "walking_time": "약 4분"
      },
      {
        "fitness_lat": 37.51031071,
        "fitness_lon": 126.9458008,
        "fitness_type": "운동시설",
        "fitness_name": "코드짐",
        "distance": 259.2155245031069,
        "walking_time": "약 4분"
      },
      {
        "fitness_lat": 37.51275688,
        "fitness_lon": 126.9417006,
        "fitness_type": "운동시설",
        "fitness_name": "엑스 콩고",
        "distance": 271.7984118640867,
        "walking_time": "약 5분"
      },
      {
        "fitness_lat": 37.51221856,
        "fitness_lon": 126.9413999,
        "fitness_type": "운동시설",
        "fitness_name": "원투원휘트니스",
        "distance": 298.2749932548409,
        "walking_time": "약 5분"
      },
      {
        "fitness_lat": 37.51249946,
        "fitness_lon": 126.9413274,
        "fitness_type": "운동시설",
        "fitness_name": "피니쉬짐",
        "distance": 303.1164770262202,
        "walking_time": "약 5분"
      },
      {
        "fitness_lat": 37.51336537,
        "fitness_lon": 126.9408802,
        "fitness_type": "운동시설",
        "fitness_name": "올데이스포츠",
        "distance": 356.05718261712286,
        "walking_time": "약 6분"
      }
    ],
    "gas_station": [
      {
        "gas_station_lat": 37.50286297,
        "gas_station_lon": 126.9351815,
        "gas_station_type": "주유소",
        "gas_station_name": "매일주유소",
        "distance": 1364.12849106945,
        "walking_time": "약 21분"
      }
    ],
    "hospital": [
      {
        "hospital_lat": 37.51207091,
        "hospital_lon": 126.9444425,
        "hospital_type": "병원",
        "hospital_name": "척척박사한의원",
        "distance": 54.74050350230804,
        "walking_time": "약 1분"
      },
      {
        "hospital_lat": 37.51192169,
        "hospital_lon": 126.9440252,
        "hospital_type": "병원",
        "hospital_name": "연세드림치과의원",
        "distance": 90.92787207557431,
        "walking_time": "약 2분"
      },
      {
        "hospital_lat": 37.51340714,
        "hospital_lon": 126.9439576,
        "hospital_type": "병원",
        "hospital_name": "곽피부과의원",
        "distance": 124.15212462030796,
        "walking_time": "약 2분"
      },
      {
        "hospital_lat": 37.51303276,
        "hospital_lon": 126.9460558,
        "hospital_type": "병원",
        "hospital_name": "김정훈한의원",
        "distance": 128.83206200022266,
        "walking_time": "약 2분"
      },
      {
        "hospital_lat": 37.51139904,
        "hospital_lon": 126.9442532,
        "hospital_type": "병원",
        "hospital_name": "황산치과의원",
        "distance": 129.61400896264576,
        "walking_time": "약 2분"
      },
      {
        "hospital_lat": 37.51136715,
        "hospital_lon": 126.9452257,
        "hospital_type": "병원",
        "hospital_name": "김영내과의원",
        "distance": 131.5400696041992,
        "walking_time": "약 2분"
      },
      {
        "hospital_lat": 37.51136715,
        "hospital_lon": 126.9452257,
        "hospital_type": "병원",
        "hospital_name": "노량진튼튼의원",
        "distance": 131.5400696041992,
        "walking_time": "약 2분"
      },
      {
        "hospital_lat": 37.51136715,
        "hospital_lon": 126.9452257,
        "hospital_type": "병원",
        "hospital_name": "한사랑치과의원",
        "distance": 131.5400696041992,
        "walking_time": "약 2분"
      },
      {
        "hospital_lat": 37.51281883,
        "hospital_lon": 126.9432788,
        "hospital_type": "병원",
        "hospital_name": "제일한의원",
        "distance": 135.94509617648015,
        "walking_time": "약 3분"
      },
      {
        "hospital_lat": 37.51132436,
        "hospital_lon": 126.9442935,
        "hospital_type": "병원",
        "hospital_name": "광보의원",
        "distance": 136.3066248293242,
        "walking_time": "약 3분"
      }
    ],
    "music_room": [
      {
        "music_room_lat": 37.51257426,
        "music_room_lon": 126.9451207,
        "music_room_type": "노래방",
        "music_room_name": "리코퀸 코인노래연습장",
        "distance": 32.76434957297542,
        "walking_time": "약 1분"
      },
      {
        "music_room_lat": 37.51238571,
        "music_room_lon": 126.9444018,
        "music_room_type": "노래방",
        "music_room_name": "OK",
        "distance": 34.06297497384307,
        "walking_time": "약 1분"
      },
      {
        "music_room_lat": 37.51280156,
        "music_room_lon": 126.9444896,
        "music_room_type": "노래방",
        "music_room_name": "짱노래연습장",
        "distance": 42.0785691669353,
        "walking_time": "약 1분"
      },
      {
        "music_room_lat": 37.51306805,
        "music_room_lon": 126.9444335,
        "music_room_type": "노래방",
        "music_room_name": "RICOSTAR코인노래연습장 노량진점",
        "distance": 70.37511241100162,
        "walking_time": "약 2분"
      },
      {
        "music_room_lat": 37.51319131,
        "music_room_lon": 126.9444378,
        "music_room_type": "노래방",
        "music_room_name": "노래야노래야 코인노래연습장(노량진점)",
        "distance": 82.91180680221629,
        "walking_time": "약 2분"
      },
      {
        "music_room_lat": 37.51321224,
        "music_room_lon": 126.9450625,
        "music_room_type": "노래방",
        "music_room_name": "동네스타 코인노래연습장",
        "distance": 84.30366070532193,
        "walking_time": "약 2분"
      },
      {
        "music_room_lat": 37.51151782,
        "music_room_lon": 126.944501,
        "music_room_type": "노래방",
        "music_room_name": "샤우팅노래연습장",
        "distance": 110.7798563361047,
        "walking_time": "약 2분"
      },
      {
        "music_room_lat": 37.51296856,
        "music_room_lon": 126.9436197,
        "music_room_type": "노래방",
        "music_room_name": "에너지코인노래연습장",
        "distance": 113.99467105412398,
        "walking_time": "약 2분"
      },
      {
        "music_room_lat": 37.51282433,
        "music_room_lon": 126.9434859,
        "music_room_type": "노래방",
        "music_room_name": "SBS노래연습장",
        "distance": 118.63305372152983,
        "walking_time": "약 2분"
      },
      {
        "music_room_lat": 37.51149352,
        "music_room_lon": 126.9441948,
        "music_room_type": "노래방",
        "music_room_name": "팍스코인노래연습장",
        "distance": 121.84946546419432,
        "walking_time": "약 2분"
      }
    ],
    "park": [
      {
        "park_lat": 37.5137049,
        "park_lon": 126.948636,
        "park_type": "공원",
        "park_name": "사육신공원",
        "distance": 367.1818252751014,
        "walking_time": "약 6분"
      },
      {
        "park_lat": 37.5177329,
        "park_lon": 126.9302895,
        "park_type": "공원",
        "park_name": "자매근린공원",
        "distance": 1403.3573480505088,
        "walking_time": "약 21분"
      }
    ],
    "park_station": [
      {
        "park_station_lat": 37.51226793,
        "park_station_lon": 126.9394288,
        "park_station_type": "주차장",
        "park_station_name": "공유) 노량진2동 나블럭",
        "distance": 471.2357146883073,
        "walking_time": "약 8분"
      },
      {
        "park_station_lat": 37.50642272,
        "park_station_lon": 126.9418691,
        "park_station_type": "주차장",
        "park_station_name": "공유) 동작도서관",
        "distance": 721.5647417325912,
        "walking_time": "약 11분"
      },
      {
        "park_station_lat": 37.50482472,
        "park_station_lon": 126.94137,
        "park_station_type": "주차장",
        "park_station_name": "공유) 상도2동 170-27",
        "distance": 903.5969436419574,
        "walking_time": "약 14분"
      },
      {
        "park_station_lat": 37.51678872,
        "park_station_lon": 126.9360071,
        "park_station_type": "주차장",
        "park_station_name": "여의도5주차장",
        "distance": 908.1846736830096,
        "walking_time": "약 14분"
      },
      {
        "park_station_lat": 37.51155599,
        "park_station_lon": 126.9320263,
        "park_station_type": "주차장",
        "park_station_name": "공유) 등용로",
        "distance": 1128.3096105677876,
        "walking_time": "약 17분"
      },
      {
        "park_station_lat": 37.50302525,
        "park_station_lon": 126.9397837,
        "park_station_type": "주차장",
        "park_station_name": "공유) 장승배기로D",
        "distance": 1140.643171063292,
        "walking_time": "약 18분"
      },
      {
        "park_station_lat": 37.50531623,
        "park_station_lon": 126.9351787,
        "park_station_type": "주차장",
        "park_station_name": "공유) 상도래미안",
        "distance": 1162.5415246467971,
        "walking_time": "약 18분"
      },
      {
        "park_station_lat": 37.50250138,
        "park_station_lon": 126.9402727,
        "park_station_type": "주차장",
        "park_station_name": "공유) 장승배기로C",
        "distance": 1179.433040325565,
        "walking_time": "약 18분"
      },
      {
        "park_station_lat": 37.5224768,
        "park_station_lon": 126.9397007,
        "park_station_type": "주차장",
        "park_station_name": "여의도1주차장",
        "distance": 1196.7015276370892,
        "walking_time": "약 18분"
      },
      {
        "park_station_lat": 37.501405,
        "park_station_lon": 126.9410975,
        "park_station_type": "주차장",
        "park_station_name": "공유) 장승배기로A",
        "distance": 1274.534886038668,
        "walking_time": "약 20분"
      }
    ],
    "pc_room": [
      {
        "pc_room_lat": 37.5123857060582,
        "pc_room_lon": 126.944401840416,
        "pc_room_type": "PC방",
        "pc_room_name": "행복한 PC방",
        "distance": 34.05978377531625,
        "walking_time": "약 1분"
      },
      {
        "pc_room_lat": 37.5127598014303,
        "pc_room_lon": 126.944975816586,
        "pc_room_type": "PC방",
        "pc_room_name": "존앤존 PC방",
        "distance": 35.15365846524652,
        "walking_time": "약 1분"
      },
      {
        "pc_room_lat": 37.5124073237593,
        "pc_room_lon": 126.94515908462,
        "pc_room_type": "PC방",
        "pc_room_name": "아지트피씨존",
        "distance": 36.09692935514174,
        "walking_time": "약 1분"
      },
      {
        "pc_room_lat": 37.5128015607415,
        "pc_room_lon": 126.944489643789,
        "pc_room_type": "PC방",
        "pc_room_name": "비원PC",
        "distance": 42.07641524643502,
        "walking_time": "약 1분"
      },
      {
        "pc_room_lat": 37.512049311684,
        "pc_room_lon": 126.945260351819,
        "pc_room_type": "PC방",
        "pc_room_name": "와우PC방 3호점",
        "distance": 65.87645201159961,
        "walking_time": "약 1분"
      },
      {
        "pc_room_lat": 37.5128549427149,
        "pc_room_lon": 126.944007081257,
        "pc_room_type": "PC방",
        "pc_room_name": "포포PC방 노량진점",
        "distance": 78.01178564264363,
        "walking_time": "약 2분"
      },
      {
        "pc_room_lat": 37.5117527722431,
        "pc_room_lon": 126.944447779056,
        "pc_room_type": "PC방",
        "pc_room_name": "몽키타운 PC방",
        "distance": 86.80154571029304,
        "walking_time": "약 2분"
      },
      {
        "pc_room_lat": 37.5126743381986,
        "pc_room_lon": 126.943726367207,
        "pc_room_type": "PC방",
        "pc_room_name": "컬러PC방",
        "distance": 93.74019795163096,
        "walking_time": "약 2분"
      },
      {
        "pc_room_lat": 37.5131126393253,
        "pc_room_lon": 126.945569381852,
        "pc_room_type": "PC방",
        "pc_room_name": "이네이처 PC방",
        "distance": 99.03925039151684,
        "walking_time": "약 2분"
      },
      {
        "pc_room_lat": 37.511941050376,
        "pc_room_lon": 126.94573627465,
        "pc_room_type": "PC방",
        "pc_room_name": "인터페이스 PC존",
        "distance": 105.39161282639712,
        "walking_time": "약 2분"
      }
    ],
    "police_office": [
      {
        "police_office_lat": 37.51114774,
        "police_office_lon": 126.9332977,
        "police_office_type": "경찰소",
        "police_office_name": "노량진지구대",
        "distance": 1022.3471238055045,
        "walking_time": "약 16분"
      },
      {
        "police_office_lat": 37.50593298,
        "police_office_lon": 126.9362025,
        "police_office_type": "경찰소",
        "police_office_name": "상도지구대",
        "distance": 1049.8628144773788,
        "walking_time": "약 16분"
      }
    ],
    "post_office": [
      {
        "post_office_lat": 37.50964891,
        "post_office_lon": 126.9403493,
        "post_office_type": "우체국",
        "post_office_name": "서울노량진1동우편취급국",
        "distance": 501.5673680239432,
        "walking_time": "약 8분"
      },
      {
        "post_office_lat": 37.51246533,
        "post_office_lon": 126.9506359,
        "post_office_type": "우체국",
        "post_office_name": "서울노량진우체국",
        "distance": 517.9225284562857,
        "walking_time": "약 8분"
      },
      {
        "post_office_lat": 37.50500444,
        "post_office_lon": 126.9448543,
        "post_office_type": "우체국",
        "post_office_name": "서울상도동우체국",
        "distance": 832.616783784063,
        "walking_time": "약 13분"
      },
      {
        "post_office_lat": 37.51228683,
        "post_office_lon": 126.9353043,
        "post_office_type": "우체국",
        "post_office_name": "서울노량진2동우편취급국",
        "distance": 834.6784461150567,
        "walking_time": "약 13분"
      },
      {
        "post_office_lat": 37.50472672,
        "post_office_lon": 126.9538339,
        "post_office_type": "우체국",
        "post_office_name": "중앙대학교우편취급국",
        "distance": 1177.1168810215315,
        "walking_time": "약 18분"
      },
      {
        "post_office_lat": 37.51913405,
        "post_office_lon": 126.9309282,
        "post_office_type": "우체국",
        "post_office_name": "서울여의대방로우편취급국",
        "distance": 1426.3897554252508,
        "walking_time": "약 22분"
      },
      {
        "post_office_lat": 37.52409195,
        "post_office_lon": 126.9593247,
        "post_office_type": "우체국",
        "post_office_name": "서울한강로3가우편취급국",
        "distance": 1820.12568111344,
        "walking_time": "약 28분"
      }
    ],
    "public_health_center": [
      {
        "public_health_center_lat": 37.50444553,
        "public_health_center_lon": 126.9410884,
        "public_health_center_type": "보건소",
        "public_health_center_name": "동작문화복지센타",
        "distance": 951.6564083358226,
        "walking_time": "약 15분"
      }
    ],
    "school": [
      {
        "school_lat": 37.5117195690698,
        "school_lon": 126.940827465638,
        "school_type": "초등학교",
        "school_name": "서울노량진초등학교",
        "distance": 357.6781006603292,
        "walking_time": "약 6분"
      },
      {
        "school_lat": 37.5113065101691,
        "school_lon": 126.94864052145,
        "school_type": "초등학교",
        "school_name": "서울영본초등학교",
        "distance": 366.4504975711517,
        "walking_time": "약 6분"
      },
      {
        "school_lat": 37.5106568125953,
        "school_lon": 126.953923907042,
        "school_type": "초등학교",
        "school_name": "서울본동초등학교",
        "distance": 833.305282613056,
        "walking_time": "약 13분"
      },
      {
        "school_lat": 37.5062047182589,
        "school_lon": 126.953567101813,
        "school_type": "초등학교",
        "school_name": "서울강남초등학교",
        "distance": 1044.8391386571243,
        "walking_time": "약 16분"
      },
      {
        "school_lat": 37.5031485833795,
        "school_lon": 126.940834004372,
        "school_type": "중학교",
        "school_name": "장승중학교",
        "distance": 1095.2476938484117,
        "walking_time": "약 17분"
      },
      {
        "school_lat": 37.5089369468762,
        "school_lon": 126.932815969374,
        "school_type": "초등학교",
        "school_name": "서울영화초등학교",
        "distance": 1125.5664687321396,
        "walking_time": "약 17분"
      },
      {
        "school_lat": 37.5080854131193,
        "school_lon": 126.933143709837,
        "school_type": "고등학교",
        "school_name": "영등포고등학교",
        "distance": 1136.0643276881758,
        "walking_time": "약 17분"
      },
      {
        "school_lat": 37.5080854131193,
        "school_lon": 126.933143709837,
        "school_type": "고등학교",
        "school_name": "영등포고등학교부설방송통신고등학교",
        "distance": 1136.0643276881758,
        "walking_time": "약 17분"
      },
      {
        "school_lat": 37.5080854131193,
        "school_lon": 126.933143709837,
        "school_type": "중학교",
        "school_name": "영등포중학교",
        "distance": 1136.0643276881758,
        "walking_time": "약 17분"
      },
      {
        "school_lat": 37.5102231403469,
        "school_lon": 126.957477481379,
        "school_type": "중학교",
        "school_name": "동양중학교",
        "distance": 1149.4021002210493,
        "walking_time": "약 18분"
      }
    ],
    "self_laundromat": [
      {
        "self_laundromat_lat": 37.52135273,
        "self_laundromat_lon": 126.9373261,
        "self_laundromat_type": "셀프 빨래방",
        "self_laundromat_name": "워시타임 여의도점",
        "distance": 1183.6759735320657,
        "walking_time": "약 18분"
      },
      {
        "self_laundromat_lat": 37.52135273,
        "self_laundromat_lon": 126.9373261,
        "self_laundromat_type": "셀프 빨래방",
        "self_laundromat_name": "워시타임 여의도점",
        "distance": 1183.6759735320657,
        "walking_time": "약 18분"
      },
      {
        "self_laundromat_lat": 37.5259425,
        "self_laundromat_lon": 126.9548122,
        "self_laundromat_type": "셀프 빨래방",
        "self_laundromat_name": "크린토피아 코인워시365 이촌2동점",
        "distance": 1738.4586275817612,
        "walking_time": "약 26분"
      },
      {
        "self_laundromat_lat": 37.5259425,
        "self_laundromat_lon": 126.9548122,
        "self_laundromat_type": "셀프 빨래방",
        "self_laundromat_name": "크린토피아 코인워시365 이촌2동점",
        "distance": 1738.4586275817612,
        "walking_time": "약 26분"
      }
    ],
    "subway": [
      {
        "subway_lat": 37.5046658024741,
        "subway_lon": 126.938744364462,
        "subway_type": "지하철",
        "subway_name": "7호선-장승배기역",
        "distance": 1019.4301976389812,
        "walking_time": "약 16분"
      },
      {
        "subway_lat": 37.5032080456431,
        "subway_lon": 126.947700373641,
        "subway_type": "지하철",
        "subway_name": "7호선-상도역",
        "distance": 1064.325513232714,
        "walking_time": "약 16분"
      },
      {
        "subway_lat": 37.5270851610199,
        "subway_lon": 126.932863954929,
        "subway_type": "지하철",
        "subway_name": "5호선-여의나루역",
        "distance": 1932.504030481852,
        "walking_time": "약 29분"
      }
    ],
    "supermarket": [
      {
        "supermarket_lat": 37.51419429,
        "supermarket_lon": 126.9385861,
        "supermarket_type": "마트",
        "supermarket_name": "노량진 드림스퀘어",
        "distance": 576.838419585981,
        "walking_time": "약 9분"
      },
      {
        "supermarket_lat": 37.50762648,
        "supermarket_lon": 126.9495479,
        "supermarket_type": "마트",
        "supermarket_name": "홈플러스 익스프레스 상도2점",
        "distance": 686.117575899592,
        "walking_time": "약 11분"
      },
      {
        "supermarket_lat": 37.50623587,
        "supermarket_lon": 126.9445418,
        "supermarket_type": "마트",
        "supermarket_name": "(주)이마트에브리데이 상도동점",
        "distance": 695.9259586567147,
        "walking_time": "약 11분"
      },
      {
        "supermarket_lat": 37.50431826,
        "supermarket_lon": 126.942467,
        "supermarket_type": "마트",
        "supermarket_name": "GS THE FRESH 동작구청점",
        "distance": 931.1881297199606,
        "walking_time": "약 14분"
      }
    ],
    "university": [
      {
        "university_lat": 37.5047267237807,
        "university_lon": 126.953833907628,
        "university_type": "대학교",
        "university_name": "중앙대학교 서울캠퍼스",
        "distance": 1177.1170299271682,
        "walking_time": "약 18분"
      }
    ]
  }
}