{
  "클러스터_위도": 37.53374499999999,
  "클러스터_경도": 126.86391100000002,
  "클러스터_level": 3.0,
  "facilities": {
    "bus": [
      {
        "bus_lat": 37.53326952,
        "bus_lon": 126.8638355,
        "bus_type": "버스정류장",
        "bus_name": "목동사거리",
        "distance": 53.2884561580033,
        "walking_time": "약 1분"
      },
      {
        "bus_lat": 37.53319859,
        "bus_lon": 126.8635224,
        "bus_type": "버스정류장",
        "bus_name": "목동사거리",
        "distance": 69.75439247699939,
        "walking_time": "약 2분"
      },
      {
        "bus_lat": 37.53163377,
        "bus_lon": 126.8636088,
        "bus_type": "버스정류장",
        "bus_name": "목동사거리",
        "distance": 236.2656053777072,
        "walking_time": "약 4분"
      },
      {
        "bus_lat": 37.53269073,
        "bus_lon": 126.8665441,
        "bus_type": "버스정류장",
        "bus_name": "금호어울림.대원칸타빌아파트",
        "distance": 260.0971249480768,
        "walking_time": "약 4분"
      },
      {
        "bus_lat": 37.53617351,
        "bus_lon": 126.863622,
        "bus_type": "버스정류장",
        "bus_name": "영도중.강서고입구.기아양서대리점",
        "distance": 271.2376936351757,
        "walking_time": "약 5분"
      },
      {
        "bus_lat": 37.53287805,
        "bus_lon": 126.8668606,
        "bus_type": "버스정류장",
        "bus_name": "금호어울림.대원칸타빌아파트",
        "distance": 277.3787864983363,
        "walking_time": "약 5분"
      },
      {
        "bus_lat": 37.53090839,
        "bus_lon": 126.86403,
        "bus_type": "버스정류장",
        "bus_name": "홍익병원목동관",
        "distance": 315.5911371615001,
        "walking_time": "약 5분"
      },
      {
        "bus_lat": 37.53067508,
        "bus_lon": 126.8636807,
        "bus_type": "버스정류장",
        "bus_name": "목동사거리",
        "distance": 341.96304752661644,
        "walking_time": "약 6분"
      },
      {
        "bus_lat": 37.53709721,
        "bus_lon": 126.8633458,
        "bus_type": "버스정류장",
        "bus_name": "용문사.시립화곡청소년센터",
        "distance": 376.0655591387135,
        "walking_time": "약 6분"
      },
      {
        "bus_lat": 37.53183633,
        "bus_lon": 126.8588539,
        "bus_type": "버스정류장",
        "bus_name": "화곡동남부시장",
        "distance": 493.855270094423,
        "walking_time": "약 8분"
      }
    ],
    "community_center": [
      {
        "community_center_lat": 37.53480238,
        "community_center_lon": 126.8607489,
        "community_center_type": "주민센터",
        "community_center_name": "화곡4동 자치회관",
        "distance": 302.59860429774164,
        "walking_time": "약 5분"
      },
      {
        "community_center_lat": 37.53244164,
        "community_center_lon": 126.8684229,
        "community_center_type": "주민센터",
        "community_center_name": "목4동 자치회관",
        "distance": 423.42394141548994,
        "walking_time": "약 7분"
      },
      {
        "community_center_lat": 37.53036563,
        "community_center_lon": 126.8711898,
        "community_center_type": "주민센터",
        "community_center_name": "목1동 자치회관",
        "distance": 743.7453481002103,
        "walking_time": "약 12분"
      },
      {
        "community_center_lat": 37.53182784,
        "community_center_lon": 126.8544885,
        "community_center_type": "주민센터",
        "community_center_name": "화곡2동 자치회관",
        "distance": 857.7707066280137,
        "walking_time": "약 13분"
      },
      {
        "community_center_lat": 37.54265827,
        "community_center_lon": 126.8625035,
        "community_center_type": "주민센터",
        "community_center_name": "등촌2동 자치회관",
        "distance": 998.849869273112,
        "walking_time": "약 15분"
      },
      {
        "community_center_lat": 37.54474118,
        "community_center_lon": 126.8644362,
        "community_center_type": "주민센터",
        "community_center_name": "목3동 자치회관",
        "distance": 1223.5959920362354,
        "walking_time": "약 19분"
      },
      {
        "community_center_lat": 37.52456036,
        "community_center_lon": 126.855803,
        "community_center_type": "주민센터",
        "community_center_name": "신정4동 자치회관",
        "distance": 1246.6854068775517,
        "walking_time": "약 19분"
      },
      {
        "community_center_lat": 37.54614359,
        "community_center_lon": 126.8717015,
        "community_center_type": "주민센터",
        "community_center_name": "목2동 자치회관",
        "distance": 1540.2974315770962,
        "walking_time": "약 23분"
      }
    ],
    "convenience_store": [
      {
        "convenience_store_lat": 37.5334362,
        "convenience_store_lon": 126.8644708,
        "convenience_store_type": "편의점",
        "convenience_store_name": "CU 목동7호점",
        "distance": 60.12981341572901,
        "walking_time": "약 1분"
      },
      {
        "convenience_store_lat": 37.53237607,
        "convenience_store_lon": 126.8645421,
        "convenience_store_type": "편의점",
        "convenience_store_name": "GS25 목동홍익점",
        "distance": 162.07144378153046,
        "walking_time": "약 3분"
      },
      {
        "convenience_store_lat": 37.53353261,
        "convenience_store_lon": 126.8658926,
        "convenience_store_type": "편의점",
        "convenience_store_name": "CU 목동현대점",
        "distance": 176.32054874333556,
        "walking_time": "약 3분"
      },
      {
        "convenience_store_lat": 37.5355587,
        "convenience_store_lon": 126.8640929,
        "convenience_store_type": "편의점",
        "convenience_store_name": "세븐일레븐 목동햇빛점",
        "distance": 202.31103365572105,
        "walking_time": "약 4분"
      },
      {
        "convenience_store_lat": 37.53202636,
        "convenience_store_lon": 126.8617917,
        "convenience_store_type": "편의점",
        "convenience_store_name": "CU 화곡천량점",
        "distance": 267.288720844589,
        "walking_time": "약 4분"
      },
      {
        "convenience_store_lat": 37.53128769,
        "convenience_store_lon": 126.8634683,
        "convenience_store_type": "편의점",
        "convenience_store_name": "세븐일레븐 화곡등촌로점",
        "distance": 276.0148088101351,
        "walking_time": "약 5분"
      },
      {
        "convenience_store_lat": 37.53561535,
        "convenience_store_lon": 126.8617404,
        "convenience_store_type": "편의점",
        "convenience_store_name": "CU 강서한아름점",
        "distance": 282.63903816731766,
        "walking_time": "약 5분"
      },
      {
        "convenience_store_lat": 37.53302291,
        "convenience_store_lon": 126.8675707,
        "convenience_store_type": "편의점",
        "convenience_store_name": "GS25 목동어울림점",
        "distance": 332.5418270877566,
        "walking_time": "약 5분"
      },
      {
        "convenience_store_lat": 37.53692685,
        "convenience_store_lon": 126.864388,
        "convenience_store_type": "편의점",
        "convenience_store_name": "CU 목4동점",
        "distance": 356.2967725293455,
        "walking_time": "약 6분"
      },
      {
        "convenience_store_lat": 37.53039965,
        "convenience_store_lon": 126.8630655,
        "convenience_store_type": "편의점",
        "convenience_store_name": "CU 목동먹자촌점",
        "distance": 379.3837633722674,
        "walking_time": "약 6분"
      }
    ],
    "daycare": [
      {
        "daycare_lat": 37.53418214633128,
        "daycare_lon": 126.8624519944958,
        "daycare_type": "어린이집",
        "daycare_name": "아름어린이집",
        "distance": 137.5270467518588,
        "walking_time": "약 3분"
      },
      {
        "daycare_lat": 37.53564669,
        "daycare_lon": 126.8628286,
        "daycare_type": "어린이집",
        "daycare_name": "숲사랑어린이집",
        "distance": 231.9993399100541,
        "walking_time": "약 4분"
      },
      {
        "daycare_lat": 37.53547937,
        "daycare_lon": 126.8661373,
        "daycare_type": "어린이집",
        "daycare_name": "고운아이 어린이집",
        "distance": 275.18799860386554,
        "walking_time": "약 5분"
      },
      {
        "daycare_lat": 37.53160021,
        "daycare_lon": 126.8655511,
        "daycare_type": "어린이집",
        "daycare_name": "참동화나라어린이집",
        "distance": 278.91333059383527,
        "walking_time": "약 5분"
      },
      {
        "daycare_lat": 37.53561204527303,
        "daycare_lon": 126.86638618919066,
        "daycare_type": "어린이집",
        "daycare_name": "구립 아인어린이집",
        "distance": 301.2211221450003,
        "walking_time": "약 5분"
      },
      {
        "daycare_lat": 37.53563548210745,
        "daycare_lon": 126.86639576455896,
        "daycare_type": "어린이집",
        "daycare_name": "바다의별어린이집",
        "distance": 303.63179549467566,
        "walking_time": "약 5분"
      },
      {
        "daycare_lat": 37.53365939,
        "daycare_lon": 126.8602508,
        "daycare_type": "어린이집",
        "daycare_name": "으뜸어린이집",
        "distance": 322.8859379650888,
        "walking_time": "약 5분"
      },
      {
        "daycare_lat": 37.53365200418015,
        "daycare_lon": 126.86023202346952,
        "daycare_type": "어린이집",
        "daycare_name": "근로복지공단 곰달래어린이집",
        "distance": 324.566024184626,
        "walking_time": "약 5분"
      },
      {
        "daycare_lat": 37.53475228,
        "daycare_lon": 126.8674563,
        "daycare_type": "어린이집",
        "daycare_name": "구립 무궁화어린이집",
        "distance": 332.0709217180235,
        "walking_time": "약 5분"
      },
      {
        "daycare_lat": 37.53348326,
        "daycare_lon": 126.8599265,
        "daycare_type": "어린이집",
        "daycare_name": "한나어린이집",
        "distance": 352.5452002130856,
        "walking_time": "약 6분"
      }
    ],
    "education": [
      {
        "education_lat": 37.53540108,
        "education_lon": 126.8626554,
        "education_type": "미술관/갤러리",
        "education_name": "아울 갤러리",
        "distance": 214.8672075090556,
        "walking_time": "약 4분"
      },
      {
        "education_lat": 37.5389695,
        "education_lon": 126.8654889,
        "education_type": "도서관",
        "education_name": "미감도서관",
        "distance": 597.3657836445866,
        "walking_time": "약 9분"
      },
      {
        "education_lat": 37.52698169,
        "education_lon": 126.8713942,
        "education_type": "공연장",
        "education_name": "한국방송회관 코바코홀",
        "distance": 1000.504400928332,
        "walking_time": "약 15분"
      },
      {
        "education_lat": 37.52597518,
        "education_lon": 126.8566021,
        "education_type": "도서관",
        "education_name": "개울건강도서관",
        "distance": 1077.8814074065606,
        "walking_time": "약 17분"
      },
      {
        "education_lat": 37.5335602,
        "education_lon": 126.8762308,
        "education_type": "도서관",
        "education_name": "서울특별시교육청 양천도서관",
        "distance": 1086.5184813570213,
        "walking_time": "약 17분"
      },
      {
        "education_lat": 37.52392536,
        "education_lon": 126.8720147,
        "education_type": "박물관/기념관",
        "education_name": "한생연생명과학박물관",
        "distance": 1304.950496424863,
        "walking_time": "약 20분"
      },
      {
        "education_lat": 37.54790302,
        "education_lon": 126.8599277,
        "education_type": "도서관",
        "education_name": "서울특별시교육청 강서도서관",
        "distance": 1612.9982468536325,
        "walking_time": "약 25분"
      }
    ],
    "electric_gas_station": [
      {
        "electric_gas_station_lat": 37.53024475,
        "electric_gas_station_lon": 126.8733001,
        "electric_gas_station_type": "전기차 충전소",
        "electric_gas_station_name": "홈플러스 목동점",
        "distance": 914.8438136978,
        "walking_time": "약 14분"
      }
    ],
    "fitness": [
      {
        "fitness_lat": 37.53414264,
        "fitness_lon": 126.8632715,
        "fitness_type": "운동시설",
        "fitness_name": "바로온 피티&필라테스",
        "distance": 71.6570841269356,
        "walking_time": "약 2분"
      },
      {
        "fitness_lat": 37.53414264,
        "fitness_lon": 126.8632715,
        "fitness_type": "운동시설",
        "fitness_name": "영헬스피아",
        "distance": 71.6570841269356,
        "walking_time": "약 2분"
      },
      {
        "fitness_lat": 37.53288516,
        "fitness_lon": 126.8641663,
        "fitness_type": "운동시설",
        "fitness_name": "헬린 목동점",
        "distance": 98.2243343248054,
        "walking_time": "약 2분"
      },
      {
        "fitness_lat": 37.53233726,
        "fitness_lon": 126.8620699,
        "fitness_type": "운동시설",
        "fitness_name": "바디앤짐",
        "distance": 225.5180320637823,
        "walking_time": "약 4분"
      },
      {
        "fitness_lat": 37.53173766,
        "fitness_lon": 126.8634802,
        "fitness_type": "운동시설",
        "fitness_name": "저스트짐",
        "distance": 226.4154437682996,
        "walking_time": "약 4분"
      },
      {
        "fitness_lat": 37.53592327,
        "fitness_lon": 126.8631757,
        "fitness_type": "운동시설",
        "fitness_name": "혼 GYM",
        "distance": 250.74007274914808,
        "walking_time": "약 4분"
      },
      {
        "fitness_lat": 37.53257224,
        "fitness_lon": 126.8665399,
        "fitness_type": "운동시설",
        "fitness_name": "Gym BX4",
        "distance": 265.97268098322564,
        "walking_time": "약 4분"
      },
      {
        "fitness_lat": 37.53273561,
        "fitness_lon": 126.8672741,
        "fitness_type": "운동시설",
        "fitness_name": "오오핏",
        "distance": 317.0796720267349,
        "walking_time": "약 5분"
      },
      {
        "fitness_lat": 37.53671393,
        "fitness_lon": 126.863203,
        "fitness_type": "운동시설",
        "fitness_name": "피트니스클라쓰 등촌동점",
        "distance": 335.9807273291287,
        "walking_time": "약 6분"
      },
      {
        "fitness_lat": 37.53277242,
        "fitness_lon": 126.8677977,
        "fitness_type": "운동시설",
        "fitness_name": "브로제이짐(Brojgym)",
        "distance": 359.3777310406304,
        "walking_time": "약 6분"
      }
    ],
    "gas_station": [
      {
        "gas_station_lat": 37.53037255,
        "gas_station_lon": 126.8655118,
        "gas_station_type": "주유소",
        "gas_station_name": "양천구주유소",
        "distance": 400.6866233460274,
        "walking_time": "약 6분"
      },
      {
        "gas_station_lat": 37.53005484,
        "gas_station_lon": 126.8628336,
        "gas_station_type": "주유소",
        "gas_station_name": "목화주유소",
        "distance": 421.1818003923785,
        "walking_time": "약 7분"
      },
      {
        "gas_station_lat": 37.52964523,
        "gas_station_lon": 126.8598349,
        "gas_station_type": "주유소",
        "gas_station_name": "경인고속주유소",
        "distance": 580.5250274030112,
        "walking_time": "약 9분"
      },
      {
        "gas_station_lat": 37.5315625,
        "gas_station_lon": 126.8560354,
        "gas_station_type": "주유소",
        "gas_station_name": "뉴신정주유소",
        "distance": 735.6393608534207,
        "walking_time": "약 11분"
      },
      {
        "gas_station_lat": 37.53216383,
        "gas_station_lon": 126.8755403,
        "gas_station_type": "주유소",
        "gas_station_name": "㈜삼표에너지 목동주유소",
        "distance": 1040.410737847592,
        "walking_time": "약 16분"
      },
      {
        "gas_station_lat": 37.52811368,
        "gas_station_lon": 126.854009,
        "gas_station_type": "주유소",
        "gas_station_name": "SK에너지㈜경인주유소",
        "distance": 1074.478977126772,
        "walking_time": "약 17분"
      },
      {
        "gas_station_lat": 37.53960054,
        "gas_station_lon": 126.8745528,
        "gas_station_type": "주유소",
        "gas_station_name": "목동주유소",
        "distance": 1142.1003647234336,
        "walking_time": "약 18분"
      },
      {
        "gas_station_lat": 37.52804988,
        "gas_station_lon": 126.852547,
        "gas_station_type": "주유소",
        "gas_station_name": "양정주유소",
        "distance": 1185.4097446918809,
        "walking_time": "약 18분"
      },
      {
        "gas_station_lat": 37.54685982,
        "gas_station_lon": 126.8625146,
        "gas_station_type": "주유소",
        "gas_station_name": "등촌주유소",
        "distance": 1463.4895035740249,
        "walking_time": "약 22분"
      },
      {
        "gas_station_lat": 37.54873508,
        "gas_station_lon": 126.8629888,
        "gas_station_type": "주유소",
        "gas_station_name": "강서열린점",
        "distance": 1668.802812711339,
        "walking_time": "약 25분"
      }
    ],
    "hospital": [
      {
        "hospital_lat": 37.53336057,
        "hospital_lon": 126.8639689,
        "hospital_type": "병원",
        "hospital_name": "서현종치과의원",
        "distance": 43.05047213631812,
        "walking_time": "약 1분"
      },
      {
        "hospital_lat": 37.53348476,
        "hospital_lon": 126.8632979,
        "hospital_type": "병원",
        "hospital_name": "고운성모이비인후과의원",
        "distance": 61.31889224934811,
        "walking_time": "약 1분"
      },
      {
        "hospital_lat": 37.53348476,
        "hospital_lon": 126.8632979,
        "hospital_type": "병원",
        "hospital_name": "서울정바른치과의원",
        "distance": 61.31889224934811,
        "walking_time": "약 1분"
      },
      {
        "hospital_lat": 37.53348476,
        "hospital_lon": 126.8632979,
        "hospital_type": "병원",
        "hospital_name": "아산바른내과의원",
        "distance": 61.31889224934811,
        "walking_time": "약 1분"
      },
      {
        "hospital_lat": 37.53348476,
        "hospital_lon": 126.8632979,
        "hospital_type": "병원",
        "hospital_name": "예스안과의원",
        "distance": 61.31889224934811,
        "walking_time": "약 1분"
      },
      {
        "hospital_lat": 37.53348476,
        "hospital_lon": 126.8632979,
        "hospital_type": "병원",
        "hospital_name": "열린정신건강의학과의원",
        "distance": 61.31889224934811,
        "walking_time": "약 1분"
      },
      {
        "hospital_lat": 37.53348476,
        "hospital_lon": 126.8632979,
        "hospital_type": "병원",
        "hospital_name": "편안한여성의원",
        "distance": 61.31889224934811,
        "walking_time": "약 1분"
      },
      {
        "hospital_lat": 37.53325435,
        "hospital_lon": 126.8632709,
        "hospital_type": "병원",
        "hospital_name": "서울경희한의원",
        "distance": 78.50020831301387,
        "walking_time": "약 2분"
      },
      {
        "hospital_lat": 37.53325435,
        "hospital_lon": 126.8632709,
        "hospital_type": "병원",
        "hospital_name": "수내과의원",
        "distance": 78.50020831301387,
        "walking_time": "약 2분"
      },
      {
        "hospital_lat": 37.53309674,
        "hospital_lon": 126.8633329,
        "hospital_type": "병원",
        "hospital_name": "중국한의원",
        "distance": 88.28632918376093,
        "walking_time": "약 2분"
      }
    ],
    "music_room": [
      {
        "music_room_lat": 37.53373334,
        "music_room_lon": 126.8639165,
        "music_room_type": "노래방",
        "music_room_name": "은하수노래연습장",
        "distance": 1.3842675533251336,
        "walking_time": "약 1분"
      },
      {
        "music_room_lat": 37.53354958,
        "music_room_lon": 126.8641119,
        "music_room_type": "노래방",
        "music_room_name": "신월노래연습장",
        "distance": 28.03558116608429,
        "walking_time": "약 1분"
      },
      {
        "music_room_lat": 37.5334362,
        "music_room_lon": 126.8644708,
        "music_room_type": "노래방",
        "music_room_name": "에코노래연습장",
        "distance": 60.12981341572901,
        "walking_time": "약 1분"
      },
      {
        "music_room_lat": 37.53319931,
        "music_room_lon": 126.8639849,
        "music_room_type": "노래방",
        "music_room_name": "와우노래연습장",
        "distance": 61.02685454256503,
        "walking_time": "약 1분"
      },
      {
        "music_room_lat": 37.53358096,
        "music_room_lon": 126.8630362,
        "music_room_type": "노래방",
        "music_room_name": "큰소리뻥뻥노래연습장",
        "distance": 79.26460362049475,
        "walking_time": "약 2분"
      },
      {
        "music_room_lat": 37.53309674,
        "music_room_lon": 126.8633329,
        "music_room_type": "노래방",
        "music_room_name": "SBS노래연습장",
        "distance": 88.28632918376093,
        "walking_time": "약 2분"
      },
      {
        "music_room_lat": 37.53271505,
        "music_room_lon": 126.8640915,
        "music_room_type": "노래방",
        "music_room_name": "예랑노래연습장",
        "distance": 115.62588647241104,
        "walking_time": "약 2분"
      },
      {
        "music_room_lat": 37.53256424,
        "music_room_lon": 126.8640291,
        "music_room_type": "노래방",
        "music_room_name": "핑클노래연습장",
        "distance": 131.70686504339636,
        "walking_time": "약 2분"
      },
      {
        "music_room_lat": 37.53263288,
        "music_room_lon": 126.8644851,
        "music_room_type": "노래방",
        "music_room_name": "메카노래연습장",
        "distance": 133.62253426374863,
        "walking_time": "약 2분"
      },
      {
        "music_room_lat": 37.53275213,
        "music_room_lon": 126.8628865,
        "music_room_type": "노래방",
        "music_room_name": "황실노래연습장",
        "distance": 142.65190213151567,
        "walking_time": "약 3분"
      }
    ],
    "park": [
      {
        "park_lat": 37.5349739,
        "park_lon": 126.8763932,
        "park_type": "공원",
        "park_name": "파리근린공원",
        "distance": 1109.08386273021,
        "walking_time": "약 17분"
      },
      {
        "park_lat": 37.5421979,
        "park_lon": 126.8517836,
        "park_type": "공원",
        "park_name": "봉제산공원",
        "distance": 1423.6729961070712,
        "walking_time": "약 22분"
      },
      {
        "park_lat": 37.5429593,
        "park_lon": 126.8783125,
        "park_type": "공원",
        "park_name": "용왕산근린공원",
        "distance": 1631.6155296466436,
        "walking_time": "약 25분"
      }
    ],
    "park_station": [
      {
        "park_station_lat": 37.53429404,
        "park_station_lon": 126.8610609,
        "park_station_type": "주차장",
        "park_station_name": "화곡4-1 공영주차장",
        "distance": 258.6214011968547,
        "walking_time": "약 4분"
      },
      {
        "park_station_lat": 37.53228575,
        "park_station_lon": 126.8608623,
        "park_station_type": "주차장",
        "park_station_name": "남부골목 전통시장 고객주차장",
        "distance": 314.00172304870966,
        "walking_time": "약 5분"
      },
      {
        "park_station_lat": 37.5389724,
        "park_station_lon": 126.8653449,
        "park_station_type": "주차장",
        "park_station_name": "목사랑시장",
        "distance": 594.8519094160424,
        "walking_time": "약 9분"
      },
      {
        "park_station_lat": 37.53013256,
        "park_station_lon": 126.8584535,
        "park_station_type": "주차장",
        "park_station_name": "화곡4동 배다리동길",
        "distance": 626.8495931923574,
        "walking_time": "약 10분"
      },
      {
        "park_station_lat": 37.52775173,
        "park_station_lon": 126.8631627,
        "park_station_type": "주차장",
        "park_station_name": "신정4동 로데오길",
        "distance": 669.6800164541006,
        "walking_time": "약 10분"
      },
      {
        "park_station_lat": 37.52756237,
        "park_station_lon": 126.8599681,
        "park_station_type": "주차장",
        "park_station_name": "벚꽃길주차장",
        "distance": 770.3968482173725,
        "walking_time": "약 12분"
      },
      {
        "park_station_lat": 37.52626128,
        "park_station_lon": 126.8632827,
        "park_station_type": "주차장",
        "park_station_name": "신정4동길",
        "distance": 833.9940593336221,
        "walking_time": "약 13분"
      },
      {
        "park_station_lat": 37.52825699,
        "park_station_lon": 126.8713316,
        "park_station_type": "주차장",
        "park_station_name": "한국통신",
        "distance": 894.743348701915,
        "walking_time": "약 14분"
      },
      {
        "park_station_lat": 37.54193148,
        "park_station_lon": 126.8651223,
        "park_station_type": "주차장",
        "park_station_name": "목3동 해운주차장",
        "distance": 916.5391037270922,
        "walking_time": "약 14분"
      },
      {
        "park_station_lat": 37.53032696,
        "park_station_lon": 126.8742633,
        "park_station_type": "주차장",
        "park_station_name": "바람개비주차장",
        "distance": 988.8161586756406,
        "walking_time": "약 15분"
      }
    ],
    "pc_room": [
      {
        "pc_room_lat": 37.5337333428665,
        "pc_room_lon": 126.863916516818,
        "pc_room_type": "PC방",
        "pc_room_name": "호호PC",
        "distance": 1.3844893777618756,
        "walking_time": "약 1분"
      },
      {
        "pc_room_lat": 37.5328851583631,
        "pc_room_lon": 126.864166285292,
        "pc_room_type": "PC방",
        "pc_room_name": "스타디움PC CAFE",
        "distance": 98.22421426779005,
        "walking_time": "약 2분"
      },
      {
        "pc_room_lat": 37.5328851583631,
        "pc_room_lon": 126.864166285292,
        "pc_room_type": "PC방",
        "pc_room_name": "왠지PC방",
        "distance": 98.22421426779005,
        "walking_time": "약 2분"
      },
      {
        "pc_room_lat": 37.5326604378483,
        "pc_room_lon": 126.864706138814,
        "pc_room_type": "PC방",
        "pc_room_name": "제이제이 PC방",
        "distance": 139.4981278279723,
        "walking_time": "약 3분"
      },
      {
        "pc_room_lat": 37.5319180525369,
        "pc_room_lon": 126.86325377335,
        "pc_room_type": "PC방",
        "pc_room_name": "탑PC",
        "distance": 211.2519070049013,
        "walking_time": "약 4분"
      },
      {
        "pc_room_lat": 37.5355989214973,
        "pc_room_lon": 126.861486316839,
        "pc_room_type": "PC방",
        "pc_room_name": "로또PC 화곡점",
        "distance": 296.9954285207343,
        "walking_time": "약 5분"
      },
      {
        "pc_room_lat": 37.5316305041818,
        "pc_room_lon": 126.861826845306,
        "pc_room_type": "PC방",
        "pc_room_name": "놀토PC",
        "distance": 298.4225145143578,
        "walking_time": "약 5분"
      },
      {
        "pc_room_lat": 37.5308229392857,
        "pc_room_lon": 126.864236888588,
        "pc_room_type": "PC방",
        "pc_room_name": "닉 피시카페 목동점",
        "distance": 326.18660580804226,
        "walking_time": "약 5분"
      },
      {
        "pc_room_lat": 37.5367139277952,
        "pc_room_lon": 126.863203039524,
        "pc_room_type": "PC방",
        "pc_room_name": "인디고pc방 등촌점",
        "distance": 335.9798389026862,
        "walking_time": "약 6분"
      },
      {
        "pc_room_lat": 37.5318504424101,
        "pc_room_lon": 126.860298516176,
        "pc_room_type": "PC방",
        "pc_room_name": "렉스PC",
        "distance": 381.9015735243664,
        "walking_time": "약 6분"
      }
    ],
    "police_office": [
      {
        "police_office_lat": 37.52445246,
        "police_office_lon": 126.8635758,
        "police_office_type": "경찰소",
        "police_office_name": "신정2지구대",
        "distance": 1033.7060057093354,
        "walking_time": "약 16분"
      },
      {
        "police_office_lat": 37.54452741,
        "police_office_lon": 126.8623644,
        "police_office_type": "경찰소",
        "police_office_name": "목2지구대",
        "distance": 1206.6792113182075,
        "walking_time": "약 19분"
      },
      {
        "police_office_lat": 37.54480866,
        "police_office_lon": 126.8618692,
        "police_office_type": "경찰소",
        "police_office_name": "등촌2파출소",
        "distance": 1243.325298753821,
        "walking_time": "약 19분"
      },
      {
        "police_office_lat": 37.53515594,
        "police_office_lon": 126.8784581,
        "police_office_type": "경찰소",
        "police_office_name": "목1지구대",
        "distance": 1292.2663037468878,
        "walking_time": "약 20분"
      },
      {
        "police_office_lat": 37.52029971,
        "police_office_lon": 126.8607681,
        "police_office_type": "경찰소",
        "police_office_name": "신정1지구대",
        "distance": 1520.521064848043,
        "walking_time": "약 23분"
      }
    ],
    "post_office": [
      {
        "post_office_lat": 37.53243509,
        "post_office_lon": 126.8625118,
        "post_office_type": "우체국",
        "post_office_name": "서울화곡4동우체국",
        "distance": 190.88658816467284,
        "walking_time": "약 3분"
      },
      {
        "post_office_lat": 37.54125752,
        "post_office_lon": 126.8691165,
        "post_office_type": "우체국",
        "post_office_name": "서울목2동우편취급국",
        "distance": 953.142759630722,
        "walking_time": "약 15분"
      },
      {
        "post_office_lat": 37.52216569,
        "post_office_lon": 126.8639441,
        "post_office_type": "우체국",
        "post_office_name": "서울남부지방법원출장소",
        "distance": 1287.5638345781397,
        "walking_time": "약 20분"
      },
      {
        "post_office_lat": 37.52189373,
        "post_office_lon": 126.8619677,
        "post_office_type": "우체국",
        "post_office_name": "서울신정1동우체국",
        "distance": 1328.8968009037674,
        "walking_time": "약 20분"
      },
      {
        "post_office_lat": 37.52369426,
        "post_office_lon": 126.8736991,
        "post_office_type": "우체국",
        "post_office_name": "서울목동대림우편취급국",
        "distance": 1412.100080724291,
        "walking_time": "약 22분"
      },
      {
        "post_office_lat": 37.52129803,
        "post_office_lon": 126.8561937,
        "post_office_type": "우체국",
        "post_office_name": "서울신정단지우편취급국",
        "distance": 1542.3060675205295,
        "walking_time": "약 24분"
      },
      {
        "post_office_lat": 37.52361368,
        "post_office_lon": 126.8508717,
        "post_office_type": "우체국",
        "post_office_name": "서울신월2동우체국",
        "distance": 1609.7390396868118,
        "walking_time": "약 25분"
      },
      {
        "post_office_lat": 37.54722784,
        "post_office_lon": 126.8740307,
        "post_office_type": "우체국",
        "post_office_name": "서울염창동우체국",
        "distance": 1744.6403875028625,
        "walking_time": "약 27분"
      }
    ],
    "public_health_center": [
      {
        "public_health_center_lat": 37.54008815,
        "public_health_center_lon": 126.8669731,
        "public_health_center_type": "보건소",
        "public_health_center_name": "목동보건지소",
        "distance": 755.2366155251652,
        "walking_time": "약 12분"
      },
      {
        "public_health_center_lat": 37.5496484,
        "public_health_center_lon": 126.8682802,
        "public_health_center_type": "보건소",
        "public_health_center_name": "강서구보건소",
        "distance": 1809.8492880478584,
        "walking_time": "약 28분"
      }
    ],
    "school": [
      {
        "school_lat": 37.5363155693554,
        "school_lon": 126.865771125825,
        "school_type": "고등학교",
        "school_name": "강서고등학교",
        "distance": 329.54962731298855,
        "walking_time": "약 5분"
      },
      {
        "school_lat": 37.5363155693554,
        "school_lon": 126.865771125825,
        "school_type": "중학교",
        "school_name": "영도중학교",
        "distance": 329.54962731298855,
        "walking_time": "약 5분"
      },
      {
        "school_lat": 37.5365288457417,
        "school_lon": 126.870049083471,
        "school_type": "초등학교",
        "school_name": "서울정목초등학교",
        "distance": 623.4967561983383,
        "walking_time": "약 10분"
      },
      {
        "school_lat": 37.5394886976531,
        "school_lon": 126.863403109826,
        "school_type": "고등학교",
        "school_name": "대일고등학교",
        "distance": 640.2381519323641,
        "walking_time": "약 10분"
      },
      {
        "school_lat": 37.5359499494616,
        "school_lon": 126.871942644571,
        "school_type": "초등학교",
        "school_name": "서울영도초등학교",
        "distance": 749.4358001260674,
        "walking_time": "약 12분"
      },
      {
        "school_lat": 37.5388437129063,
        "school_lon": 126.857939342826,
        "school_type": "고등학교",
        "school_name": "한광고등학교",
        "distance": 773.7459423491108,
        "walking_time": "약 12분"
      },
      {
        "school_lat": 37.5384117486135,
        "school_lon": 126.85717155125,
        "school_type": "고등학교",
        "school_name": "서울신정고등학교",
        "distance": 788.9262347893286,
        "walking_time": "약 12분"
      },
      {
        "school_lat": 37.5384117486135,
        "school_lon": 126.85717155125,
        "school_type": "중학교",
        "school_name": "신정여자중학교",
        "distance": 788.9262347893286,
        "walking_time": "약 12분"
      },
      {
        "school_lat": 37.5370239898936,
        "school_lon": 126.873072488599,
        "school_type": "중학교",
        "school_name": "신목중학교",
        "distance": 886.2859789383152,
        "walking_time": "약 14분"
      },
      {
        "school_lat": 37.539095457491,
        "school_lon": 126.856009569323,
        "school_type": "초등학교",
        "school_name": "서울신곡초등학교",
        "distance": 916.1593725293884,
        "walking_time": "약 14분"
      }
    ],
    "self_laundromat": [
      {
        "self_laundromat_lat": 37.53591524,
        "self_laundromat_lon": 126.8682359,
        "self_laundromat_type": "셀프 빨래방",
        "self_laundromat_name": "화이트24셀프빨래방",
        "distance": 451.2913016890684,
        "walking_time": "약 7분"
      },
      {
        "self_laundromat_lat": 37.53591524,
        "self_laundromat_lon": 126.8682359,
        "self_laundromat_type": "셀프 빨래방",
        "self_laundromat_name": "화이트 24시 셀프빨래방 목동점",
        "distance": 451.2913016890684,
        "walking_time": "약 7분"
      },
      {
        "self_laundromat_lat": 37.53591524,
        "self_laundromat_lon": 126.8682359,
        "self_laundromat_type": "셀프 빨래방",
        "self_laundromat_name": "화이트24셀프빨래방",
        "distance": 451.2913016890684,
        "walking_time": "약 7분"
      },
      {
        "self_laundromat_lat": 37.53591524,
        "self_laundromat_lon": 126.8682359,
        "self_laundromat_type": "셀프 빨래방",
        "self_laundromat_name": "화이트 24시 셀프빨래방 목동점",
        "distance": 451.2913016890684,
        "walking_time": "약 7분"
      },
      {
        "self_laundromat_lat": 37.52824155,
        "self_laundromat_lon": 126.8620448,
        "self_laundromat_type": "셀프 빨래방",
        "self_laundromat_name": "워시피플 셀프빨래방 관악 봉천 은천점",
        "distance": 633.6958577767707,
        "walking_time": "약 10분"
      },
      {
        "self_laundromat_lat": 37.52824155,
        "self_laundromat_lon": 126.8620448,
        "self_laundromat_type": "셀프 빨래방",
        "self_laundromat_name": "워시피플 셀프빨래방 관악 봉천 은천점",
        "distance": 633.6958577767707,
        "walking_time": "약 10분"
      },
      {
        "self_laundromat_lat": 37.52725253,
        "self_laundromat_lon": 126.8605163,
        "self_laundromat_type": "셀프 빨래방",
        "self_laundromat_name": "덱스터24시셀프빨래방 신정점",
        "distance": 781.5314550482959,
        "walking_time": "약 12분"
      },
      {
        "self_laundromat_lat": 37.52725253,
        "self_laundromat_lon": 126.8605163,
        "self_laundromat_type": "셀프 빨래방",
        "self_laundromat_name": "덱스터24시셀프빨래방 신정점",
        "distance": 781.5314550482959,
        "walking_time": "약 12분"
      },
      {
        "self_laundromat_lat": 37.53910356,
        "self_laundromat_lon": 126.8696592,
        "self_laundromat_type": "셀프 빨래방",
        "self_laundromat_name": "워시프렌즈 양천구목4동점",
        "distance": 782.2521414144592,
        "walking_time": "약 12분"
      },
      {
        "self_laundromat_lat": 37.53910356,
        "self_laundromat_lon": 126.8696592,
        "self_laundromat_type": "셀프 빨래방",
        "self_laundromat_name": "워시프렌즈 양천구목4동점",
        "distance": 782.2521414144592,
        "walking_time": "약 12분"
      }
    ],
    "subway": [
      {
        "subway_lat": 37.52619868083,
        "subway_lon": 126.864742584692,
        "subway_type": "지하철",
        "subway_name": "5호선-목동역",
        "distance": 842.3104947017966,
        "walking_time": "약 13분"
      },
      {
        "subway_lat": 37.5254310537504,
        "subway_lon": 126.857262256115,
        "subway_type": "지하철",
        "subway_name": "5호선-신정(은행정)역",
        "distance": 1094.7093776165505,
        "walking_time": "약 17분"
      },
      {
        "subway_lat": 37.5244500703802,
        "subway_lon": 126.875354626254,
        "subway_type": "지하철",
        "subway_name": "5호선-오목교(목동운동장앞)역",
        "distance": 1444.4935163959017,
        "walking_time": "약 22분"
      }
    ],
    "supermarket": [
      {
        "supermarket_lat": 37.53307069,
        "supermarket_lon": 126.8589518,
        "supermarket_type": "마트",
        "supermarket_name": "씨에스유통 (롯데슈퍼화곡2점)",
        "distance": 443.67092253848455,
        "walking_time": "약 7분"
      },
      {
        "supermarket_lat": 37.53913742,
        "supermarket_lon": 126.8663366,
        "supermarket_type": "마트",
        "supermarket_name": "목동시장아울렛",
        "distance": 636.6114114860001,
        "walking_time": "약 10분"
      },
      {
        "supermarket_lat": 37.53151635,
        "supermarket_lon": 126.8709047,
        "supermarket_type": "마트",
        "supermarket_name": "(주)이마트에브리데이 목동점",
        "distance": 664.6215515542987,
        "walking_time": "약 10분"
      },
      {
        "supermarket_lat": 37.5342244,
        "supermarket_lon": 126.874169,
        "supermarket_type": "마트",
        "supermarket_name": "롯데슈퍼 목동2점",
        "distance": 906.0860243147304,
        "walking_time": "약 14분"
      },
      {
        "supermarket_lat": 37.52486922,
        "supermarket_lon": 126.8643243,
        "supermarket_type": "마트",
        "supermarket_name": "(주)이마트에브리데이 목동역점",
        "distance": 987.6144092025888,
        "walking_time": "약 15분"
      },
      {
        "supermarket_lat": 37.5260837,
        "supermarket_lon": 126.8703553,
        "supermarket_type": "마트",
        "supermarket_name": "(주)이마트 목동점",
        "distance": 1024.0402011563622,
        "walking_time": "약 16분"
      },
      {
        "supermarket_lat": 37.52921099,
        "supermarket_lon": 126.8759847,
        "supermarket_type": "마트",
        "supermarket_name": "행복한백화점",
        "distance": 1177.9923876227283,
        "walking_time": "약 18분"
      },
      {
        "supermarket_lat": 37.52732178,
        "supermarket_lon": 126.8746191,
        "supermarket_type": "마트",
        "supermarket_name": "현대백화점목동점",
        "distance": 1183.9464495751,
        "walking_time": "약 18분"
      },
      {
        "supermarket_lat": 37.54513461,
        "supermarket_lon": 126.8626078,
        "supermarket_type": "마트",
        "supermarket_name": "홈플러스(주)익스프레스 목동2점",
        "distance": 1271.6686225266085,
        "walking_time": "약 19분"
      },
      {
        "supermarket_lat": 37.54420286,
        "supermarket_lon": 126.8703955,
        "supermarket_type": "마트",
        "supermarket_name": "GS THE FRESH 양천목2동점",
        "distance": 1295.8149338466922,
        "walking_time": "약 20분"
      }
    ],
    "tax_office": [
      {
        "tax_office_lat": 37.52054181,
        "tax_office_lon": 126.8699377,
        "tax_office_type": "세무서",
        "tax_office_name": "양천세무서",
        "distance": 1561.362311965611,
        "walking_time": "약 24분"
      }
    ],
    "theater": [
      {
        "theater_lat": 37.5292109947037,
        "theater_lon": 126.875984665042,
        "theater_type": "영화관",
        "theater_name": "메가박스중앙(주) 목동지점",
        "distance": 1177.9893777440266,
        "walking_time": "약 18분"
      },
      {
        "theater_lat": 37.5273217750941,
        "theater_lon": 126.874619136454,
        "theater_type": "영화관",
        "theater_name": "메가박스중앙(주)더부티크목동현대백화점",
        "distance": 1183.9493424231562,
        "walking_time": "약 18분"
      }
    ],
    "university": [
      {
        "university_lat": 37.5486692406973,
        "university_lon": 126.854134828868,
        "university_type": "대학교",
        "university_name": "강서대학교",
        "distance": 1869.997969929784,
        "walking_time": "약 28분"
      }
    ]
  }
}