{
  "클러스터_위도": 37.61769660008704,
  "클러스터_경도": 127.05877960000733,
  "클러스터_level": 3.0,
  "facilities": {
    "bus": [
      {
        "bus_lat": 37.61708085,
        "bus_lon": 127.0586613,
        "bus_type": "버스정류장",
        "bus_name": "동신아파트",
        "distance": 69.25658661543278,
        "walking_time": "약 2분"
      },
      {
        "bus_lat": 37.6181959,
        "bus_lon": 127.0596523,
        "bus_type": "버스정류장",
        "bus_name": "삼창아파트",
        "distance": 94.8191423346038,
        "walking_time": "약 2분"
      },
      {
        "bus_lat": 37.61658011,
        "bus_lon": 127.057125,
        "bus_type": "버스정류장",
        "bus_name": "장위3동주민센터",
        "distance": 191.44511561233483,
        "walking_time": "약 3분"
      },
      {
        "bus_lat": 37.61730405,
        "bus_lon": 127.0609645,
        "bus_type": "버스정류장",
        "bus_name": "동신아파트",
        "distance": 197.3295403289542,
        "walking_time": "약 3분"
      },
      {
        "bus_lat": 37.616156,
        "bus_lon": 127.0575142,
        "bus_type": "버스정류장",
        "bus_name": "장위3동주민센터",
        "distance": 204.37265921184616,
        "walking_time": "약 4분"
      },
      {
        "bus_lat": 37.61648862,
        "bus_lon": 127.0568878,
        "bus_type": "버스정류장",
        "bus_name": "장위3동주민센터",
        "distance": 214.0248317931834,
        "walking_time": "약 4분"
      },
      {
        "bus_lat": 37.61638067,
        "bus_lon": 127.0569016,
        "bus_type": "버스정류장",
        "bus_name": "장위3동주민센터",
        "distance": 220.8434171729824,
        "walking_time": "약 4분"
      },
      {
        "bus_lat": 37.61894849,
        "bus_lon": 127.05653,
        "bus_type": "버스정류장",
        "bus_name": "광운중.광운인공지능고등학교",
        "distance": 242.14928271615625,
        "walking_time": "약 4분"
      },
      {
        "bus_lat": 37.61670624,
        "bus_lon": 127.0563241,
        "bus_type": "버스정류장",
        "bus_name": "우리랜드사우나",
        "distance": 242.69819394974184,
        "walking_time": "약 4분"
      },
      {
        "bus_lat": 37.61984293,
        "bus_lon": 127.0581458,
        "bus_type": "버스정류장",
        "bus_name": "광운대학교",
        "distance": 245.10254224786271,
        "walking_time": "약 4분"
      }
    ],
    "community_center": [
      {
        "community_center_lat": 37.61514677,
        "community_center_lon": 127.0553813,
        "community_center_type": "주민센터",
        "community_center_name": "장위3동 자치회관",
        "distance": 412.28666148254393,
        "walking_time": "약 7분"
      },
      {
        "community_center_lat": 37.61999186,
        "community_center_lon": 127.0628833,
        "community_center_type": "주민센터",
        "community_center_name": "월계1동 자치회관",
        "distance": 442.4655287685241,
        "walking_time": "약 7분"
      },
      {
        "community_center_lat": 37.61297096,
        "community_center_lon": 127.0614241,
        "community_center_type": "주민센터",
        "community_center_name": "석관동 자치회관",
        "distance": 574.7795725935179,
        "walking_time": "약 9분"
      },
      {
        "community_center_lat": 37.61239016,
        "community_center_lon": 127.0544978,
        "community_center_type": "주민센터",
        "community_center_name": "장위2동 자치회관",
        "distance": 700.282703329928,
        "walking_time": "약 11분"
      },
      {
        "community_center_lat": 37.62100498,
        "community_center_lon": 127.0692318,
        "community_center_type": "주민센터",
        "community_center_name": "월계3동 자치회관",
        "distance": 991.3666905076954,
        "walking_time": "약 15분"
      },
      {
        "community_center_lat": 37.61406942,
        "community_center_lon": 127.0436684,
        "community_center_type": "주민센터",
        "community_center_name": "장위1동 자치회관",
        "distance": 1390.7579526766842,
        "walking_time": "약 21분"
      },
      {
        "community_center_lat": 37.62586737,
        "community_center_lon": 127.0465907,
        "community_center_type": "주민센터",
        "community_center_name": "번3동 자치회관",
        "distance": 1406.372780273424,
        "walking_time": "약 21분"
      },
      {
        "community_center_lat": 37.60577914,
        "community_center_lon": 127.0478706,
        "community_center_type": "주민센터",
        "community_center_name": "월곡2동 자치회관",
        "distance": 1636.8907179809464,
        "walking_time": "약 25분"
      },
      {
        "community_center_lat": 37.60339461,
        "community_center_lon": 127.0651361,
        "community_center_type": "주민센터",
        "community_center_name": "이문2동 자치회관",
        "distance": 1685.9986641167366,
        "walking_time": "약 26분"
      }
    ],
    "convenience_store": [
      {
        "convenience_store_lat": 37.61814192,
        "convenience_store_lon": 127.0592853,
        "convenience_store_type": "편의점",
        "convenience_store_name": "세븐일레븐 광운대원룸점",
        "distance": 66.60210599063585,
        "walking_time": "약 1분"
      },
      {
        "convenience_store_lat": 37.61843449,
        "convenience_store_lon": 127.0572444,
        "convenience_store_type": "편의점",
        "convenience_store_name": "GS25 광운선곡점",
        "distance": 158.1630007612856,
        "walking_time": "약 3분"
      },
      {
        "convenience_store_lat": 37.61937913,
        "convenience_store_lon": 127.0582634,
        "convenience_store_type": "편의점",
        "convenience_store_name": "CU 유니쿱광운대점",
        "distance": 192.5338829621983,
        "walking_time": "약 3분"
      },
      {
        "convenience_store_lat": 37.61937913,
        "convenience_store_lon": 127.0582634,
        "convenience_store_type": "편의점",
        "convenience_store_name": "미니스톱 광운스퀘어점",
        "distance": 192.5338829621983,
        "walking_time": "약 3분"
      },
      {
        "convenience_store_lat": 37.61937913,
        "convenience_store_lon": 127.0582634,
        "convenience_store_type": "편의점",
        "convenience_store_name": "GS25 광운문화관점",
        "distance": 192.5338829621983,
        "walking_time": "약 3분"
      },
      {
        "convenience_store_lat": 37.62022504,
        "convenience_store_lon": 127.058323,
        "convenience_store_type": "편의점",
        "convenience_store_name": "세븐일레븐 광운대정문점",
        "distance": 284.01133784007624,
        "walking_time": "약 5분"
      },
      {
        "convenience_store_lat": 37.62154949,
        "convenience_store_lon": 127.0579508,
        "convenience_store_type": "편의점",
        "convenience_store_name": "CU 광운대원룸점",
        "distance": 434.59612085767,
        "walking_time": "약 7분"
      },
      {
        "convenience_store_lat": 37.62051498,
        "convenience_store_lon": 127.0627042,
        "convenience_store_type": "편의점",
        "convenience_store_name": "GS25 광운로드점",
        "distance": 466.5788873727345,
        "walking_time": "약 7분"
      },
      {
        "convenience_store_lat": 37.61668253,
        "convenience_store_lon": 127.0645625,
        "convenience_store_type": "편의점",
        "convenience_store_name": "GS25 노원석계역점",
        "distance": 521.6796605424796,
        "walking_time": "약 8분"
      },
      {
        "convenience_store_lat": 37.61320046,
        "convenience_store_lon": 127.0629313,
        "convenience_store_type": "편의점",
        "convenience_store_name": "세븐일레븐 석계화랑로점",
        "distance": 619.4126168281774,
        "walking_time": "약 10분"
      }
    ],
    "daycare": [
      {
        "daycare_lat": 37.61829936,
        "daycare_lon": 127.0599682,
        "daycare_type": "어린이집",
        "daycare_name": "삼창어린이집",
        "distance": 124.3057047494501,
        "walking_time": "약 2분"
      },
      {
        "daycare_lat": 37.61703948,
        "daycare_lon": 127.0611836,
        "daycare_type": "어린이집",
        "daycare_name": "월계아장아장어린이집",
        "distance": 223.99248621806225,
        "walking_time": "약 4분"
      },
      {
        "daycare_lat": 37.61703948,
        "daycare_lon": 127.0611836,
        "daycare_type": "어린이집",
        "daycare_name": "동신베베어린이집",
        "distance": 223.99248621806225,
        "walking_time": "약 4분"
      },
      {
        "daycare_lat": 37.61653879,
        "daycare_lon": 127.0565877,
        "daycare_type": "어린이집",
        "daycare_name": "품속어린이집",
        "distance": 232.0482332665752,
        "walking_time": "약 4분"
      },
      {
        "daycare_lat": 37.61759246,
        "daycare_lon": 127.0557316,
        "daycare_type": "어린이집",
        "daycare_name": "성북청소년수련관 방과후교실 어린이집",
        "distance": 268.71043178452624,
        "walking_time": "약 5분"
      },
      {
        "daycare_lat": 37.61531493,
        "daycare_lon": 127.0570064,
        "daycare_type": "어린이집",
        "daycare_name": "장석어린이집",
        "distance": 307.45320590378776,
        "walking_time": "약 5분"
      },
      {
        "daycare_lat": 37.61485398191325,
        "daycare_lon": 127.05921859766477,
        "daycare_type": "어린이집",
        "daycare_name": "초롱 어린이집",
        "distance": 318.4409783349412,
        "walking_time": "약 5분"
      },
      {
        "daycare_lat": 37.61482602,
        "daycare_lon": 127.0591953,
        "daycare_type": "어린이집",
        "daycare_name": "녹색어린이집",
        "distance": 321.2870989837309,
        "walking_time": "약 5분"
      },
      {
        "daycare_lat": 37.61915737107874,
        "daycare_lon": 127.06219647679448,
        "daycare_type": "어린이집",
        "daycare_name": "현대아이들세상어린이집",
        "distance": 341.9838866866874,
        "walking_time": "약 6분"
      },
      {
        "daycare_lat": 37.61849455,
        "daycare_lon": 127.0626447,
        "daycare_type": "어린이집",
        "daycare_name": "똑똑이어린이집",
        "distance": 351.7999575180297,
        "walking_time": "약 6분"
      }
    ],
    "education": [
      {
        "education_lat": 37.61932035,
        "education_lon": 127.0583381,
        "education_type": "공연장",
        "education_name": "광운대학교동해문화예술관",
        "distance": 184.6927332497233,
        "walking_time": "약 3분"
      },
      {
        "education_lat": 37.61348164414527,
        "education_lon": 127.06543951524604,
        "education_type": "도서관",
        "education_name": "석관동미리내도서관",
        "distance": 750.8457595987799,
        "walking_time": "약 12분"
      },
      {
        "education_lat": 37.62863772,
        "education_lon": 127.0561228,
        "education_type": "도서관",
        "education_name": "월계도서관",
        "distance": 1238.8940392380932,
        "walking_time": "약 19분"
      },
      {
        "education_lat": 37.62025446,
        "education_lon": 127.0443247,
        "education_type": "공연장",
        "education_name": "북서울꿈의숲아트센터 퍼포먼스홀",
        "distance": 1304.5148392741407,
        "walking_time": "약 20분"
      },
      {
        "education_lat": 37.62025446,
        "education_lon": 127.0443247,
        "education_type": "공연장",
        "education_name": "북서울꿈의숲아트센터",
        "distance": 1304.5148392741407,
        "walking_time": "약 20분"
      },
      {
        "education_lat": 37.62025446,
        "education_lon": 127.0443247,
        "education_type": "미술관/갤러리",
        "education_name": "북서울꿈의숲아트센터 드림갤러리",
        "distance": 1304.5148392741407,
        "walking_time": "약 20분"
      },
      {
        "education_lat": 37.61501747,
        "education_lon": 127.0440686,
        "education_type": "박물관/기념관",
        "education_name": "김중업 건축문화의집",
        "distance": 1329.5385335593612,
        "walking_time": "약 20분"
      },
      {
        "education_lat": 37.62879899,
        "education_lon": 127.0698009,
        "education_type": "문화원",
        "education_name": "노원문화원",
        "distance": 1570.4263404639707,
        "walking_time": "약 24분"
      },
      {
        "education_lat": 37.60500291,
        "education_lon": 127.0507422,
        "education_type": "도서관",
        "education_name": "성북정보도서관",
        "distance": 1579.0782354395265,
        "walking_time": "약 24분"
      },
      {
        "education_lat": 37.60497289,
        "education_lon": 127.0505855,
        "education_type": "공연장",
        "education_name": "천장산우화극장",
        "distance": 1588.287581720075,
        "walking_time": "약 24분"
      }
    ],
    "electric_gas_station": [
      {
        "electric_gas_station_lat": 37.60939144,
        "electric_gas_station_lon": 127.0532211,
        "electric_gas_station_type": "전기차 충전소",
        "electric_gas_station_name": "성북벤처빌딩 공영주차장",
        "distance": 1045.251989553709,
        "walking_time": "약 16분"
      },
      {
        "electric_gas_station_lat": 37.60182774,
        "electric_gas_station_lon": 127.0404635,
        "electric_gas_station_type": "전기차 충전소",
        "electric_gas_station_name": "홈플러스 월곡점",
        "distance": 2390.958861905337,
        "walking_time": "약 36분"
      }
    ],
    "fitness": [
      {
        "fitness_lat": 37.62089604,
        "fitness_lon": 127.0587957,
        "fitness_type": "운동시설",
        "fitness_name": "크로스핏 타키온",
        "distance": 355.7643124323445,
        "walking_time": "약 6분"
      },
      {
        "fitness_lat": 37.62107059,
        "fitness_lon": 127.0589143,
        "fitness_type": "운동시설",
        "fitness_name": "엔비짐PT",
        "distance": 375.35809460238295,
        "walking_time": "약 6분"
      },
      {
        "fitness_lat": 37.62183998,
        "fitness_lon": 127.0597474,
        "fitness_type": "운동시설",
        "fitness_name": "머슬톡 휘트니스",
        "distance": 468.541604687442,
        "walking_time": "약 7분"
      },
      {
        "fitness_lat": 37.61459856,
        "fitness_lon": 127.063357,
        "fitness_type": "운동시설",
        "fitness_name": "하디핏",
        "distance": 530.3026223207555,
        "walking_time": "약 8분"
      },
      {
        "fitness_lat": 37.614953,
        "fitness_lon": 127.0640434,
        "fitness_type": "운동시설",
        "fitness_name": "부르스타짐(주)",
        "distance": 554.9996737396153,
        "walking_time": "약 9분"
      },
      {
        "fitness_lat": 37.62290695,
        "fitness_lon": 127.0609378,
        "fitness_type": "운동시설",
        "fitness_name": "oneday PT",
        "distance": 609.7495758844417,
        "walking_time": "약 10분"
      },
      {
        "fitness_lat": 37.61232063,
        "fitness_lon": 127.0602018,
        "fitness_type": "운동시설",
        "fitness_name": "아크로짐 돌곶이점 24시 휘트니스",
        "distance": 610.7649714520231,
        "walking_time": "약 10분"
      },
      {
        "fitness_lat": 37.61510196,
        "fitness_lon": 127.0649828,
        "fitness_type": "운동시설",
        "fitness_name": "휘트니스꿈&필라테스",
        "distance": 617.8685946490049,
        "walking_time": "약 10분"
      },
      {
        "fitness_lat": 37.62315877,
        "fitness_lon": 127.0604122,
        "fitness_type": "운동시설",
        "fitness_name": "버닝존",
        "distance": 624.1542988050048,
        "walking_time": "약 10분"
      },
      {
        "fitness_lat": 37.62328878,
        "fitness_lon": 127.0609506,
        "fitness_type": "운동시설",
        "fitness_name": "바디온 피트니스",
        "distance": 650.5564202845778,
        "walking_time": "약 10분"
      }
    ],
    "gas_station": [
      {
        "gas_station_lat": 37.61363831,
        "gas_station_lon": 127.0602167,
        "gas_station_type": "주유소",
        "gas_station_name": "현대오일뱅크(주)직영 장삼주유소",
        "distance": 468.6781220531229,
        "walking_time": "약 7분"
      },
      {
        "gas_station_lat": 37.61261571,
        "gas_station_lon": 127.0614001,
        "gas_station_type": "주유소",
        "gas_station_name": "우리주유소",
        "distance": 610.2998496922735,
        "walking_time": "약 10분"
      },
      {
        "gas_station_lat": 37.61495967,
        "gas_station_lon": 127.0527678,
        "gas_station_type": "주유소",
        "gas_station_name": "원천주유소",
        "distance": 610.7408472963538,
        "walking_time": "약 10분"
      },
      {
        "gas_station_lat": 37.62601324,
        "gas_station_lon": 127.0599638,
        "gas_station_type": "주유소",
        "gas_station_name": "성북역주유소",
        "distance": 930.6308349755892,
        "walking_time": "약 14분"
      },
      {
        "gas_station_lat": 37.62444137,
        "gas_station_lon": 127.0507579,
        "gas_station_type": "주유소",
        "gas_station_name": "월계주유소",
        "distance": 1030.3489366172084,
        "walking_time": "약 16분"
      },
      {
        "gas_station_lat": 37.62876884,
        "gas_station_lon": 127.0573739,
        "gas_station_type": "주유소",
        "gas_station_name": "신성주유소",
        "distance": 1237.385705352381,
        "walking_time": "약 19분"
      },
      {
        "gas_station_lat": 37.62163476,
        "gas_station_lon": 127.0455418,
        "gas_station_type": "주유소",
        "gas_station_name": "에덴주유소",
        "distance": 1245.4461933283103,
        "walking_time": "약 19분"
      },
      {
        "gas_station_lat": 37.60786905,
        "gas_station_lon": 127.0507396,
        "gas_station_type": "주유소",
        "gas_station_name": "지에스칼텍스(주)화랑주유소",
        "distance": 1302.1861570161732,
        "walking_time": "약 20분"
      },
      {
        "gas_station_lat": 37.60690716,
        "gas_station_lon": 127.0500906,
        "gas_station_type": "주유소",
        "gas_station_name": "㈜신용구도일주유소 화랑로",
        "distance": 1423.0718643049431,
        "walking_time": "약 22분"
      },
      {
        "gas_station_lat": 37.6166167,
        "gas_station_lon": 127.0414116,
        "gas_station_type": "주유소",
        "gas_station_name": "SK에너지(주)드림랜드주유소",
        "distance": 1534.449045251,
        "walking_time": "약 23분"
      }
    ],
    "hospital": [
      {
        "hospital_lat": 37.6166979,
        "hospital_lon": 127.06262,
        "hospital_type": "병원",
        "hospital_name": "고성종의원",
        "distance": 356.0183120397569,
        "walking_time": "약 6분"
      },
      {
        "hospital_lat": 37.61597043,
        "hospital_lon": 127.0552386,
        "hospital_type": "병원",
        "hospital_name": "성북휴메디의원",
        "distance": 366.2167088624847,
        "walking_time": "약 6분"
      },
      {
        "hospital_lat": 37.61694569,
        "hospital_lon": 127.0629297,
        "hospital_type": "병원",
        "hospital_name": "연세미치과의원",
        "distance": 374.94806853777015,
        "walking_time": "약 6분"
      },
      {
        "hospital_lat": 37.61706589,
        "hospital_lon": 127.06308,
        "hospital_type": "병원",
        "hospital_name": "경희김영환한의원",
        "distance": 385.2085995306456,
        "walking_time": "약 6분"
      },
      {
        "hospital_lat": 37.62150732,
        "hospital_lon": 127.0590553,
        "hospital_type": "병원",
        "hospital_name": "예원내과의원",
        "distance": 424.4279125594863,
        "walking_time": "약 7분"
      },
      {
        "hospital_lat": 37.61767824,
        "hospital_lon": 127.06385,
        "hospital_type": "병원",
        "hospital_name": "해소아청소년과의원",
        "distance": 446.5935343607678,
        "walking_time": "약 7분"
      },
      {
        "hospital_lat": 37.61561459,
        "hospital_lon": 127.0633923,
        "hospital_type": "병원",
        "hospital_name": "김태희한의원",
        "distance": 467.61196472198736,
        "walking_time": "약 7분"
      },
      {
        "hospital_lat": 37.61561459,
        "hospital_lon": 127.0633923,
        "hospital_type": "병원",
        "hospital_name": "전재현한의원",
        "distance": 467.61196472198736,
        "walking_time": "약 7분"
      },
      {
        "hospital_lat": 37.62217456,
        "hospital_lon": 127.0596452,
        "hospital_type": "병원",
        "hospital_name": "선진한의원",
        "distance": 503.7290051293935,
        "walking_time": "약 8분"
      },
      {
        "hospital_lat": 37.61490402,
        "hospital_lon": 127.0636521,
        "hospital_type": "병원",
        "hospital_name": "더조은요양병원",
        "distance": 529.7233706912969,
        "walking_time": "약 8분"
      }
    ],
    "music_room": [
      {
        "music_room_lat": 37.62107059,
        "music_room_lon": 127.0589143,
        "music_room_type": "노래방",
        "music_room_name": "리코스타코인 노래연습장(광운대점)",
        "distance": 375.35809460238295,
        "walking_time": "약 6분"
      },
      {
        "music_room_lat": 37.61596889,
        "music_room_lon": 127.0635057,
        "music_room_type": "노래방",
        "music_room_name": "노다지 노래연습장",
        "distance": 458.4612648947783,
        "walking_time": "약 7분"
      },
      {
        "music_room_lat": 37.61672145,
        "music_room_lon": 127.063907,
        "music_room_type": "노래방",
        "music_room_name": "썸 노래연습장",
        "distance": 464.44700581719417,
        "walking_time": "약 7분"
      },
      {
        "music_room_lat": 37.61561459,
        "music_room_lon": 127.0633923,
        "music_room_type": "노래방",
        "music_room_name": "빛나리노래연습장",
        "distance": 467.61196472198736,
        "walking_time": "약 7분"
      },
      {
        "music_room_lat": 37.61588792,
        "music_room_lon": 127.063621,
        "music_room_type": "노래방",
        "music_room_name": "스타",
        "distance": 471.47140161808846,
        "walking_time": "약 8분"
      },
      {
        "music_room_lat": 37.61668267,
        "music_room_lon": 127.0641368,
        "music_room_type": "노래방",
        "music_room_name": "오디션",
        "distance": 485.1351852053416,
        "walking_time": "약 8분"
      },
      {
        "music_room_lat": 37.61593802,
        "music_room_lon": 127.0639331,
        "music_room_type": "노래방",
        "music_room_name": "킹카 노래연습장",
        "distance": 494.242169737005,
        "walking_time": "약 8분"
      },
      {
        "music_room_lat": 37.61630689,
        "music_room_lon": 127.0642583,
        "music_room_type": "노래방",
        "music_room_name": "만점 노래연습장",
        "distance": 506.6940443743536,
        "walking_time": "약 8분"
      },
      {
        "music_room_lat": 37.61585296,
        "music_room_lon": 127.0641147,
        "music_room_type": "노래방",
        "music_room_name": "팝콘노래연습장",
        "distance": 512.6798925049559,
        "walking_time": "약 8분"
      },
      {
        "music_room_lat": 37.61614469,
        "music_room_lon": 127.0643039,
        "music_room_type": "노래방",
        "music_room_name": "놀러와 노래연습장",
        "distance": 516.2665450963813,
        "walking_time": "약 8분"
      }
    ],
    "park": [
      {
        "park_lat": 37.6233355,
        "park_lon": 127.0407344,
        "park_type": "공원",
        "park_name": "북서울꿈의숲",
        "distance": 1708.5323048551684,
        "walking_time": "약 26분"
      },
      {
        "park_lat": 37.6020055,
        "park_lon": 127.0511145,
        "park_type": "공원",
        "park_name": "청량공원",
        "distance": 1870.8589612049352,
        "walking_time": "약 28분"
      }
    ],
    "park_station": [
      {
        "park_station_lat": 37.61544723,
        "park_station_lon": 127.0624695,
        "park_station_type": "주차장",
        "park_station_name": "석계역 공영주차장",
        "distance": 410.10480323395296,
        "walking_time": "약 7분"
      },
      {
        "park_station_lat": 37.61714571,
        "park_station_lon": 127.0532218,
        "park_station_type": "주차장",
        "park_station_name": "마을공원",
        "distance": 493.3374318340564,
        "walking_time": "약 8분"
      },
      {
        "park_station_lat": 37.61565507,
        "park_station_lon": 127.065157,
        "park_station_type": "주차장",
        "park_station_name": "석계역 앞",
        "distance": 605.8507556679313,
        "walking_time": "약 10분"
      },
      {
        "park_station_lat": 37.60939144,
        "park_station_lon": 127.0532211,
        "park_station_type": "주차장",
        "park_station_name": "벤처빌딩",
        "distance": 1045.251989553709,
        "walking_time": "약 16분"
      },
      {
        "park_station_lat": 37.61024851,
        "park_station_lon": 127.0498143,
        "park_station_type": "주차장",
        "park_station_name": "장위전통시장 공영주차장",
        "distance": 1144.3320899098098,
        "walking_time": "약 18분"
      },
      {
        "park_station_lat": 37.61468486,
        "park_station_lon": 127.0409896,
        "park_station_type": "주차장",
        "park_station_name": "동방고개",
        "distance": 1602.3201131015985,
        "walking_time": "약 24분"
      }
    ],
    "pc_room": [
      {
        "pc_room_lat": 37.6213540254339,
        "pc_room_lon": 127.059484847843,
        "pc_room_type": "PC방",
        "pc_room_name": "레드포스PC아레나 광운대점",
        "distance": 411.4033414327956,
        "walking_time": "약 7분"
      },
      {
        "pc_room_lat": 37.6216626945733,
        "pc_room_lon": 127.05950299102,
        "pc_room_type": "PC방",
        "pc_room_name": "닥터PC",
        "distance": 445.58813248245735,
        "walking_time": "약 7분"
      },
      {
        "pc_room_lat": 37.6156145903995,
        "pc_room_lon": 127.063392316941,
        "pc_room_type": "PC방",
        "pc_room_name": "명신PC",
        "distance": 467.6132391680133,
        "walking_time": "약 7분"
      },
      {
        "pc_room_lat": 37.6218399755136,
        "pc_room_lon": 127.059747350877,
        "pc_room_type": "PC방",
        "pc_room_name": "엔탑PC방",
        "distance": 468.5403270677291,
        "walking_time": "약 7분"
      },
      {
        "pc_room_lat": 37.6145985647647,
        "pc_room_lon": 127.063357022491,
        "pc_room_type": "PC방",
        "pc_room_name": "궁전 PC",
        "distance": 530.303784244832,
        "walking_time": "약 8분"
      },
      {
        "pc_room_lat": 37.6140180080303,
        "pc_room_lon": 127.063282003508,
        "pc_room_type": "PC방",
        "pc_room_name": "석계PC",
        "distance": 569.7216724325684,
        "walking_time": "약 9분"
      },
      {
        "pc_room_lat": 37.6228376867667,
        "pc_room_lon": 127.060712349808,
        "pc_room_type": "PC방",
        "pc_room_name": "아레나PC방",
        "distance": 596.4689799772962,
        "walking_time": "약 9분"
      },
      {
        "pc_room_lat": 37.6233163314976,
        "pc_room_lon": 127.060282176416,
        "pc_room_type": "PC방",
        "pc_room_name": "바닐라성북역 PC방",
        "distance": 638.7452417476233,
        "walking_time": "약 10분"
      },
      {
        "pc_room_lat": 37.6177100595708,
        "pc_room_lon": 127.051043617995,
        "pc_room_type": "PC방",
        "pc_room_name": "라이킷 PC",
        "distance": 681.3685407304682,
        "walking_time": "약 11분"
      },
      {
        "pc_room_lat": 37.6116527837593,
        "pc_room_lon": 127.062168367532,
        "pc_room_type": "PC방",
        "pc_room_name": "대박 PC (성인PC방)",
        "distance": 735.3464482635995,
        "walking_time": "약 11분"
      }
    ],
    "police_office": [
      {
        "police_office_lat": 37.61945666,
        "police_office_lon": 127.0538037,
        "police_office_type": "경찰소",
        "police_office_name": "장위지구대",
        "distance": 479.9733138656686,
        "walking_time": "약 8분"
      },
      {
        "police_office_lat": 37.60895875,
        "police_office_lon": 127.0552686,
        "police_office_type": "경찰소",
        "police_office_name": "석관파출소",
        "distance": 1019.6354536111954,
        "walking_time": "약 16분"
      },
      {
        "police_office_lat": 37.62362546,
        "police_office_lon": 127.04813,
        "police_office_type": "경찰소",
        "police_office_name": "번3파출소",
        "distance": 1146.464373060869,
        "walking_time": "약 18분"
      }
    ],
    "post_office": [
      {
        "post_office_lat": 37.61937913,
        "post_office_lon": 127.0582634,
        "post_office_type": "우체국",
        "post_office_name": "광운대학교우편취급국",
        "distance": 192.5338829621983,
        "walking_time": "약 3분"
      },
      {
        "post_office_lat": 37.61165278,
        "post_office_lon": 127.0621684,
        "post_office_type": "우체국",
        "post_office_name": "서울석관1동우편취급국",
        "distance": 735.3479911374332,
        "walking_time": "약 11분"
      },
      {
        "post_office_lat": 37.62090624,
        "post_office_lon": 127.0690603,
        "post_office_type": "우체국",
        "post_office_name": "서울월계3동우체국",
        "distance": 973.2773547196506,
        "walking_time": "약 15분"
      },
      {
        "post_office_lat": 37.60876795,
        "post_office_lon": 127.0524242,
        "post_office_type": "우체국",
        "post_office_name": "서울석관동우체국",
        "distance": 1139.7680474137103,
        "walking_time": "약 18분"
      },
      {
        "post_office_lat": 37.62849997,
        "post_office_lon": 127.0559178,
        "post_office_type": "우체국",
        "post_office_name": "서울월계2동우체국",
        "distance": 1227.4358445350767,
        "walking_time": "약 19분"
      },
      {
        "post_office_lat": 37.62571443,
        "post_office_lon": 127.0462356,
        "post_office_type": "우체국",
        "post_office_name": "서울번3동우체국",
        "distance": 1419.6477468661908,
        "walking_time": "약 22분"
      },
      {
        "post_office_lat": 37.6138091,
        "post_office_lon": 127.0432464,
        "post_office_type": "우체국",
        "post_office_name": "서울장위1동우편취급국",
        "distance": 1434.826869580117,
        "walking_time": "약 22분"
      },
      {
        "post_office_lat": 37.6061912,
        "post_office_lon": 127.0405704,
        "post_office_type": "우체국",
        "post_office_name": "서울월곡1동우편취급국",
        "distance": 2051.6732253559176,
        "walking_time": "약 31분"
      }
    ],
    "public_health_center": [
      {
        "public_health_center_lat": 37.61047326,
        "public_health_center_lon": 127.0634208,
        "public_health_center_type": "보건소",
        "public_health_center_name": "장위석관보건지소",
        "distance": 901.2493587424376,
        "walking_time": "약 14분"
      }
    ],
    "school": [
      {
        "school_lat": 37.618602019203,
        "school_lon": 127.057730270535,
        "school_type": "초등학교",
        "school_name": "서울선곡초등학교",
        "distance": 136.6669962998911,
        "walking_time": "약 3분"
      },
      {
        "school_lat": 37.6192431974844,
        "school_lon": 127.056540751938,
        "school_type": "고등학교",
        "school_name": "광운인공지능고등학교",
        "distance": 261.6467628216008,
        "walking_time": "약 4분"
      },
      {
        "school_lat": 37.6192431974844,
        "school_lon": 127.056540751938,
        "school_type": "중학교",
        "school_name": "광운중학교",
        "distance": 261.6467628216008,
        "walking_time": "약 4분"
      },
      {
        "school_lat": 37.6185360086599,
        "school_lon": 127.055981121102,
        "school_type": "중학교",
        "school_name": "남대문중학교",
        "distance": 263.5628056609285,
        "walking_time": "약 4분"
      },
      {
        "school_lat": 37.6189751371516,
        "school_lon": 127.055243952183,
        "school_type": "초등학교",
        "school_name": "광운초등학교",
        "distance": 342.3256506971008,
        "walking_time": "약 6분"
      },
      {
        "school_lat": 37.6110220564376,
        "school_lon": 127.058355255147,
        "school_type": "초등학교",
        "school_name": "서울석관초등학교",
        "distance": 743.1159730366363,
        "walking_time": "약 12분"
      },
      {
        "school_lat": 37.6168600216767,
        "school_lon": 127.048151233375,
        "school_type": "초등학교",
        "school_name": "서울장곡초등학교",
        "distance": 940.7371325572076,
        "walking_time": "약 15분"
      },
      {
        "school_lat": 37.6207501680548,
        "school_lon": 127.069258063469,
        "school_type": "초등학교",
        "school_name": "서울한천초등학교",
        "distance": 983.3775151324262,
        "walking_time": "약 15분"
      },
      {
        "school_lat": 37.6114425067997,
        "school_lon": 127.050006419755,
        "school_type": "초등학교",
        "school_name": "서울장위초등학교",
        "distance": 1039.596850115744,
        "walking_time": "약 16분"
      },
      {
        "school_lat": 37.6219292248914,
        "school_lon": 127.047320465849,
        "school_type": "초등학교",
        "school_name": "서울장월초등학교",
        "distance": 1113.6081726915943,
        "walking_time": "약 17분"
      }
    ],
    "self_laundromat": [
      {
        "self_laundromat_lat": 37.61101318,
        "self_laundromat_lon": 127.0619897,
        "self_laundromat_type": "셀프 빨래방",
        "self_laundromat_name": "워시콥셀프빨래방석관동얼음왕국",
        "distance": 795.1341542541538,
        "walking_time": "약 12분"
      },
      {
        "self_laundromat_lat": 37.61101318,
        "self_laundromat_lon": 127.0619897,
        "self_laundromat_type": "셀프 빨래방",
        "self_laundromat_name": "워시콥셀프빨래방석관동얼음왕국",
        "distance": 795.1341542541538,
        "walking_time": "약 12분"
      },
      {
        "self_laundromat_lat": 37.60922779,
        "self_laundromat_lon": 127.0563821,
        "self_laundromat_type": "셀프 빨래방",
        "self_laundromat_name": "런드리데이",
        "distance": 965.0771194738384,
        "walking_time": "약 15분"
      },
      {
        "self_laundromat_lat": 37.60922779,
        "self_laundromat_lon": 127.0563821,
        "self_laundromat_type": "셀프 빨래방",
        "self_laundromat_name": "빨래하는날",
        "distance": 965.0771194738384,
        "walking_time": "약 15분"
      },
      {
        "self_laundromat_lat": 37.60922779,
        "self_laundromat_lon": 127.0563821,
        "self_laundromat_type": "셀프 빨래방",
        "self_laundromat_name": "런드리데이",
        "distance": 965.0771194738384,
        "walking_time": "약 15분"
      },
      {
        "self_laundromat_lat": 37.60922779,
        "self_laundromat_lon": 127.0563821,
        "self_laundromat_type": "셀프 빨래방",
        "self_laundromat_name": "빨래하는날",
        "distance": 965.0771194738384,
        "walking_time": "약 15분"
      },
      {
        "self_laundromat_lat": 37.62144228,
        "self_laundromat_lon": 127.0463268,
        "self_laundromat_type": "셀프 빨래방",
        "self_laundromat_name": "크린토피아 코인워시 성북장위루첸점",
        "distance": 1173.2054969551605,
        "walking_time": "약 18분"
      },
      {
        "self_laundromat_lat": 37.62144228,
        "self_laundromat_lon": 127.0463268,
        "self_laundromat_type": "셀프 빨래방",
        "self_laundromat_name": "크린토피아 코인워시 성북장위루첸점",
        "distance": 1173.2054969551605,
        "walking_time": "약 18분"
      },
      {
        "self_laundromat_lat": 37.61377273,
        "self_laundromat_lon": 127.0462547,
        "self_laundromat_type": "셀프 빨래방",
        "self_laundromat_name": "화이트운동화빨래방",
        "distance": 1186.3406908255458,
        "walking_time": "약 18분"
      },
      {
        "self_laundromat_lat": 37.61377273,
        "self_laundromat_lon": 127.0462547,
        "self_laundromat_type": "셀프 빨래방",
        "self_laundromat_name": "화이트운동화빨래방",
        "distance": 1186.3406908255458,
        "walking_time": "약 18분"
      }
    ],
    "subway": [
      {
        "subway_lat": 37.6150480846952,
        "subway_lon": 127.066118430844,
        "subway_type": "지하철",
        "subway_name": "6호선-석계역",
        "distance": 710.3252271581089,
        "walking_time": "약 11분"
      },
      {
        "subway_lat": 37.610550696559,
        "subway_lon": 127.056425217652,
        "subway_type": "지하철",
        "subway_name": "6호선-돌곶이역",
        "distance": 821.2041343108599,
        "walking_time": "약 13분"
      },
      {
        "subway_lat": 37.6062641394281,
        "subway_lon": 127.048326622029,
        "subway_type": "지하철",
        "subway_name": "6호선-상월곡(한국과학기술연구원)역",
        "distance": 1569.6496107749313,
        "walking_time": "약 24분"
      },
      {
        "subway_lat": 37.6014210523409,
        "subway_lon": 127.041184766468,
        "subway_type": "지하철",
        "subway_name": "6호선-월곡(동덕여대)역",
        "distance": 2382.720247618176,
        "walking_time": "약 36분"
      }
    ],
    "supermarket": [
      {
        "supermarket_lat": 37.61872537,
        "supermarket_lon": 127.0670846,
        "supermarket_type": "마트",
        "supermarket_name": "(주)지에스리테일 GS슈퍼 노원월계점",
        "distance": 740.370494346465,
        "walking_time": "약 12분"
      },
      {
        "supermarket_lat": 37.60972998,
        "supermarket_lon": 127.0620067,
        "supermarket_type": "마트",
        "supermarket_name": "석관황금시장",
        "distance": 930.335737016262,
        "walking_time": "약 14분"
      },
      {
        "supermarket_lat": 37.60896519,
        "supermarket_lon": 127.0603166,
        "supermarket_type": "마트",
        "supermarket_name": "석관시장",
        "distance": 980.2821612514828,
        "walking_time": "약 15분"
      },
      {
        "supermarket_lat": 37.62650936,
        "supermarket_lon": 127.0619798,
        "supermarket_type": "마트",
        "supermarket_name": "이마트타운 월계점",
        "distance": 1019.6617390907948,
        "walking_time": "약 16분"
      },
      {
        "supermarket_lat": 37.61059555,
        "supermarket_lon": 127.0509154,
        "supermarket_type": "마트",
        "supermarket_name": "장위전통시장",
        "distance": 1050.3776279468111,
        "walking_time": "약 16분"
      },
      {
        "supermarket_lat": 37.62294735,
        "supermarket_lon": 127.0483972,
        "supermarket_type": "마트",
        "supermarket_name": "롯데슈퍼 장위점",
        "distance": 1084.924692438843,
        "walking_time": "약 17분"
      },
      {
        "supermarket_lat": 37.60182774,
        "supermarket_lon": 127.0404635,
        "supermarket_type": "마트",
        "supermarket_name": "홈플러스 월곡점",
        "distance": 2390.958861905337,
        "walking_time": "약 36분"
      }
    ],
    "university": [
      {
        "university_lat": 37.6197033224113,
        "university_lon": 127.059670655809,
        "university_type": "대학교",
        "university_name": "광운대학교",
        "distance": 236.53656024888272,
        "walking_time": "약 4분"
      },
      {
        "university_lat": 37.6129860183722,
        "university_lon": 127.0614007785,
        "university_type": "대학교",
        "university_name": "한국예술종합학교",
        "distance": 572.4176101789633,
        "walking_time": "약 9분"
      },
      {
        "university_lat": 37.6068148327539,
        "university_lon": 127.041176301847,
        "university_type": "대학교",
        "university_name": "동덕여자대학교",
        "distance": 1966.8150694044527,
        "walking_time": "약 30분"
      }
    ]
  }
}