{
  "클러스터_위도": 37.48510500023182,
  "클러스터_경도": 126.94099824957372,
  "클러스터_level": 3.0,
  "facilities": {
    "bus": [
      {
        "bus_lat": 37.48608434,
        "bus_lon": 126.9424345,
        "bus_type": "버스정류장",
        "bus_name": "은천초등학교",
        "distance": 167.0872737828814,
        "walking_time": "약 3분"
      },
      {
        "bus_lat": 37.48359028,
        "bus_lon": 126.940901,
        "bus_type": "버스정류장",
        "bus_name": "봉천역",
        "distance": 168.64764486130176,
        "walking_time": "약 3분"
      },
      {
        "bus_lat": 37.4835909,
        "bus_lon": 126.9414274,
        "bus_type": "버스정류장",
        "bus_name": "봉천역",
        "distance": 172.56601842122973,
        "walking_time": "약 3분"
      },
      {
        "bus_lat": 37.48358608,
        "bus_lon": 126.9415257,
        "bus_type": "버스정류장",
        "bus_name": "봉천역4번출구",
        "distance": 175.19099649928867,
        "walking_time": "약 3분"
      },
      {
        "bus_lat": 37.48632002,
        "bus_lon": 126.9424483,
        "bus_type": "버스정류장",
        "bus_name": "은천초등학교",
        "distance": 186.0715125933562,
        "walking_time": "약 3분"
      },
      {
        "bus_lat": 37.48333412,
        "bus_lon": 126.941712,
        "bus_type": "버스정류장",
        "bus_name": "봉천역",
        "distance": 206.7388064981232,
        "walking_time": "약 4분"
      },
      {
        "bus_lat": 37.4865356,
        "bus_lon": 126.9394213,
        "bus_type": "버스정류장",
        "bus_name": "국회단지입구",
        "distance": 211.34077655431545,
        "walking_time": "약 4분"
      },
      {
        "bus_lat": 37.48626234,
        "bus_lon": 126.9389873,
        "bus_type": "버스정류장",
        "bus_name": "봉일시장",
        "distance": 219.18920111004184,
        "walking_time": "약 4분"
      },
      {
        "bus_lat": 37.48659952,
        "bus_lon": 126.9393195,
        "bus_type": "버스정류장",
        "bus_name": "국회단지입구",
        "distance": 222.61389448409528,
        "walking_time": "약 4분"
      },
      {
        "bus_lat": 37.48323621,
        "bus_lon": 126.9421197,
        "bus_type": "버스정류장",
        "bus_name": "봉천역",
        "distance": 230.1571158220827,
        "walking_time": "약 4분"
      }
    ],
    "community_center": [
      {
        "community_center_lat": 37.48533865,
        "community_center_lon": 126.9424717,
        "community_center_type": "주민센터",
        "community_center_name": "은천동 자치회관",
        "distance": 132.57944577544168,
        "walking_time": "약 2분"
      },
      {
        "community_center_lat": 37.4791175,
        "community_center_lon": 126.9416407,
        "community_center_type": "주민센터",
        "community_center_name": "청룡동 자치회관",
        "distance": 668.1886945273014,
        "walking_time": "약 10분"
      },
      {
        "community_center_lat": 37.48419282,
        "community_center_lon": 126.9497511,
        "community_center_type": "주민센터",
        "community_center_name": "중앙동 자치회관",
        "distance": 778.9398394654843,
        "walking_time": "약 12분"
      },
      {
        "community_center_lat": 37.48817585,
        "community_center_lon": 126.932778,
        "community_center_type": "주민센터",
        "community_center_name": "보라매동 자치회관",
        "distance": 801.6538304430402,
        "walking_time": "약 12분"
      },
      {
        "community_center_lat": 37.47976918,
        "community_center_lon": 126.9313747,
        "community_center_type": "주민센터",
        "community_center_name": "서원동 자치회관",
        "distance": 1035.903035468452,
        "walking_time": "약 16분"
      },
      {
        "community_center_lat": 37.47499588,
        "community_center_lon": 126.9349996,
        "community_center_type": "주민센터",
        "community_center_name": "서림동 자치회관",
        "distance": 1242.4755961021483,
        "walking_time": "약 19분"
      },
      {
        "community_center_lat": 37.48721429,
        "community_center_lon": 126.956633,
        "community_center_type": "주민센터",
        "community_center_name": "성현동 자치회관",
        "distance": 1399.3006158550004,
        "walking_time": "약 21분"
      },
      {
        "community_center_lat": 37.48064257,
        "community_center_lon": 126.9570309,
        "community_center_type": "주민센터",
        "community_center_name": "행운동 자치회관",
        "distance": 1499.172445645634,
        "walking_time": "약 23분"
      },
      {
        "community_center_lat": 37.47059604,
        "community_center_lon": 126.9369573,
        "community_center_type": "주민센터",
        "community_center_name": "대학동 자치회관",
        "distance": 1652.2601680838302,
        "walking_time": "약 25분"
      },
      {
        "community_center_lat": 37.49184717,
        "community_center_lon": 126.9586277,
        "community_center_type": "주민센터",
        "community_center_name": "청림동 자치회관",
        "distance": 1726.6969969395848,
        "walking_time": "약 26분"
      }
    ],
    "convenience_store": [
      {
        "convenience_store_lat": 37.48463949,
        "convenience_store_lon": 126.9401672,
        "convenience_store_type": "편의점",
        "convenience_store_name": "CU 관악봉천점",
        "distance": 89.75665422226494,
        "walking_time": "약 2분"
      },
      {
        "convenience_store_lat": 37.48414958,
        "convenience_store_lon": 126.9413582,
        "convenience_store_type": "편의점",
        "convenience_store_name": "GS25 봉천한아름점",
        "distance": 110.8837238700512,
        "walking_time": "약 2분"
      },
      {
        "convenience_store_lat": 37.48638056,
        "convenience_store_lon": 126.94226,
        "convenience_store_type": "편의점",
        "convenience_store_name": "CU 관악은천길점",
        "distance": 180.30949803041256,
        "walking_time": "약 3분"
      },
      {
        "convenience_store_lat": 37.48339186,
        "convenience_store_lon": 126.9408767,
        "convenience_store_type": "편의점",
        "convenience_store_name": "CU 봉천대로점",
        "distance": 190.7941790457629,
        "walking_time": "약 3분"
      },
      {
        "convenience_store_lat": 37.48317376,
        "convenience_store_lon": 126.9391642,
        "convenience_store_type": "편의점",
        "convenience_store_name": "세븐일레븐 봉천5호점",
        "distance": 268.8930792514956,
        "walking_time": "약 5분"
      },
      {
        "convenience_store_lat": 37.48531965,
        "convenience_store_lon": 126.937872,
        "convenience_store_type": "편의점",
        "convenience_store_name": "세븐일레븐 은천점",
        "distance": 276.8732417042011,
        "walking_time": "약 5분"
      },
      {
        "convenience_store_lat": 37.48253974,
        "convenience_store_lon": 126.9406137,
        "convenience_store_type": "편의점",
        "convenience_store_name": "미니스톱 봉천남부점",
        "distance": 287.2549665246993,
        "walking_time": "약 5분"
      },
      {
        "convenience_store_lat": 37.48763754,
        "convenience_store_lon": 126.9402329,
        "convenience_store_type": "편의점",
        "convenience_store_name": "CU 관악국회단지점",
        "distance": 289.5891459334639,
        "walking_time": "약 5분"
      },
      {
        "convenience_store_lat": 37.48611481,
        "convenience_store_lon": 126.9379012,
        "convenience_store_type": "편의점",
        "convenience_store_name": "GS25 관악은천점",
        "distance": 295.4346867088431,
        "walking_time": "약 5분"
      },
      {
        "convenience_store_lat": 37.48255359,
        "convenience_store_lon": 126.9427597,
        "convenience_store_type": "편의점",
        "convenience_store_name": "GS25 봉천역점",
        "distance": 323.48768859874684,
        "walking_time": "약 5분"
      }
    ],
    "daycare": [
      {
        "daycare_lat": 37.48519255706962,
        "daycare_lon": 126.93968538354534,
        "daycare_type": "어린이집",
        "daycare_name": "구립선봉어린이집",
        "distance": 116.24836882947704,
        "walking_time": "약 2분"
      },
      {
        "daycare_lat": 37.485305640589225,
        "daycare_lon": 126.94240795689444,
        "daycare_type": "어린이집",
        "daycare_name": "구립아이뜰어린이집",
        "distance": 126.36958858734766,
        "walking_time": "약 2분"
      },
      {
        "daycare_lat": 37.48394015,
        "daycare_lon": 126.9411967,
        "daycare_type": "어린이집",
        "daycare_name": "예슬어린이집",
        "distance": 130.70366979926757,
        "walking_time": "약 2분"
      },
      {
        "daycare_lat": 37.483798298757975,
        "daycare_lon": 126.9425006967262,
        "daycare_type": "어린이집",
        "daycare_name": "젬젬어린이집",
        "distance": 196.6879650137664,
        "walking_time": "약 3분"
      },
      {
        "daycare_lat": 37.48376326,
        "daycare_lon": 126.9427076,
        "daycare_type": "어린이집",
        "daycare_name": "해나린어린이집",
        "distance": 212.14907824011465,
        "walking_time": "약 4분"
      },
      {
        "daycare_lat": 37.48376325995358,
        "daycare_lon": 126.94270763276435,
        "daycare_type": "어린이집",
        "daycare_name": "솔샘어린이집",
        "distance": 212.1511371844711,
        "walking_time": "약 4분"
      },
      {
        "daycare_lat": 37.4873612,
        "daycare_lon": 126.9412728,
        "daycare_type": "어린이집",
        "daycare_name": "하나둘셋 어린이집",
        "distance": 252.04479428939047,
        "walking_time": "약 4분"
      },
      {
        "daycare_lat": 37.4857357,
        "daycare_lon": 126.9376316,
        "daycare_type": "어린이집",
        "daycare_name": "아이보리어린이집",
        "distance": 305.21949521792743,
        "walking_time": "약 5분"
      },
      {
        "daycare_lat": 37.48744532,
        "daycare_lon": 126.9428185,
        "daycare_type": "어린이집",
        "daycare_name": "예쁜어린이집",
        "distance": 305.8020819007019,
        "walking_time": "약 5분"
      },
      {
        "daycare_lat": 37.48554807674857,
        "daycare_lon": 126.94442490068715,
        "daycare_type": "어린이집",
        "daycare_name": "행복한어린이집",
        "distance": 306.33564064033254,
        "walking_time": "약 5분"
      }
    ],
    "education": [
      {
        "education_lat": 37.49543351,
        "education_lon": 126.9405902,
        "education_type": "도서관",
        "education_name": "국사봉숲속작은도서관",
        "distance": 1149.0420209590204,
        "walking_time": "약 18분"
      },
      {
        "education_lat": 37.49788488,
        "education_lon": 126.9474555,
        "education_type": "도서관",
        "education_name": "약수도서관",
        "distance": 1531.0019826182172,
        "walking_time": "약 23분"
      },
      {
        "education_lat": 37.49925547,
        "education_lon": 126.9403722,
        "education_type": "공연장",
        "education_name": "상도어울마당 아트홀",
        "distance": 1574.429600296465,
        "walking_time": "약 24분"
      },
      {
        "education_lat": 37.48624318,
        "education_lon": 126.9596703,
        "education_type": "도서관",
        "education_name": "글빛정보도서관",
        "distance": 1652.359703211997,
        "walking_time": "약 25분"
      },
      {
        "education_lat": 37.49642897,
        "education_lon": 126.9551579,
        "education_type": "박물관/기념관",
        "education_name": "숭실대학교 한국기독교박물관",
        "distance": 1773.7504357602966,
        "walking_time": "약 27분"
      },
      {
        "education_lat": 37.47197208,
        "education_lon": 126.959371,
        "education_type": "도서관",
        "education_name": "낙성대공원도서관",
        "distance": 2181.9660732601515,
        "walking_time": "약 33분"
      }
    ],
    "fitness": [
      {
        "fitness_lat": 37.4859764,
        "fitness_lon": 126.9405053,
        "fitness_type": "운동시설",
        "fitness_name": "엠제이핏 PT",
        "distance": 106.20965759511829,
        "walking_time": "약 2분"
      },
      {
        "fitness_lat": 37.4854854,
        "fitness_lon": 126.9422431,
        "fitness_type": "운동시설",
        "fitness_name": "프리원핏 봉천점",
        "distance": 117.70150865145963,
        "walking_time": "약 2분"
      },
      {
        "fitness_lat": 37.48398984,
        "fitness_lon": 126.9415579,
        "fitness_type": "운동시설",
        "fitness_name": "인바이트짐",
        "distance": 133.47099058108242,
        "walking_time": "약 2분"
      },
      {
        "fitness_lat": 37.48629672,
        "fitness_lon": 126.9412497,
        "fitness_type": "운동시설",
        "fitness_name": "은천점 스포애니 (주)케이디헬스케어",
        "distance": 134.35766876827518,
        "walking_time": "약 3분"
      },
      {
        "fitness_lat": 37.48633741,
        "fitness_lon": 126.9395785,
        "fitness_type": "운동시설",
        "fitness_name": "미래가 그려짐",
        "distance": 185.6659878900859,
        "walking_time": "약 3분"
      },
      {
        "fitness_lat": 37.48327253,
        "fitness_lon": 126.9402662,
        "fitness_type": "운동시설",
        "fitness_name": "핏티",
        "distance": 213.7543777682251,
        "walking_time": "약 4분"
      },
      {
        "fitness_lat": 37.4859081,
        "fitness_lon": 126.9383899,
        "fitness_type": "운동시설",
        "fitness_name": "봉일스파랜드",
        "distance": 246.8630375045295,
        "walking_time": "약 4분"
      },
      {
        "fitness_lat": 37.48438657,
        "fitness_lon": 126.9378705,
        "fitness_type": "운동시설",
        "fitness_name": "쿠타(본점)",
        "distance": 287.3061743986777,
        "walking_time": "약 5분"
      },
      {
        "fitness_lat": 37.48640729,
        "fitness_lon": 126.9379271,
        "fitness_type": "운동시설",
        "fitness_name": "폴인핏(FALL IN FIT)",
        "distance": 307.24405075944577,
        "walking_time": "약 5분"
      },
      {
        "fitness_lat": 37.48369573,
        "fitness_lon": 126.9379889,
        "fitness_type": "운동시설",
        "fitness_name": "메이크타임PT",
        "distance": 308.32235979369005,
        "walking_time": "약 5분"
      }
    ],
    "gas_station": [
      {
        "gas_station_lat": 37.48233196,
        "gas_station_lon": 126.9450663,
        "gas_station_type": "주유소",
        "gas_station_name": "시몬주유소",
        "distance": 473.2048219606111,
        "walking_time": "약 8분"
      },
      {
        "gas_station_lat": 37.48041974,
        "gas_station_lon": 126.9306687,
        "gas_station_type": "주유소",
        "gas_station_name": "신관주유소",
        "distance": 1049.8379868832594,
        "walking_time": "약 16분"
      },
      {
        "gas_station_lat": 37.4737677,
        "gas_station_lon": 126.9348256,
        "gas_station_type": "주유소",
        "gas_station_name": "유림주유소",
        "distance": 1373.2870354358015,
        "walking_time": "약 21분"
      },
      {
        "gas_station_lat": 37.49347189,
        "gas_station_lon": 126.9564351,
        "gas_station_type": "주유소",
        "gas_station_name": "현대오일뱅크㈜직영동작주유소",
        "distance": 1649.4142300557094,
        "walking_time": "약 25분"
      },
      {
        "gas_station_lat": 37.4787977,
        "gas_station_lon": 126.9583966,
        "gas_station_type": "주유소",
        "gas_station_name": "SK에너지㈜ 신봉천주유소",
        "distance": 1687.813098231742,
        "walking_time": "약 26분"
      },
      {
        "gas_station_lat": 37.4983605,
        "gas_station_lon": 126.951389,
        "gas_station_type": "주유소",
        "gas_station_name": "살피재주유소",
        "distance": 1735.7781477641074,
        "walking_time": "약 26분"
      },
      {
        "gas_station_lat": 37.47909674,
        "gas_station_lon": 126.9591692,
        "gas_station_type": "주유소",
        "gas_station_name": "행운주유소",
        "distance": 1736.9893870517517,
        "walking_time": "약 26분"
      }
    ],
    "hospital": [
      {
        "hospital_lat": 37.48586498,
        "hospital_lon": 126.9418525,
        "hospital_type": "병원",
        "hospital_name": "서울원정형외과소아청소년과의원",
        "distance": 113.23637855024114,
        "walking_time": "약 2분"
      },
      {
        "hospital_lat": 37.48629672,
        "hospital_lon": 126.9412497,
        "hospital_type": "병원",
        "hospital_name": "서울퍼스트병원",
        "distance": 134.35766876827518,
        "walking_time": "약 3분"
      },
      {
        "hospital_lat": 37.48629672,
        "hospital_lon": 126.9412497,
        "hospital_type": "병원",
        "hospital_name": "서울퍼스트병원",
        "distance": 134.35766876827518,
        "walking_time": "약 3분"
      },
      {
        "hospital_lat": 37.48602386,
        "hospital_lon": 126.9395724,
        "hospital_type": "병원",
        "hospital_name": "이정희소아청소년과의원",
        "distance": 162.07083608643532,
        "walking_time": "약 3분"
      },
      {
        "hospital_lat": 37.48604415,
        "hospital_lon": 126.939426,
        "hospital_type": "병원",
        "hospital_name": "신동진내과의원",
        "distance": 173.6380633958184,
        "walking_time": "약 3분"
      },
      {
        "hospital_lat": 37.48633741,
        "hospital_lon": 126.9395785,
        "hospital_type": "병원",
        "hospital_name": "365바른정형외과의원",
        "distance": 185.6659878900859,
        "walking_time": "약 3분"
      },
      {
        "hospital_lat": 37.48633741,
        "hospital_lon": 126.9395785,
        "hospital_type": "병원",
        "hospital_name": "김태경치과의원",
        "distance": 185.6659878900859,
        "walking_time": "약 3분"
      },
      {
        "hospital_lat": 37.48633741,
        "hospital_lon": 126.9395785,
        "hospital_type": "병원",
        "hospital_name": "청담한의원",
        "distance": 185.6659878900859,
        "walking_time": "약 3분"
      },
      {
        "hospital_lat": 37.48606093,
        "hospital_lon": 126.9391165,
        "hospital_type": "병원",
        "hospital_name": "손이비인후과의원",
        "distance": 197.14423833819603,
        "walking_time": "약 3분"
      },
      {
        "hospital_lat": 37.48376028,
        "hospital_lon": 126.9427012,
        "hospital_type": "병원",
        "hospital_name": "이규남내과의원",
        "distance": 211.98158447469044,
        "walking_time": "약 4분"
      }
    ],
    "music_room": [
      {
        "music_room_lat": 37.48604415,
        "music_room_lon": 126.939426,
        "music_room_type": "노래방",
        "music_room_name": "버즈노래연습장",
        "distance": 173.6380633958184,
        "walking_time": "약 3분"
      },
      {
        "music_room_lat": 37.4856008,
        "music_room_lon": 126.938805,
        "music_room_type": "노래방",
        "music_room_name": "봉일",
        "distance": 201.21923363837743,
        "walking_time": "약 4분"
      },
      {
        "music_room_lat": 37.4832355,
        "music_room_lon": 126.9409841,
        "music_room_type": "노래방",
        "music_room_name": "24시 노래연습장",
        "distance": 207.88269026236048,
        "walking_time": "약 4분"
      },
      {
        "music_room_lat": 37.48351039,
        "music_room_lon": 126.942251,
        "music_room_type": "노래방",
        "music_room_name": "월드컵",
        "distance": 208.94535503344383,
        "walking_time": "약 4분"
      },
      {
        "music_room_lat": 37.48641797,
        "music_room_lon": 126.9392389,
        "music_room_type": "노래방",
        "music_room_name": "카드OK코인노래연습장",
        "distance": 213.10155173181192,
        "walking_time": "약 4분"
      },
      {
        "music_room_lat": 37.483203,
        "music_room_lon": 126.9404859,
        "music_room_type": "노래방",
        "music_room_name": "코캉스코인노래연습장",
        "distance": 216.270453830612,
        "walking_time": "약 4분"
      },
      {
        "music_room_lat": 37.48635007,
        "music_room_lon": 126.9389662,
        "music_room_type": "노래방",
        "music_room_name": "스타노래연습장",
        "distance": 226.52581878374883,
        "walking_time": "약 4분"
      },
      {
        "music_room_lat": 37.4859081,
        "music_room_lon": 126.9383899,
        "music_room_type": "노래방",
        "music_room_name": "슈노래연습장",
        "distance": 246.8630375045295,
        "walking_time": "약 4분"
      },
      {
        "music_room_lat": 37.48639473,
        "music_room_lon": 126.9385584,
        "music_room_type": "노래방",
        "music_room_name": "소나타",
        "distance": 258.67160347709665,
        "walking_time": "약 4분"
      },
      {
        "music_room_lat": 37.48288436,
        "music_room_lon": 126.9420476,
        "music_room_type": "노래방",
        "music_room_name": "수아노래연습장",
        "distance": 263.7126837525296,
        "walking_time": "약 4분"
      }
    ],
    "park": [
      {
        "park_lat": 37.492299,
        "park_lon": 126.9385469,
        "park_type": "공원",
        "park_name": "상도근린공원",
        "distance": 828.6594131894968,
        "walking_time": "약 13분"
      }
    ],
    "park_station": [
      {
        "park_station_lat": 37.48685341,
        "park_station_lon": 126.9331906,
        "park_station_type": "주차장",
        "park_station_name": "봉천복개3 공영주차장",
        "distance": 715.8031783487602,
        "walking_time": "약 11분"
      },
      {
        "park_station_lat": 37.49193146,
        "park_station_lon": 126.9331501,
        "park_station_type": "주차장",
        "park_station_name": "당곡중학교공영 ",
        "distance": 1027.4554405267547,
        "walking_time": "약 16분"
      },
      {
        "park_station_lat": 37.49330922,
        "park_station_lon": 126.9336841,
        "park_station_type": "주차장",
        "park_station_name": "빙수골장미",
        "distance": 1117.441743337993,
        "walking_time": "약 17분"
      },
      {
        "park_station_lat": 37.49725268,
        "park_station_lon": 126.9338844,
        "park_station_type": "주차장",
        "park_station_name": "공유) 성대주차장",
        "distance": 1489.4562950752693,
        "walking_time": "약 23분"
      },
      {
        "park_station_lat": 37.49978486,
        "park_station_lon": 126.9354957,
        "park_station_type": "주차장",
        "park_station_name": "도화공영주차장",
        "distance": 1702.9873587510028,
        "walking_time": "약 26분"
      },
      {
        "park_station_lat": 37.47785677,
        "park_station_lon": 126.9588859,
        "park_station_type": "주차장",
        "park_station_name": "낙성대제1공영",
        "distance": 1772.2519963937673,
        "walking_time": "약 27분"
      },
      {
        "park_station_lat": 37.49727728,
        "park_station_lon": 126.9540285,
        "park_station_type": "주차장",
        "park_station_name": "살피재 공유주차장",
        "distance": 1775.833560496857,
        "walking_time": "약 27분"
      },
      {
        "park_station_lat": 37.49727728,
        "park_station_lon": 126.9540285,
        "park_station_type": "주차장",
        "park_station_name": "살피재 공유주차장",
        "distance": 1775.833560496857,
        "walking_time": "약 27분"
      },
      {
        "park_station_lat": 37.47480251,
        "park_station_lon": 126.9598846,
        "park_station_type": "주차장",
        "park_station_name": "낙성대제2공영",
        "distance": 2022.3070650492748,
        "walking_time": "약 31분"
      }
    ],
    "pc_room": [
      {
        "pc_room_lat": 37.4841495810369,
        "pc_room_lon": 126.941358237708,
        "pc_room_type": "PC방",
        "pc_room_name": "스타덤PC 봉천점",
        "distance": 110.88456644402416,
        "walking_time": "약 2분"
      },
      {
        "pc_room_lat": 37.486362897773,
        "pc_room_lon": 126.938850219252,
        "pc_room_type": "PC방",
        "pc_room_name": "강남PC",
        "distance": 235.553085821712,
        "walking_time": "약 4분"
      },
      {
        "pc_room_lat": 37.4863947321423,
        "pc_room_lon": 126.938558361976,
        "pc_room_type": "PC방",
        "pc_room_name": "아센PC방 봉일시장점",
        "distance": 258.6745277128771,
        "walking_time": "약 4분"
      },
      {
        "pc_room_lat": 37.4825397376028,
        "pc_room_lon": 126.940613730465,
        "pc_room_type": "PC방",
        "pc_room_name": "3POP PC방",
        "distance": 287.2549137034974,
        "walking_time": "약 5분"
      },
      {
        "pc_room_lat": 37.4840824266542,
        "pc_room_lon": 126.937097299683,
        "pc_room_type": "PC방",
        "pc_room_name": "에이스피시방",
        "distance": 362.49531793219376,
        "walking_time": "약 6분"
      },
      {
        "pc_room_lat": 37.4861307788499,
        "pc_room_lon": 126.936759768287,
        "pc_room_type": "PC방",
        "pc_room_name": "키키슬롯",
        "distance": 390.9849121186647,
        "walking_time": "약 6분"
      },
      {
        "pc_room_lat": 37.4873102965781,
        "pc_room_lon": 126.947036314759,
        "pc_room_type": "PC방",
        "pc_room_name": "이네이처PC방",
        "distance": 586.4830550408398,
        "walking_time": "약 9분"
      },
      {
        "pc_room_lat": 37.4869996530658,
        "pc_room_lon": 126.947493902254,
        "pc_room_type": "PC방",
        "pc_room_name": "레드포스PC아레나 봉천점",
        "distance": 610.627453883753,
        "walking_time": "약 10분"
      },
      {
        "pc_room_lat": 37.4815170316646,
        "pc_room_lon": 126.946522694417,
        "pc_room_type": "PC방",
        "pc_room_name": "브라보PC",
        "distance": 629.9107959660427,
        "walking_time": "약 10분"
      },
      {
        "pc_room_lat": 37.4792117658952,
        "pc_room_lon": 126.945267468435,
        "pc_room_type": "PC방",
        "pc_room_name": "Q PC",
        "distance": 755.859364470449,
        "walking_time": "약 12분"
      }
    ],
    "police_office": [
      {
        "police_office_lat": 37.48735272,
        "police_office_lon": 126.9454289,
        "police_office_type": "경찰소",
        "police_office_name": "구암지구대",
        "distance": 463.9977588085365,
        "walking_time": "약 7분"
      },
      {
        "police_office_lat": 37.48600685,
        "police_office_lon": 126.9343644,
        "police_office_type": "경찰소",
        "police_office_name": "당곡지구대",
        "distance": 593.8587572861826,
        "walking_time": "약 9분"
      },
      {
        "police_office_lat": 37.48401647,
        "police_office_lon": 126.9333173,
        "police_office_type": "경찰소",
        "police_office_name": "신림지구대",
        "distance": 688.45302283588,
        "walking_time": "약 11분"
      },
      {
        "police_office_lat": 37.4738594,
        "police_office_lon": 126.9352631,
        "police_office_type": "경찰소",
        "police_office_name": "관악산지구대",
        "distance": 1348.9800838209308,
        "walking_time": "약 21분"
      },
      {
        "police_office_lat": 37.47832691,
        "police_office_lon": 126.9575957,
        "police_office_type": "경찰소",
        "police_office_name": "낙성대지구대",
        "distance": 1647.0901320569371,
        "walking_time": "약 25분"
      }
    ],
    "post_office": [
      {
        "post_office_lat": 37.48582895,
        "post_office_lon": 126.9416713,
        "post_office_type": "우체국",
        "post_office_name": "서울은천동우체국",
        "distance": 100.03433246579232,
        "walking_time": "약 2분"
      },
      {
        "post_office_lat": 37.48227075,
        "post_office_lon": 126.9412539,
        "post_office_type": "우체국",
        "post_office_name": "서울봉천역전우편취급국",
        "distance": 315.9605113376764,
        "walking_time": "약 5분"
      },
      {
        "post_office_lat": 37.48501424,
        "post_office_lon": 126.9331367,
        "post_office_type": "우체국",
        "post_office_name": "서울관악우체국",
        "distance": 693.7334211100376,
        "walking_time": "약 11분"
      },
      {
        "post_office_lat": 37.47864491,
        "post_office_lon": 126.947376,
        "post_office_type": "우체국",
        "post_office_name": "서울청룡동우편취급국",
        "distance": 912.5226872591624,
        "walking_time": "약 14분"
      },
      {
        "post_office_lat": 37.48084938,
        "post_office_lon": 126.9547091,
        "post_office_type": "우체국",
        "post_office_name": "서울행운동우체국",
        "distance": 1299.0562091818906,
        "walking_time": "약 20분"
      },
      {
        "post_office_lat": 37.48677759,
        "post_office_lon": 126.9567026,
        "post_office_type": "우체국",
        "post_office_name": "서울봉천동우체국",
        "distance": 1398.0751301688504,
        "walking_time": "약 21분"
      },
      {
        "post_office_lat": 37.49941236,
        "post_office_lon": 126.9437362,
        "post_office_type": "우체국",
        "post_office_name": "서울동작약수우편취급국",
        "distance": 1609.1400839340552,
        "walking_time": "약 25분"
      },
      {
        "post_office_lat": 37.49642897,
        "post_office_lon": 126.9551579,
        "post_office_type": "우체국",
        "post_office_name": "숭실대학교우편취급국",
        "distance": 1773.7504357602966,
        "walking_time": "약 27분"
      }
    ],
    "public_health_center": [
      {
        "public_health_center_lat": 37.48784455,
        "public_health_center_lon": 126.932302,
        "public_health_center_type": "보건소",
        "public_health_center_name": "관악구보건지소",
        "distance": 825.5526334403029,
        "walking_time": "약 13분"
      },
      {
        "public_health_center_lat": 37.47821067,
        "public_health_center_lon": 126.9515012,
        "public_health_center_type": "보건소",
        "public_health_center_name": "관악구보건소",
        "distance": 1202.7431507270285,
        "walking_time": "약 18분"
      }
    ],
    "school": [
      {
        "school_lat": 37.4865852040387,
        "school_lon": 126.942679132637,
        "school_type": "초등학교",
        "school_name": "서울은천초등학교",
        "distance": 221.55406869674133,
        "walking_time": "약 4분"
      },
      {
        "school_lat": 37.4878154195732,
        "school_lon": 126.943760849751,
        "school_type": "고등학교",
        "school_name": "서울관광고등학교",
        "distance": 387.6182912177998,
        "walking_time": "약 6분"
      },
      {
        "school_lat": 37.4810297131995,
        "school_lon": 126.942570541831,
        "school_type": "초등학교",
        "school_name": "서울관악초등학교",
        "distance": 473.9126620189448,
        "walking_time": "약 8분"
      },
      {
        "school_lat": 37.4811981682395,
        "school_lon": 126.937702673305,
        "school_type": "중학교",
        "school_name": "봉림중학교",
        "distance": 522.7619452895661,
        "walking_time": "약 8분"
      },
      {
        "school_lat": 37.4892174749954,
        "school_lon": 126.946271723126,
        "school_type": "초등학교",
        "school_name": "서울구암초등학교",
        "distance": 652.3840201958064,
        "walking_time": "약 10분"
      },
      {
        "school_lat": 37.4855779476851,
        "school_lon": 126.949130876206,
        "school_type": "초등학교",
        "school_name": "서울신봉초등학교",
        "distance": 719.5001472435525,
        "walking_time": "약 11분"
      },
      {
        "school_lat": 37.4802012453571,
        "school_lon": 126.934452241482,
        "school_type": "중학교",
        "school_name": "신관중학교",
        "distance": 794.3216399654641,
        "walking_time": "약 12분"
      },
      {
        "school_lat": 37.4917603442825,
        "school_lon": 126.934246405052,
        "school_type": "고등학교",
        "school_name": "당곡고등학교",
        "distance": 950.0214996345904,
        "walking_time": "약 15분"
      },
      {
        "school_lat": 37.493532631943,
        "school_lon": 126.944055659373,
        "school_type": "중학교",
        "school_name": "국사봉중학교",
        "distance": 975.1625496333116,
        "walking_time": "약 15분"
      },
      {
        "school_lat": 37.476541242971,
        "school_lon": 126.945416499639,
        "school_type": "고등학교",
        "school_name": "영락고등학교",
        "distance": 1028.9641721160183,
        "walking_time": "약 16분"
      }
    ],
    "subway": [
      {
        "subway_lat": 37.4825562153548,
        "subway_lon": 126.941495272047,
        "subway_type": "지하철",
        "subway_name": "2호선-봉천역",
        "distance": 286.78496405426847,
        "walking_time": "약 5분"
      },
      {
        "subway_lat": 37.4811526631844,
        "subway_lon": 126.952645104944,
        "subway_type": "지하철",
        "subway_name": "2호선-서울대입구(관악구청)역",
        "distance": 1117.7079852210356,
        "walking_time": "약 17분"
      },
      {
        "subway_lat": 37.4958143308836,
        "subway_lon": 126.954060246067,
        "subway_type": "지하철",
        "subway_name": "7호선-숭실대입구(살피재)역",
        "distance": 1657.1565412586135,
        "walking_time": "약 25분"
      }
    ],
    "supermarket": [
      {
        "supermarket_lat": 37.48629672,
        "supermarket_lon": 126.9412497,
        "supermarket_type": "마트",
        "supermarket_name": "(주)이마트에브리데이 봉천동점",
        "distance": 134.35766876827518,
        "walking_time": "약 3분"
      },
      {
        "supermarket_lat": 37.48665276,
        "supermarket_lon": 126.9392236,
        "supermarket_type": "마트",
        "supermarket_name": "GS THE FRESH 관악은천점",
        "distance": 232.67549583137665,
        "walking_time": "약 4분"
      },
      {
        "supermarket_lat": 37.48658496,
        "supermarket_lon": 126.9465719,
        "supermarket_type": "마트",
        "supermarket_name": "봉천현대시장",
        "distance": 518.5865424356119,
        "walking_time": "약 8분"
      },
      {
        "supermarket_lat": 37.48615809,
        "supermarket_lon": 126.9472386,
        "supermarket_type": "마트",
        "supermarket_name": "홈플러스 익스프레스 봉천점",
        "distance": 562.9240203004213,
        "walking_time": "약 9분"
      },
      {
        "supermarket_lat": 37.47933913,
        "supermarket_lon": 126.9490155,
        "supermarket_type": "마트",
        "supermarket_name": "(주)지에스리테일 관악점",
        "distance": 954.7276966289046,
        "walking_time": "약 15분"
      },
      {
        "supermarket_lat": 37.48385134,
        "supermarket_lon": 126.9302345,
        "supermarket_type": "마트",
        "supermarket_name": "타임스트림",
        "distance": 959.917531794998,
        "walking_time": "약 15분"
      },
      {
        "supermarket_lat": 37.48476254,
        "supermarket_lon": 126.9300965,
        "supermarket_type": "마트",
        "supermarket_name": "르네상스쇼핑몰(주)",
        "distance": 962.6656517522164,
        "walking_time": "약 15분"
      },
      {
        "supermarket_lat": 37.480948,
        "supermarket_lon": 126.9520838,
        "supermarket_type": "마트",
        "supermarket_name": "라붐아울렛",
        "distance": 1081.8734318102547,
        "walking_time": "약 17분"
      },
      {
        "supermarket_lat": 37.48362314,
        "supermarket_lon": 126.9551835,
        "supermarket_type": "마트",
        "supermarket_name": "관악프라자",
        "distance": 1262.4398775844213,
        "walking_time": "약 19분"
      },
      {
        "supermarket_lat": 37.4755685,
        "supermarket_lon": 126.9328111,
        "supermarket_type": "마트",
        "supermarket_name": "신림현대종합상가",
        "distance": 1283.114333470097,
        "walking_time": "약 20분"
      }
    ],
    "theater": [
      {
        "theater_lat": 37.4838513393186,
        "theater_lon": 126.930234545397,
        "theater_type": "영화관",
        "theater_name": "롯데시네마 신림",
        "distance": 959.9135796522552,
        "walking_time": "약 15분"
      },
      {
        "theater_lat": 37.4809479979455,
        "theater_lon": 126.952083773717,
        "theater_type": "영화관",
        "theater_name": "롯데시네마 서울대입구",
        "distance": 1081.8714326340048,
        "walking_time": "약 17분"
      }
    ],
    "university": [
      {
        "university_lat": 37.4964019323152,
        "university_lon": 126.956588222367,
        "university_type": "대학교",
        "university_name": "숭실대학교",
        "distance": 1862.7550303266544,
        "walking_time": "약 28분"
      }
    ]
  }
}