{
  "클러스터_위도": 37.48822866671096,
  "클러스터_경도": 126.90375433329532,
  "클러스터_level": 3.0,
  "facilities": {
    "bus": [
      {
        "bus_lat": 37.48714573,
        "bus_lon": 126.904837,
        "bus_type": "버스정류장",
        "bus_name": "서울영림초등학교",
        "distance": 153.7053553906896,
        "walking_time": "약 3분"
      },
      {
        "bus_lat": 37.48962784,
        "bus_lon": 126.9047297,
        "bus_type": "버스정류장",
        "bus_name": "대림동우체국",
        "distance": 177.79529968958715,
        "walking_time": "약 3분"
      },
      {
        "bus_lat": 37.48943828,
        "bus_lon": 126.9054526,
        "bus_type": "버스정류장",
        "bus_name": "대림동우체국",
        "distance": 201.35167343786503,
        "walking_time": "약 4분"
      },
      {
        "bus_lat": 37.486449,
        "bus_lon": 126.904448,
        "bus_type": "버스정류장",
        "bus_name": "동작상떼빌아파트",
        "distance": 207.13831589392743,
        "walking_time": "약 4분"
      },
      {
        "bus_lat": 37.49054306,
        "bus_lon": 126.9032573,
        "bus_type": "버스정류장",
        "bus_name": "흰돌교회",
        "distance": 261.0583883520077,
        "walking_time": "약 4분"
      },
      {
        "bus_lat": 37.48825374,
        "bus_lon": 126.9071028,
        "bus_type": "버스정류장",
        "bus_name": "동작상떼빌아파트",
        "distance": 295.450906545471,
        "walking_time": "약 5분"
      },
      {
        "bus_lat": 37.48842865,
        "bus_lon": 126.907227,
        "bus_type": "버스정류장",
        "bus_name": "신대방경남아파트",
        "distance": 307.2015396667261,
        "walking_time": "약 5분"
      },
      {
        "bus_lat": 37.48990476,
        "bus_lon": 126.9007035,
        "bus_type": "버스정류장",
        "bus_name": "중앙시장",
        "distance": 327.3984655871423,
        "walking_time": "약 5분"
      },
      {
        "bus_lat": 37.49081213,
        "bus_lon": 126.9017291,
        "bus_type": "버스정류장",
        "bus_name": "농협.대림2동주민센터",
        "distance": 338.30632593083794,
        "walking_time": "약 6분"
      },
      {
        "bus_lat": 37.49131612,
        "bus_lon": 126.9029549,
        "bus_type": "버스정류장",
        "bus_name": "흰돌교회",
        "distance": 350.479804662278,
        "walking_time": "약 6분"
      }
    ],
    "community_center": [
      {
        "community_center_lat": 37.48894469,
        "community_center_lon": 126.9100394,
        "community_center_type": "주민센터",
        "community_center_name": "신대방1동 자치회관",
        "distance": 560.2201308672976,
        "walking_time": "약 9분"
      },
      {
        "community_center_lat": 37.49273981,
        "community_center_lon": 126.8982505,
        "community_center_type": "주민센터",
        "community_center_name": "대림2동 자치회관",
        "distance": 698.1541535799741,
        "walking_time": "약 11분"
      },
      {
        "community_center_lat": 37.48256328,
        "community_center_lon": 126.9077947,
        "community_center_type": "주민센터",
        "community_center_name": "조원동 자치회관",
        "distance": 723.8393521374759,
        "walking_time": "약 11분"
      },
      {
        "community_center_lat": 37.49545723,
        "community_center_lon": 126.905842,
        "community_center_type": "주민센터",
        "community_center_name": "대림1동 자치회관",
        "distance": 824.6130215938858,
        "walking_time": "약 13분"
      },
      {
        "community_center_lat": 37.48734704,
        "community_center_lon": 126.89033,
        "community_center_type": "주민센터",
        "community_center_name": "구로3동 자치회관",
        "distance": 1188.4962478494615,
        "walking_time": "약 18분"
      },
      {
        "community_center_lat": 37.48595224,
        "community_center_lon": 126.9191029,
        "community_center_type": "주민센터",
        "community_center_name": "신사동 자치회관",
        "distance": 1377.690049212215,
        "walking_time": "약 21분"
      },
      {
        "community_center_lat": 37.47516041,
        "community_center_lon": 126.9031745,
        "community_center_type": "주민센터",
        "community_center_name": "독산3동 자치회관",
        "distance": 1454.0242873336874,
        "walking_time": "약 22분"
      },
      {
        "community_center_lat": 37.47689182,
        "community_center_lon": 126.8917817,
        "community_center_type": "주민센터",
        "community_center_name": "가산동 자치회관",
        "distance": 1644.7390324427015,
        "walking_time": "약 25분"
      },
      {
        "community_center_lat": 37.47617498,
        "community_center_lon": 126.9155517,
        "community_center_type": "주민센터",
        "community_center_name": "미성동 자치회관",
        "distance": 1697.0728044430286,
        "walking_time": "약 26분"
      },
      {
        "community_center_lat": 37.47021905,
        "community_center_lon": 126.8970437,
        "community_center_type": "주민센터",
        "community_center_name": "독산1동 자치회관",
        "distance": 2088.292860243004,
        "walking_time": "약 32분"
      }
    ],
    "convenience_store": [
      {
        "convenience_store_lat": 37.48881784,
        "convenience_store_lon": 126.9029983,
        "convenience_store_type": "편의점",
        "convenience_store_name": "GS25 대림본점",
        "distance": 93.49619870472638,
        "walking_time": "약 2분"
      },
      {
        "convenience_store_lat": 37.48609574,
        "convenience_store_lon": 126.9034647,
        "convenience_store_type": "편의점",
        "convenience_store_name": "이마트24 구디H하우스점",
        "distance": 238.54341740604204,
        "walking_time": "약 4분"
      },
      {
        "convenience_store_lat": 37.487901,
        "convenience_store_lon": 126.9069396,
        "convenience_store_type": "편의점",
        "convenience_store_name": "GS25 동작상떼빌점",
        "distance": 283.39108526234816,
        "walking_time": "약 5분"
      },
      {
        "convenience_store_lat": 37.48693112,
        "convenience_store_lon": 126.9005986,
        "convenience_store_type": "편의점",
        "convenience_store_name": "CU 대림희망점",
        "distance": 313.5969650556476,
        "walking_time": "약 5분"
      },
      {
        "convenience_store_lat": 37.49119593,
        "convenience_store_lon": 126.905631,
        "convenience_store_type": "편의점",
        "convenience_store_name": "GS25 신대림초교점",
        "distance": 369.1598837849721,
        "walking_time": "약 6분"
      },
      {
        "convenience_store_lat": 37.49125828,
        "convenience_store_lon": 126.900788,
        "convenience_store_type": "편의점",
        "convenience_store_name": "GS25 대림다사랑점",
        "distance": 426.59359811224056,
        "walking_time": "약 7분"
      },
      {
        "convenience_store_lat": 37.48852857,
        "convenience_store_lon": 126.9088193,
        "convenience_store_type": "편의점",
        "convenience_store_name": "CU 신대방아너스빌점",
        "distance": 448.12754337413327,
        "walking_time": "약 7분"
      },
      {
        "convenience_store_lat": 37.49037497,
        "convenience_store_lon": 126.9080767,
        "convenience_store_type": "편의점",
        "convenience_store_name": "GS25 신대방후레쉬점",
        "distance": 449.88144524713584,
        "walking_time": "약 7분"
      },
      {
        "convenience_store_lat": 37.49105582,
        "convenience_store_lon": 126.9075569,
        "convenience_store_type": "편의점",
        "convenience_store_name": "GS25 대림성모점",
        "distance": 459.7648153038396,
        "walking_time": "약 7분"
      },
      {
        "convenience_store_lat": 37.49258452,
        "convenience_store_lon": 126.9036766,
        "convenience_store_type": "편의점",
        "convenience_store_name": "CU 대림디지털점",
        "distance": 484.3973402776294,
        "walking_time": "약 8분"
      }
    ],
    "daycare": [
      {
        "daycare_lat": 37.48835064,
        "daycare_lon": 126.9029655,
        "daycare_type": "어린이집",
        "daycare_name": "윤지어린이집",
        "distance": 70.90849233827889,
        "walking_time": "약 2분"
      },
      {
        "daycare_lat": 37.48924133,
        "daycare_lon": 126.9036942,
        "daycare_type": "어린이집",
        "daycare_name": "해나라어린이집",
        "distance": 112.72794342670365,
        "walking_time": "약 2분"
      },
      {
        "daycare_lat": 37.49034098,
        "daycare_lon": 126.9033468,
        "daycare_type": "어린이집",
        "daycare_name": "예지미예뜰어린이집",
        "distance": 237.61478779088256,
        "walking_time": "약 4분"
      },
      {
        "daycare_lat": 37.48755133,
        "daycare_lon": 126.9067471,
        "daycare_type": "어린이집",
        "daycare_name": "상떼빌키즈어린이집",
        "distance": 274.58654238627605,
        "walking_time": "약 5분"
      },
      {
        "daycare_lat": 37.4861231,
        "daycare_lon": 126.9061764,
        "daycare_type": "어린이집",
        "daycare_name": "구립신대방누리어린이집",
        "distance": 316.994326409865,
        "walking_time": "약 5분"
      },
      {
        "daycare_lat": 37.49101579272708,
        "daycare_lon": 126.90500065561346,
        "daycare_type": "어린이집",
        "daycare_name": "더크는어린이집",
        "distance": 328.8441610478416,
        "walking_time": "약 5분"
      },
      {
        "daycare_lat": 37.49101787856108,
        "daycare_lon": 126.90600693456965,
        "daycare_type": "어린이집",
        "daycare_name": "리틀푸른어린이집",
        "distance": 368.3615885682662,
        "walking_time": "약 6분"
      },
      {
        "daycare_lat": 37.4872898,
        "daycare_lon": 126.899444,
        "daycare_type": "어린이집",
        "daycare_name": "한솔어린이집",
        "distance": 394.3751432350258,
        "walking_time": "약 6분"
      },
      {
        "daycare_lat": 37.4917506,
        "daycare_lon": 126.9045066978156,
        "daycare_type": "어린이집",
        "daycare_name": "새싹어린이집",
        "distance": 397.2070232753999,
        "walking_time": "약 6분"
      },
      {
        "daycare_lat": 37.48851104,
        "daycare_lon": 126.9088047,
        "daycare_type": "어린이집",
        "daycare_name": "예솔어린이집",
        "distance": 446.7017684789906,
        "walking_time": "약 7분"
      }
    ],
    "education": [
      {
        "education_lat": 37.48606517,
        "education_lon": 126.9058854,
        "education_type": "도서관",
        "education_name": "신대방누리도서관",
        "distance": 305.3334722286846,
        "walking_time": "약 5분"
      },
      {
        "education_lat": 37.4798477,
        "education_lon": 126.8953185,
        "education_type": "박물관/기념관",
        "education_name": "G밸리산업박물관",
        "distance": 1192.6950449800102,
        "walking_time": "약 18분"
      },
      {
        "education_lat": 37.48714316,
        "education_lon": 126.8901547,
        "education_type": "도서관",
        "education_name": "꿈마을도서관",
        "distance": 1205.970496937034,
        "walking_time": "약 18분"
      },
      {
        "education_lat": 37.49662515,
        "education_lon": 126.890315,
        "education_type": "문화예술회관",
        "education_name": "구로아트밸리예술극장",
        "distance": 1509.1622627907116,
        "walking_time": "약 23분"
      },
      {
        "education_lat": 37.4808823,
        "education_lon": 126.9182364,
        "education_type": "박물관/기념관",
        "education_name": "호림박물관(신림본관)",
        "distance": 1516.6186110076237,
        "walking_time": "약 23분"
      },
      {
        "education_lat": 37.49865742,
        "education_lon": 126.8915436,
        "education_type": "도서관",
        "education_name": "서울특별시교육청구로도서관",
        "distance": 1582.8065614529378,
        "walking_time": "약 24분"
      },
      {
        "education_lat": 37.47349155,
        "education_lon": 126.8921298,
        "education_type": "도서관",
        "education_name": "금천구립가산도서관",
        "distance": 1933.2515494659388,
        "walking_time": "약 29분"
      },
      {
        "education_lat": 37.4718013,
        "education_lon": 126.896009,
        "education_type": "공연장",
        "education_name": "문화정원아트홀",
        "distance": 1950.3126766088608,
        "walking_time": "약 30분"
      }
    ],
    "electric_gas_station": [
      {
        "electric_gas_station_lat": 37.48105867,
        "electric_gas_station_lon": 126.9057171,
        "electric_gas_station_type": "전기차 충전소",
        "electric_gas_station_name": "조원동 제1공영주차장",
        "distance": 815.8603019667854,
        "walking_time": "약 13분"
      },
      {
        "electric_gas_station_lat": 37.49183884,
        "electric_gas_station_lon": 126.8917009,
        "electric_gas_station_type": "전기차 충전소",
        "electric_gas_station_name": "구로리공원 앞(공중전화부스)",
        "distance": 1136.70197458674,
        "walking_time": "약 17분"
      }
    ],
    "fitness": [
      {
        "fitness_lat": 37.487901,
        "fitness_lon": 126.9069396,
        "fitness_type": "운동시설",
        "fitness_name": "성원상떼빌 휘트니스",
        "distance": 283.39108526234816,
        "walking_time": "약 5분"
      },
      {
        "fitness_lat": 37.487901,
        "fitness_lon": 126.9069396,
        "fitness_type": "운동시설",
        "fitness_name": "근핏",
        "distance": 283.39108526234816,
        "walking_time": "약 5분"
      },
      {
        "fitness_lat": 37.487901,
        "fitness_lon": 126.9069396,
        "fitness_type": "운동시설",
        "fitness_name": "워터힐 헬스",
        "distance": 283.39108526234816,
        "walking_time": "약 5분"
      },
      {
        "fitness_lat": 37.48994328,
        "fitness_lon": 126.9078218,
        "fitness_type": "운동시설",
        "fitness_name": "엠에이치 토탈 휘트니스 신대방",
        "distance": 406.3725567386047,
        "walking_time": "약 7분"
      },
      {
        "fitness_lat": 37.49037497,
        "fitness_lon": 126.9080767,
        "fitness_type": "운동시설",
        "fitness_name": "짐박스 피트니스 신대방점",
        "distance": 449.88144524713584,
        "walking_time": "약 7분"
      },
      {
        "fitness_lat": 37.48454459,
        "fitness_lon": 126.9011985,
        "fitness_type": "운동시설",
        "fitness_name": "에이블짐 구로디지털단지역점",
        "distance": 467.6193134004924,
        "walking_time": "약 7분"
      },
      {
        "fitness_lat": 37.48591892,
        "fitness_lon": 126.8984724,
        "fitness_type": "운동시설",
        "fitness_name": "IXU 웰니스 짐",
        "distance": 532.1207822526674,
        "walking_time": "약 8분"
      },
      {
        "fitness_lat": 37.48399406,
        "fitness_lon": 126.9007566,
        "fitness_type": "운동시설",
        "fitness_name": "우리 크로스핏 구디",
        "distance": 540.0700702627892,
        "walking_time": "약 9분"
      },
      {
        "fitness_lat": 37.48329684,
        "fitness_lon": 126.9034492,
        "fitness_type": "운동시설",
        "fitness_name": "유얼스짐PT 구로디지털점",
        "distance": 549.0545956187804,
        "walking_time": "약 9분"
      },
      {
        "fitness_lat": 37.48337578,
        "fitness_lon": 126.9023739,
        "fitness_type": "운동시설",
        "fitness_name": "정피트니스(2호점)",
        "distance": 553.1918637360567,
        "walking_time": "약 9분"
      }
    ],
    "gas_station": [
      {
        "gas_station_lat": 37.48708383,
        "gas_station_lon": 126.9056392,
        "gas_station_type": "주유소",
        "gas_station_name": "현대오일뱅크㈜직영신대방셀프주유소",
        "distance": 209.4337399883255,
        "walking_time": "약 4분"
      },
      {
        "gas_station_lat": 37.48153123,
        "gas_station_lon": 126.8997835,
        "gas_station_type": "주유소",
        "gas_station_name": "JHC에너지",
        "distance": 823.0220229946584,
        "walking_time": "약 13분"
      },
      {
        "gas_station_lat": 37.48094907,
        "gas_station_lon": 126.899232,
        "gas_station_type": "주유소",
        "gas_station_name": "현대오일뱅크(주)직영 구로셀프주유소",
        "distance": 902.4631843651885,
        "walking_time": "약 14분"
      },
      {
        "gas_station_lat": 37.48020575,
        "gas_station_lon": 126.9075034,
        "gas_station_type": "주유소",
        "gas_station_name": "현대오일뱅크(주)직영 금천제일주유소",
        "distance": 951.4647699882926,
        "walking_time": "약 15분"
      },
      {
        "gas_station_lat": 37.49083817,
        "gas_station_lon": 126.8931744,
        "gas_station_type": "주유소",
        "gas_station_name": "동아주유소",
        "distance": 977.5179150804142,
        "walking_time": "약 15분"
      },
      {
        "gas_station_lat": 37.49906276,
        "gas_station_lon": 126.9087927,
        "gas_station_type": "주유소",
        "gas_station_name": "지에스칼텍스㈜신길주유소",
        "distance": 1284.086912415988,
        "walking_time": "약 20분"
      },
      {
        "gas_station_lat": 37.47682775,
        "gas_station_lon": 126.8991106,
        "gas_station_type": "주유소",
        "gas_station_name": "㈜화동유업",
        "distance": 1332.298999724057,
        "walking_time": "약 20분"
      },
      {
        "gas_station_lat": 37.49858495,
        "gas_station_lon": 126.8958175,
        "gas_station_type": "주유소",
        "gas_station_name": "(주)대청에너지",
        "distance": 1347.745822901397,
        "walking_time": "약 21분"
      },
      {
        "gas_station_lat": 37.49755338,
        "gas_station_lon": 126.892394,
        "gas_station_type": "주유소",
        "gas_station_name": "현대오일뱅크(주)직영 신구로주유소",
        "distance": 1442.0895601422292,
        "walking_time": "약 22분"
      },
      {
        "gas_station_lat": 37.48302235,
        "gas_station_lon": 126.9188525,
        "gas_station_type": "주유소",
        "gas_station_name": "씨제이대한통운(주)",
        "distance": 1452.521541397875,
        "walking_time": "약 22분"
      }
    ],
    "hospital": [
      {
        "hospital_lat": 37.48892863,
        "hospital_lon": 126.9037234,
        "hospital_type": "병원",
        "hospital_name": "크리스트의원",
        "distance": 77.8802036718027,
        "walking_time": "약 2분"
      },
      {
        "hospital_lat": 37.48771045,
        "hospital_lon": 126.904475,
        "hospital_type": "병원",
        "hospital_name": "박금자산부인과의원",
        "distance": 85.81081377750564,
        "walking_time": "약 2분"
      },
      {
        "hospital_lat": 37.48891914,
        "hospital_lon": 126.9059256,
        "hospital_type": "병원",
        "hospital_name": "연세라파엘의원",
        "distance": 206.3841680865577,
        "walking_time": "약 4분"
      },
      {
        "hospital_lat": 37.48891914,
        "hospital_lon": 126.9059256,
        "hospital_type": "병원",
        "hospital_name": "밝은빛성모안과의원",
        "distance": 206.3841680865577,
        "walking_time": "약 4분"
      },
      {
        "hospital_lat": 37.48891914,
        "hospital_lon": 126.9059256,
        "hospital_type": "병원",
        "hospital_name": "연세감동치과의원",
        "distance": 206.3841680865577,
        "walking_time": "약 4분"
      },
      {
        "hospital_lat": 37.48891914,
        "hospital_lon": 126.9059256,
        "hospital_type": "병원",
        "hospital_name": "좋은숨김동규내과재활의학과의원",
        "distance": 206.3841680865577,
        "walking_time": "약 4분"
      },
      {
        "hospital_lat": 37.48945962,
        "hospital_lon": 126.9057654,
        "hospital_type": "병원",
        "hospital_name": "서울의료복지사회적협동조합우리네한의원",
        "distance": 224.0952638073204,
        "walking_time": "약 4분"
      },
      {
        "hospital_lat": 37.48838693,
        "hospital_lon": 126.9066219,
        "hospital_type": "병원",
        "hospital_name": "의료법인에이치엠피의료재단녹십초요양병원",
        "distance": 253.61863889049772,
        "walking_time": "약 4분"
      },
      {
        "hospital_lat": 37.48601595,
        "hospital_lon": 126.904509,
        "hospital_type": "병원",
        "hospital_name": "경희제일한의원",
        "distance": 254.8936354195915,
        "walking_time": "약 4분"
      },
      {
        "hospital_lat": 37.48601595,
        "hospital_lon": 126.904509,
        "hospital_type": "병원",
        "hospital_name": "구재홍치과의원",
        "distance": 254.8936354195915,
        "walking_time": "약 4분"
      }
    ],
    "music_room": [
      {
        "music_room_lat": 37.48866868,
        "music_room_lon": 126.9034877,
        "music_room_type": "노래방",
        "music_room_name": "꿀단지 노래연습장",
        "distance": 54.28913340720699,
        "walking_time": "약 1분"
      },
      {
        "music_room_lat": 37.48944368,
        "music_room_lon": 126.9037677,
        "music_room_type": "노래방",
        "music_room_name": "궁노래연습장",
        "distance": 135.10846082378634,
        "walking_time": "약 3분"
      },
      {
        "music_room_lat": 37.48958582,
        "music_room_lon": 126.9042725,
        "music_room_type": "노래방",
        "music_room_name": "윤회노래연습장",
        "distance": 157.68168521816835,
        "walking_time": "약 3분"
      },
      {
        "music_room_lat": 37.48956677,
        "music_room_lon": 126.9047775,
        "music_room_type": "노래방",
        "music_room_name": "소시대(小時代) 노래연습장",
        "distance": 174.0343180218816,
        "walking_time": "약 3분"
      },
      {
        "music_room_lat": 37.48980276,
        "music_room_lon": 126.9044606,
        "music_room_type": "노래방",
        "music_room_name": "MC노래연습장",
        "distance": 185.7926972488109,
        "walking_time": "약 3분"
      },
      {
        "music_room_lat": 37.48903812,
        "music_room_lon": 126.9056454,
        "music_room_type": "노래방",
        "music_room_name": "대지노래연습장",
        "distance": 189.57845438861864,
        "walking_time": "약 3분"
      },
      {
        "music_room_lat": 37.48991684,
        "music_room_lon": 126.9048177,
        "music_room_type": "노래방",
        "music_room_name": "킹카 노래연습장",
        "distance": 209.85642009387004,
        "walking_time": "약 4분"
      },
      {
        "music_room_lat": 37.49013855,
        "music_room_lon": 126.9045542,
        "music_room_type": "노래방",
        "music_room_name": "북경 노래연습장",
        "distance": 223.7881453894608,
        "walking_time": "약 4분"
      },
      {
        "music_room_lat": 37.49013855,
        "music_room_lon": 126.9045542,
        "music_room_type": "노래방",
        "music_room_name": "친구 노래연습장",
        "distance": 223.7881453894608,
        "walking_time": "약 4분"
      },
      {
        "music_room_lat": 37.48945962,
        "music_room_lon": 126.9057654,
        "music_room_type": "노래방",
        "music_room_name": "kbs노래연습장",
        "distance": 224.0952638073204,
        "walking_time": "약 4분"
      }
    ],
    "outdoor_sports": [
      {
        "outdoor_sports_lat": 37.4854463023684,
        "outdoor_sports_lon": 126.900861931696,
        "outdoor_sports_type": "야외 체육시설",
        "outdoor_sports_name": "구로디지털단지역 하부",
        "distance": 401.05837460576737,
        "walking_time": "약 6분"
      },
      {
        "outdoor_sports_lat": 37.4917935272155,
        "outdoor_sports_lon": 126.895209860135,
        "outdoor_sports_type": "야외 체육시설",
        "outdoor_sports_name": "대림역 하부",
        "distance": 851.7304070055648,
        "walking_time": "약 13분"
      },
      {
        "outdoor_sports_lat": 37.4908836860729,
        "outdoor_sports_lon": 126.891610005413,
        "outdoor_sports_type": "야외 체육시설",
        "outdoor_sports_name": "구로리어린이공원",
        "distance": 1111.4118880176964,
        "walking_time": "약 17분"
      }
    ],
    "park": [
      {
        "park_lat": 37.492333,
        "park_lon": 126.918289,
        "park_type": "공원",
        "park_name": "보라매근린공원",
        "distance": 1361.1596203069785,
        "walking_time": "약 21분"
      },
      {
        "park_lat": 37.4734274,
        "park_lon": 126.9090028,
        "park_type": "공원",
        "park_name": "만수천공원(관악산)",
        "distance": 1709.74400606608,
        "walking_time": "약 26분"
      }
    ],
    "park_station": [
      {
        "park_station_lat": 37.4912025,
        "park_station_lon": 126.9032808,
        "park_station_type": "주차장",
        "park_station_name": "대림어린이공원 공영",
        "distance": 333.30404629251933,
        "walking_time": "약 5분"
      },
      {
        "park_station_lat": 37.48878109,
        "park_station_lon": 126.9078473,
        "park_station_type": "주차장",
        "park_station_name": "서광주차장",
        "distance": 366.3113126139961,
        "walking_time": "약 6분"
      },
      {
        "park_station_lat": 37.48478517,
        "park_station_lon": 126.9032892,
        "park_station_type": "주차장",
        "park_station_name": "구로디지털단지역 공영주차장",
        "distance": 385.0924641596044,
        "walking_time": "약 6분"
      },
      {
        "park_station_lat": 37.4854463,
        "park_station_lon": 126.9008619,
        "park_station_type": "주차장",
        "park_station_name": "구로디지털단지역 공영주차장",
        "distance": 401.0603573276707,
        "walking_time": "약 6분"
      },
      {
        "park_station_lat": 37.48369142,
        "park_station_lon": 126.9031528,
        "park_station_type": "주차장",
        "park_station_name": "조원동제2공영",
        "distance": 507.3028962775634,
        "walking_time": "약 8분"
      },
      {
        "park_station_lat": 37.49157218,
        "park_station_lon": 126.8997044,
        "park_station_type": "주차장",
        "park_station_name": "대림2동공영",
        "distance": 515.6546875135663,
        "walking_time": "약 8분"
      },
      {
        "park_station_lat": 37.48355607,
        "park_station_lon": 126.9030187,
        "park_station_type": "주차장",
        "park_station_name": "조원동제2공영",
        "distance": 523.6076610743465,
        "walking_time": "약 8분"
      },
      {
        "park_station_lat": 37.48343065,
        "park_station_lon": 126.9046863,
        "park_station_type": "주차장",
        "park_station_name": "조원동제2공영",
        "distance": 539.815043100884,
        "walking_time": "약 9분"
      },
      {
        "park_station_lat": 37.49315047,
        "park_station_lon": 126.9016303,
        "park_station_type": "주차장",
        "park_station_name": "대림1동공영",
        "distance": 578.4749504221943,
        "walking_time": "약 9분"
      },
      {
        "park_station_lat": 37.48105867,
        "park_station_lon": 126.9057171,
        "park_station_type": "주차장",
        "park_station_name": "조원동 제1공영주차장",
        "distance": 815.8603019667854,
        "walking_time": "약 13분"
      }
    ],
    "pc_room": [
      {
        "pc_room_lat": 37.48874896166,
        "pc_room_lon": 126.906974343488,
        "pc_room_type": "PC방",
        "pc_room_name": "파이터PC방",
        "distance": 289.9338118546108,
        "walking_time": "약 5분"
      },
      {
        "pc_room_lat": 37.4904985059027,
        "pc_room_lon": 126.901704902363,
        "pc_room_type": "PC방",
        "pc_room_name": "모모PC",
        "distance": 310.4818079468549,
        "walking_time": "약 5분"
      },
      {
        "pc_room_lat": 37.4904027399056,
        "pc_room_lon": 126.901501831886,
        "pc_room_type": "PC방",
        "pc_room_name": "동보PC",
        "distance": 312.94967316819475,
        "walking_time": "약 5분"
      },
      {
        "pc_room_lat": 37.4893843599148,
        "pc_room_lon": 126.907213384594,
        "pc_room_type": "PC방",
        "pc_room_name": "시즌아이PC방(신대방본점)",
        "distance": 331.14424288322624,
        "walking_time": "약 5분"
      },
      {
        "pc_room_lat": 37.489724696651,
        "pc_room_lon": 126.900492066041,
        "pc_room_type": "PC방",
        "pc_room_name": "청도PC",
        "distance": 332.4431405854998,
        "walking_time": "약 5분"
      },
      {
        "pc_room_lat": 37.4909665473165,
        "pc_room_lon": 126.901883401353,
        "pc_room_type": "PC방",
        "pc_room_name": "Ace PC",
        "distance": 346.3107131150251,
        "walking_time": "약 6분"
      },
      {
        "pc_room_lat": 37.4910339315147,
        "pc_room_lon": 126.90154510272,
        "pc_room_type": "PC방",
        "pc_room_name": "마라공장PC",
        "distance": 367.8237182693252,
        "walking_time": "약 6분"
      },
      {
        "pc_room_lat": 37.4916195120765,
        "pc_room_lon": 126.902761155076,
        "pc_room_type": "PC방",
        "pc_room_name": "왕대박PC",
        "distance": 387.0933409925557,
        "walking_time": "약 6분"
      },
      {
        "pc_room_lat": 37.4916195120765,
        "pc_room_lon": 126.902761155076,
        "pc_room_type": "PC방",
        "pc_room_name": "정PC",
        "distance": 387.0933409925557,
        "walking_time": "약 6분"
      },
      {
        "pc_room_lat": 37.4890412403315,
        "pc_room_lon": 126.899272688257,
        "pc_room_type": "PC방",
        "pc_room_name": "팡팡PC",
        "distance": 405.6086065326695,
        "walking_time": "약 7분"
      }
    ],
    "police_office": [
      {
        "police_office_lat": 37.48664583,
        "police_office_lon": 126.9059471,
        "police_office_type": "경찰소",
        "police_office_name": "신대방지구대",
        "distance": 261.5500735072951,
        "walking_time": "약 4분"
      },
      {
        "police_office_lat": 37.49343055,
        "police_office_lon": 126.8987029,
        "police_office_type": "경찰소",
        "police_office_name": "대림지구대",
        "distance": 730.2058622861529,
        "walking_time": "약 11분"
      },
      {
        "police_office_lat": 37.4872985,
        "police_office_lon": 126.9142051,
        "police_office_type": "경찰소",
        "police_office_name": "신사지구대",
        "distance": 927.8676546945584,
        "walking_time": "약 14분"
      },
      {
        "police_office_lat": 37.48666065,
        "police_office_lon": 126.8913999,
        "police_office_type": "경찰소",
        "police_office_name": "구로3파출소",
        "distance": 1103.9087649110538,
        "walking_time": "약 17분"
      },
      {
        "police_office_lat": 37.48925211,
        "police_office_lon": 126.8907002,
        "police_office_type": "경찰소",
        "police_office_name": "구일지구대",
        "distance": 1157.376857194078,
        "walking_time": "약 18분"
      },
      {
        "police_office_lat": 37.49898725,
        "police_office_lon": 126.8966377,
        "police_office_type": "경찰소",
        "police_office_name": "대림3파출소",
        "distance": 1351.0524114726722,
        "walking_time": "약 21분"
      },
      {
        "police_office_lat": 37.47992421,
        "police_office_lon": 126.9156105,
        "police_office_type": "경찰소",
        "police_office_name": "미성파출소",
        "distance": 1395.3833790282313,
        "walking_time": "약 21분"
      },
      {
        "police_office_lat": 37.47920893,
        "police_office_lon": 126.8926603,
        "police_office_type": "경찰소",
        "police_office_name": "가리봉파출소",
        "distance": 1401.4779655539478,
        "walking_time": "약 21분"
      },
      {
        "police_office_lat": 37.49909994,
        "police_office_lon": 126.9128049,
        "police_office_type": "경찰소",
        "police_office_name": "신풍지구대",
        "distance": 1448.7380461210637,
        "walking_time": "약 22분"
      }
    ],
    "post_office": [
      {
        "post_office_lat": 37.48967148,
        "post_office_lon": 126.9045668,
        "post_office_type": "우체국",
        "post_office_name": "서울대림동우체국",
        "distance": 175.71992247134222,
        "walking_time": "약 3분"
      },
      {
        "post_office_lat": 37.49415933,
        "post_office_lon": 126.9007745,
        "post_office_type": "우체국",
        "post_office_name": "서울대림1동우편취급국",
        "distance": 709.9329604547485,
        "walking_time": "약 11분"
      },
      {
        "post_office_lat": 37.48329888,
        "post_office_lon": 126.8984697,
        "post_office_type": "우체국",
        "post_office_name": "서울구로디지털단지우체국",
        "distance": 719.6574705764356,
        "walking_time": "약 11분"
      },
      {
        "post_office_lat": 37.48501945,
        "post_office_lon": 126.9155289,
        "post_office_type": "우체국",
        "post_office_name": "서울관악신사동우편취급국",
        "distance": 1098.4794475853082,
        "walking_time": "약 17분"
      },
      {
        "post_office_lat": 37.4984417,
        "post_office_lon": 126.9079864,
        "post_office_type": "우체국",
        "post_office_name": "서울신길5동우체국",
        "distance": 1195.4412939037395,
        "walking_time": "약 18분"
      },
      {
        "post_office_lat": 37.47844469,
        "post_office_lon": 126.8937442,
        "post_office_type": "우체국",
        "post_office_name": "서울가산동우체국",
        "distance": 1401.333697113418,
        "walking_time": "약 21분"
      },
      {
        "post_office_lat": 37.47854878,
        "post_office_lon": 126.9149155,
        "post_office_type": "우체국",
        "post_office_name": "서울난곡우체국",
        "distance": 1458.908230428942,
        "walking_time": "약 22분"
      },
      {
        "post_office_lat": 37.47019149,
        "post_office_lon": 126.8985251,
        "post_office_type": "우체국",
        "post_office_name": "서울금천우체국",
        "distance": 2058.038931548665,
        "walking_time": "약 31분"
      }
    ],
    "public_health_center": [
      {
        "public_health_center_lat": 37.48199214,
        "public_health_center_lon": 126.8923489,
        "public_health_center_type": "보건소",
        "public_health_center_name": "G밸리보건지소",
        "distance": 1222.1479205247304,
        "walking_time": "약 19분"
      }
    ],
    "school": [
      {
        "school_lat": 37.4873460122893,
        "school_lon": 126.902516130281,
        "school_type": "초등학교",
        "school_name": "서울영림초등학교",
        "distance": 146.86032217570911,
        "walking_time": "약 3분"
      },
      {
        "school_lat": 37.4921487438027,
        "school_lon": 126.90607771762,
        "school_type": "초등학교",
        "school_name": "서울신대림초등학교",
        "distance": 481.6874131158702,
        "walking_time": "약 8분"
      },
      {
        "school_lat": 37.4921386164499,
        "school_lon": 126.906943001077,
        "school_type": "중학교",
        "school_name": "대림중학교",
        "distance": 517.8506056086395,
        "walking_time": "약 8분"
      },
      {
        "school_lat": 37.4937093653318,
        "school_lon": 126.900450594121,
        "school_type": "초등학교",
        "school_name": "서울대동초등학교",
        "distance": 675.5449205898807,
        "walking_time": "약 11분"
      },
      {
        "school_lat": 37.484127765974,
        "school_lon": 126.909505620969,
        "school_type": "초등학교",
        "school_name": "서울조원초등학교",
        "distance": 682.2356337141734,
        "walking_time": "약 11분"
      },
      {
        "school_lat": 37.4879630931966,
        "school_lon": 126.895027399291,
        "school_type": "초등학교",
        "school_name": "서울영서초등학교",
        "distance": 770.5515562504544,
        "walking_time": "약 12분"
      },
      {
        "school_lat": 37.4897523897016,
        "school_lon": 126.89491012521,
        "school_type": "중학교",
        "school_name": "영서중학교",
        "distance": 798.5055656129995,
        "walking_time": "약 12분"
      },
      {
        "school_lat": 37.4889482943857,
        "school_lon": 126.914528045959,
        "school_type": "초등학교",
        "school_name": "서울문창초등학교",
        "distance": 953.9304588442956,
        "walking_time": "약 15분"
      },
      {
        "school_lat": 37.4792685652716,
        "school_lon": 126.907219449459,
        "school_type": "고등학교",
        "school_name": "금천문화예술정보학교",
        "distance": 1042.1761698176886,
        "walking_time": "약 16분"
      },
      {
        "school_lat": 37.4928014552579,
        "school_lon": 126.914907105304,
        "school_type": "고등학교",
        "school_name": "수도여자고등학교",
        "distance": 1107.5983757776953,
        "walking_time": "약 17분"
      }
    ],
    "self_laundromat": [
      {
        "self_laundromat_lat": 37.49878935,
        "self_laundromat_lon": 126.917808,
        "self_laundromat_type": "셀프 빨래방",
        "self_laundromat_name": "이지셀프빨래방",
        "distance": 1707.707613441465,
        "walking_time": "약 26분"
      },
      {
        "self_laundromat_lat": 37.49878935,
        "self_laundromat_lon": 126.917808,
        "self_laundromat_type": "셀프 빨래방",
        "self_laundromat_name": "이지셀프빨래방",
        "distance": 1707.707613441465,
        "walking_time": "약 26분"
      }
    ],
    "subway": [
      {
        "subway_lat": 37.4853149237865,
        "subway_lon": 126.901494378412,
        "subway_type": "지하철",
        "subway_name": "2호선-구로디지털단지역",
        "distance": 380.4374879102381,
        "walking_time": "약 6분"
      },
      {
        "subway_lat": 37.4927430722225,
        "subway_lon": 126.896611839343,
        "subway_type": "지하철",
        "subway_name": "7호선-대림(구로구청)역",
        "distance": 805.6646380813387,
        "walking_time": "약 13분"
      },
      {
        "subway_lat": 37.4875759745635,
        "subway_lon": 126.913175585996,
        "subway_type": "지하철",
        "subway_name": "2호선-신대방역",
        "distance": 834.4103104138305,
        "walking_time": "약 13분"
      },
      {
        "subway_lat": 37.4933105886136,
        "subway_lon": 126.8949461878,
        "subway_type": "지하철",
        "subway_name": "2호선-대림(구로구청)역",
        "distance": 960.85382183523,
        "walking_time": "약 15분"
      }
    ],
    "supermarket": [
      {
        "supermarket_lat": 37.48439923,
        "supermarket_lon": 126.8978858,
        "supermarket_type": "마트",
        "supermarket_name": "(주)이마트 구로점",
        "distance": 670.3974829591034,
        "walking_time": "약 11분"
      },
      {
        "supermarket_lat": 37.48314523,
        "supermarket_lon": 126.9114212,
        "supermarket_type": "마트",
        "supermarket_name": "신림중앙시장",
        "distance": 881.5502302136242,
        "walking_time": "약 14분"
      },
      {
        "supermarket_lat": 37.49530067,
        "supermarket_lon": 126.8980583,
        "supermarket_type": "마트",
        "supermarket_name": "두암종합시장",
        "distance": 933.2348331289038,
        "walking_time": "약 14분"
      },
      {
        "supermarket_lat": 37.49530067,
        "supermarket_lon": 126.8980583,
        "supermarket_type": "마트",
        "supermarket_name": "두암상가",
        "distance": 933.2348331289038,
        "walking_time": "약 14분"
      },
      {
        "supermarket_lat": 37.49637821,
        "supermarket_lon": 126.9080933,
        "supermarket_type": "마트",
        "supermarket_name": "썬프라자",
        "distance": 983.7273823919594,
        "walking_time": "약 15분"
      },
      {
        "supermarket_lat": 37.47806807,
        "supermarket_lon": 126.9014441,
        "supermarket_type": "마트",
        "supermarket_name": "푸른터시장",
        "distance": 1148.0493164960633,
        "walking_time": "약 18분"
      },
      {
        "supermarket_lat": 37.49732616,
        "supermarket_lon": 126.9130959,
        "supermarket_type": "마트",
        "supermarket_name": "홈플러스(주) 익스프레스 신길점",
        "distance": 1304.8256697178674,
        "walking_time": "약 20분"
      },
      {
        "supermarket_lat": 37.49981392,
        "supermarket_lon": 126.9096029,
        "supermarket_type": "마트",
        "supermarket_name": "(주)이마트에브리데이 신풍역점",
        "distance": 1387.7151565973022,
        "walking_time": "약 21분"
      },
      {
        "supermarket_lat": 37.47544481,
        "supermarket_lon": 126.8936809,
        "supermarket_type": "마트",
        "supermarket_name": "홈플러스(주)익스프레스 가산점",
        "distance": 1676.525994801371,
        "walking_time": "약 26분"
      },
      {
        "supermarket_lat": 37.47428544,
        "supermarket_lon": 126.9180585,
        "supermarket_type": "마트",
        "supermarket_name": "(주)천성세이브마트",
        "distance": 1999.225364721953,
        "walking_time": "약 30분"
      }
    ],
    "tax_office": [
      {
        "tax_office_lat": 37.47801956,
        "tax_office_lon": 126.8997992,
        "tax_office_type": "세무서",
        "tax_office_name": "금천세무서",
        "distance": 1187.633721736163,
        "walking_time": "약 18분"
      },
      {
        "tax_office_lat": 37.49908057,
        "tax_office_lon": 126.9198001,
        "tax_office_type": "세무서",
        "tax_office_name": "동작세무서",
        "distance": 1860.126259981737,
        "walking_time": "약 28분"
      }
    ],
    "theater": [
      {
        "theater_lat": 37.4864917793931,
        "theater_lon": 126.905526238207,
        "theater_type": "영화관",
        "theater_name": "롯데시네마 신대방",
        "distance": 248.4794948155084,
        "walking_time": "약 4분"
      }
    ]
  }
}