{
  "클러스터_위도": 37.48090350010214,
  "클러스터_경도": 126.92368050012333,
  "클러스터_level": 3.0,
  "facilities": {
    "bus": [
      {
        "bus_lat": 37.47910969,
        "bus_lon": 126.9245139,
        "bus_type": "버스정류장",
        "bus_name": "관악세무서",
        "distance": 212.58738362017644,
        "walking_time": "약 4분"
      },
      {
        "bus_lat": 37.47922564,
        "bus_lon": 126.9262097,
        "bus_type": "버스정류장",
        "bus_name": "신원동치안센터",
        "distance": 290.889068581614,
        "walking_time": "약 5분"
      },
      {
        "bus_lat": 37.48340202,
        "bus_lon": 126.9220448,
        "bus_type": "버스정류장",
        "bus_name": "남부초등학교",
        "distance": 313.07644295771445,
        "walking_time": "약 5분"
      },
      {
        "bus_lat": 37.48281955,
        "bus_lon": 126.9210109,
        "bus_type": "버스정류장",
        "bus_name": "남서울중학교.성보중고등학교",
        "distance": 317.618336715294,
        "walking_time": "약 5분"
      },
      {
        "bus_lat": 37.47909088,
        "bus_lon": 126.9270326,
        "bus_type": "버스정류장",
        "bus_name": "신원동치안센터",
        "distance": 357.93346149324265,
        "walking_time": "약 6분"
      },
      {
        "bus_lat": 37.48132003,
        "bus_lon": 126.9282143,
        "bus_type": "버스정류장",
        "bus_name": "동부아파트",
        "distance": 402.73091731678994,
        "walking_time": "약 7분"
      },
      {
        "bus_lat": 37.47947352,
        "bus_lon": 126.9279662,
        "bus_type": "버스정류장",
        "bus_name": "서강약국",
        "distance": 410.23969957541897,
        "walking_time": "약 7분"
      },
      {
        "bus_lat": 37.48130124,
        "bus_lon": 126.9284314,
        "bus_type": "버스정류장",
        "bus_name": "동부아파트",
        "distance": 421.54201735978336,
        "walking_time": "약 7분"
      },
      {
        "bus_lat": 37.48368797,
        "bus_lon": 126.9269361,
        "bus_type": "버스정류장",
        "bus_name": "봉림교",
        "distance": 422.3578482182269,
        "walking_time": "약 7분"
      },
      {
        "bus_lat": 37.47947091,
        "bus_lon": 126.9281245,
        "bus_type": "버스정류장",
        "bus_name": "서강약국",
        "distance": 423.26000659558287,
        "walking_time": "약 7분"
      }
    ],
    "community_center": [
      {
        "community_center_lat": 37.48161061,
        "community_center_lon": 126.9273799,
        "community_center_type": "주민센터",
        "community_center_name": "신원동 자치회관",
        "distance": 335.7672506749415,
        "walking_time": "약 6분"
      },
      {
        "community_center_lat": 37.47976918,
        "community_center_lon": 126.9313747,
        "community_center_type": "주민센터",
        "community_center_name": "서원동 자치회관",
        "distance": 690.5535934184365,
        "walking_time": "약 11분"
      },
      {
        "community_center_lat": 37.48595224,
        "community_center_lon": 126.9191029,
        "community_center_type": "주민센터",
        "community_center_name": "신사동 자치회관",
        "distance": 691.5979553228235,
        "walking_time": "약 11분"
      },
      {
        "community_center_lat": 37.487396,
        "community_center_lon": 126.9271139,
        "community_center_type": "주민센터",
        "community_center_name": "신림동 자치회관",
        "distance": 782.9207212655114,
        "walking_time": "약 12분"
      },
      {
        "community_center_lat": 37.47617498,
        "community_center_lon": 126.9155517,
        "community_center_type": "주민센터",
        "community_center_name": "미성동 자치회관",
        "distance": 889.3685956580823,
        "walking_time": "약 14분"
      },
      {
        "community_center_lat": 37.47102189,
        "community_center_lon": 126.9216418,
        "community_center_type": "주민센터",
        "community_center_name": "난곡동 자치회관",
        "distance": 1113.4156052951164,
        "walking_time": "약 17분"
      },
      {
        "community_center_lat": 37.48817585,
        "community_center_lon": 126.932778,
        "community_center_type": "주민센터",
        "community_center_name": "보라매동 자치회관",
        "distance": 1139.416588329768,
        "walking_time": "약 18분"
      },
      {
        "community_center_lat": 37.47499588,
        "community_center_lon": 126.9349996,
        "community_center_type": "주민센터",
        "community_center_name": "서림동 자치회관",
        "distance": 1195.4815690398234,
        "walking_time": "약 18분"
      },
      {
        "community_center_lat": 37.48894469,
        "community_center_lon": 126.9100394,
        "community_center_type": "주민센터",
        "community_center_name": "신대방1동 자치회관",
        "distance": 1499.3938233242873,
        "walking_time": "약 23분"
      },
      {
        "community_center_lat": 37.47059604,
        "community_center_lon": 126.9369573,
        "community_center_type": "주민센터",
        "community_center_name": "대학동 자치회관",
        "distance": 1638.9994717857487,
        "walking_time": "약 25분"
      }
    ],
    "convenience_store": [
      {
        "convenience_store_lat": 37.48065629,
        "convenience_store_lon": 126.9245456,
        "convenience_store_type": "편의점",
        "convenience_store_name": "GS25 신림신원점",
        "distance": 81.13451270860847,
        "walking_time": "약 2분"
      },
      {
        "convenience_store_lat": 37.48273278,
        "convenience_store_lon": 126.9237432,
        "convenience_store_type": "편의점",
        "convenience_store_name": "CU 신림행운점",
        "distance": 203.48187086195315,
        "walking_time": "약 4분"
      },
      {
        "convenience_store_lat": 37.48059713,
        "convenience_store_lon": 126.9269013,
        "convenience_store_type": "편의점",
        "convenience_store_name": "세븐일레븐 관악신원점",
        "distance": 286.2365862413872,
        "walking_time": "약 5분"
      },
      {
        "convenience_store_lat": 37.48277741,
        "convenience_store_lon": 126.9213132,
        "convenience_store_type": "편의점",
        "convenience_store_name": "CU 관악진우점",
        "distance": 295.0446683229719,
        "walking_time": "약 5분"
      },
      {
        "convenience_store_lat": 37.48331441,
        "convenience_store_lon": 126.9213169,
        "convenience_store_type": "편의점",
        "convenience_store_name": "세븐일레븐 신림점",
        "distance": 339.65334696832764,
        "walking_time": "약 6분"
      },
      {
        "convenience_store_lat": 37.48392258,
        "convenience_store_lon": 126.9226579,
        "convenience_store_type": "편의점",
        "convenience_store_name": "GS25 신림빌리지점",
        "distance": 347.62126950009974,
        "walking_time": "약 6분"
      },
      {
        "convenience_store_lat": 37.48351418,
        "convenience_store_lon": 126.925934,
        "convenience_store_type": "편의점",
        "convenience_store_name": "GS25 신림성화점",
        "distance": 351.8661298537496,
        "walking_time": "약 6분"
      },
      {
        "convenience_store_lat": 37.47915647,
        "convenience_store_lon": 126.9275614,
        "convenience_store_type": "편의점",
        "convenience_store_name": "GS25 신림터널점",
        "distance": 393.71425643229657,
        "walking_time": "약 6분"
      },
      {
        "convenience_store_lat": 37.4833434,
        "convenience_store_lon": 126.9274775,
        "convenience_store_type": "편의점",
        "convenience_store_name": "미니스톱 신림푸리마점",
        "distance": 431.1121255542994,
        "walking_time": "약 7분"
      },
      {
        "convenience_store_lat": 37.48520213,
        "convenience_store_lon": 126.9239545,
        "convenience_store_type": "편의점",
        "convenience_store_name": "CU 관악승리점",
        "distance": 478.5968886754383,
        "walking_time": "약 8분"
      }
    ],
    "daycare": [
      {
        "daycare_lat": 37.48280138676038,
        "daycare_lon": 126.92422471773445,
        "daycare_type": "어린이집",
        "daycare_name": "파란꿈어린이집",
        "distance": 216.429959392726,
        "walking_time": "약 4분"
      },
      {
        "daycare_lat": 37.48291900897029,
        "daycare_lon": 126.92220753995076,
        "daycare_type": "어린이집",
        "daycare_name": "신원어린이집",
        "distance": 259.07491611670537,
        "walking_time": "약 4분"
      },
      {
        "daycare_lat": 37.482413303298586,
        "daycare_lon": 126.92604316405205,
        "daycare_type": "어린이집",
        "daycare_name": "한결어린이집",
        "distance": 267.670680815328,
        "walking_time": "약 4분"
      },
      {
        "daycare_lat": 37.47923087,
        "daycare_lon": 126.9259332,
        "daycare_type": "어린이집",
        "daycare_name": "한별어린이집",
        "distance": 272.2217559129416,
        "walking_time": "약 5분"
      },
      {
        "daycare_lat": 37.4804663,
        "daycare_lon": 126.9273761,
        "daycare_type": "어린이집",
        "daycare_name": "샛별꼬마숲어린이집",
        "distance": 329.70233563684343,
        "walking_time": "약 5분"
      },
      {
        "daycare_lat": 37.48046908,
        "daycare_lon": 126.9276824,
        "daycare_type": "어린이집",
        "daycare_name": "성심샛별나라어린이집",
        "distance": 356.41496956408884,
        "walking_time": "약 6분"
      },
      {
        "daycare_lat": 37.48001452883674,
        "daycare_lon": 126.92850117997632,
        "daycare_type": "어린이집",
        "daycare_name": "구립상록어린이집",
        "distance": 436.71082281141554,
        "walking_time": "약 7분"
      },
      {
        "daycare_lat": 37.48372426,
        "daycare_lon": 126.9202299,
        "daycare_type": "어린이집",
        "daycare_name": "슬기어린이집",
        "distance": 437.13028961994456,
        "walking_time": "약 7분"
      },
      {
        "daycare_lat": 37.48454735,
        "daycare_lon": 126.9211837,
        "daycare_type": "어린이집",
        "daycare_name": "새동원어린이집",
        "distance": 461.20035460372026,
        "walking_time": "약 7분"
      },
      {
        "daycare_lat": 37.47711913,
        "daycare_lon": 126.9262971,
        "daycare_type": "어린이집",
        "daycare_name": "구립신일어린이집",
        "distance": 479.9860283251609,
        "walking_time": "약 8분"
      }
    ],
    "education": [
      {
        "education_lat": 37.4808823,
        "education_lon": 126.9182364,
        "education_type": "박물관/기념관",
        "education_name": "호림박물관(신림본관)",
        "distance": 480.3901047465579,
        "walking_time": "약 8분"
      },
      {
        "education_lat": 37.49379251,
        "education_lon": 126.9231084,
        "education_type": "미술관/갤러리",
        "education_name": "동작아트갤러리",
        "distance": 1434.0811490287929,
        "walking_time": "약 22분"
      }
    ],
    "fitness": [
      {
        "fitness_lat": 37.48048896,
        "fitness_lon": 126.9276987,
        "fitness_type": "운동시설",
        "fitness_name": "더짐혼 2호점",
        "distance": 357.5483146767555,
        "walking_time": "약 6분"
      },
      {
        "fitness_lat": 37.48115498,
        "fitness_lon": 126.9282708,
        "fitness_type": "운동시설",
        "fitness_name": "신림동점 스포애니 (주)케이디헬스케어",
        "distance": 406.0088409043682,
        "walking_time": "약 7분"
      },
      {
        "fitness_lat": 37.48191763,
        "fitness_lon": 126.9293784,
        "fitness_type": "운동시설",
        "fitness_name": "피티나인",
        "distance": 515.2668083035381,
        "walking_time": "약 8분"
      },
      {
        "fitness_lat": 37.48328986,
        "fitness_lon": 126.9287761,
        "fitness_type": "운동시설",
        "fitness_name": "짐박스피트니스 신림역점",
        "distance": 522.086587127774,
        "walking_time": "약 8분"
      },
      {
        "fitness_lat": 37.48114052,
        "fitness_lon": 126.9303107,
        "fitness_type": "운동시설",
        "fitness_name": "The Gym : 魂 (더 짐 : 혼)",
        "distance": 585.6374184880435,
        "walking_time": "약 9분"
      },
      {
        "fitness_lat": 37.48443794,
        "fitness_lon": 126.9288037,
        "fitness_type": "운동시설",
        "fitness_name": "러너스하이 피트니스 신림",
        "distance": 599.0110630775027,
        "walking_time": "약 9분"
      },
      {
        "fitness_lat": 37.48261963,
        "fitness_lon": 126.9306338,
        "fitness_type": "운동시설",
        "fitness_name": "주식회사바운드 신림역점",
        "distance": 642.5382904992352,
        "walking_time": "약 10분"
      },
      {
        "fitness_lat": 37.48375895,
        "fitness_lon": 126.9306297,
        "fitness_type": "운동시설",
        "fitness_name": "그린짐",
        "distance": 690.5109258288877,
        "walking_time": "약 11분"
      },
      {
        "fitness_lat": 37.48476254,
        "fitness_lon": 126.9300965,
        "fitness_type": "운동시설",
        "fitness_name": "자마이카 짐",
        "distance": 710.3761561847423,
        "walking_time": "약 11분"
      },
      {
        "fitness_lat": 37.48576689,
        "fitness_lon": 126.9291905,
        "fitness_type": "운동시설",
        "fitness_name": "휘트니스피플 신림점",
        "distance": 727.2014334349267,
        "walking_time": "약 11분"
      }
    ],
    "gas_station": [
      {
        "gas_station_lat": 37.4824162,
        "gas_station_lon": 126.9194521,
        "gas_station_type": "주유소",
        "gas_station_name": "현대오일뱅크㈜직영관악셀프주유소",
        "distance": 409.27033800997447,
        "walking_time": "약 7분"
      },
      {
        "gas_station_lat": 37.48302235,
        "gas_station_lon": 126.9188525,
        "gas_station_type": "주유소",
        "gas_station_name": "씨제이대한통운(주)",
        "distance": 486.8241278200324,
        "walking_time": "약 8분"
      },
      {
        "gas_station_lat": 37.48041974,
        "gas_station_lon": 126.9306687,
        "gas_station_type": "주유소",
        "gas_station_name": "신관주유소",
        "distance": 618.9785034688211,
        "walking_time": "약 10분"
      },
      {
        "gas_station_lat": 37.47786965,
        "gas_station_lon": 126.9143629,
        "gas_station_type": "주유소",
        "gas_station_name": "문성골주유소",
        "distance": 888.7131178217634,
        "walking_time": "약 14분"
      },
      {
        "gas_station_lat": 37.47341197,
        "gas_station_lon": 126.9188013,
        "gas_station_type": "주유소",
        "gas_station_name": "난곡주유소",
        "distance": 937.7120757128632,
        "walking_time": "약 14분"
      },
      {
        "gas_station_lat": 37.49159774,
        "gas_station_lon": 126.927219,
        "gas_station_type": "주유소",
        "gas_station_name": "대양석유㈜보라매주유소",
        "distance": 1229.4483373208077,
        "walking_time": "약 19분"
      },
      {
        "gas_station_lat": 37.4737677,
        "gas_station_lon": 126.9348256,
        "gas_station_type": "주유소",
        "gas_station_name": "유림주유소",
        "distance": 1263.656354997961,
        "walking_time": "약 19분"
      },
      {
        "gas_station_lat": 37.49322282,
        "gas_station_lon": 126.9266746,
        "gas_station_type": "주유소",
        "gas_station_name": "㈜엠오티이엔지직영삼화주유소",
        "distance": 1395.0865924664065,
        "walking_time": "약 21분"
      },
      {
        "gas_station_lat": 37.49838192,
        "gas_station_lon": 126.9197833,
        "gas_station_type": "주유소",
        "gas_station_name": "한경석유㈜경덕주유소",
        "distance": 1973.6939478963764,
        "walking_time": "약 30분"
      }
    ],
    "hospital": [
      {
        "hospital_lat": 37.4831321,
        "hospital_lon": 126.9252897,
        "hospital_type": "병원",
        "hospital_name": "이기쁨의원",
        "distance": 285.6067975646412,
        "walking_time": "약 5분"
      },
      {
        "hospital_lat": 37.48321487,
        "hospital_lon": 126.925373,
        "hospital_type": "병원",
        "hospital_name": "장수한의원",
        "distance": 297.25205170108853,
        "walking_time": "약 5분"
      },
      {
        "hospital_lat": 37.48342884,
        "hospital_lon": 126.9253389,
        "hospital_type": "병원",
        "hospital_name": "이지정형외과의원",
        "distance": 316.6465113316268,
        "walking_time": "약 5분"
      },
      {
        "hospital_lat": 37.48342884,
        "hospital_lon": 126.9253389,
        "hospital_type": "병원",
        "hospital_name": "서승표정형외과의원",
        "distance": 316.6465113316268,
        "walking_time": "약 5분"
      },
      {
        "hospital_lat": 37.48343137,
        "hospital_lon": 126.9256406,
        "hospital_type": "병원",
        "hospital_name": "진승재치과의원",
        "distance": 330.03484433542803,
        "walking_time": "약 5분"
      },
      {
        "hospital_lat": 37.48341254,
        "hospital_lon": 126.9216052,
        "hospital_type": "병원",
        "hospital_name": "가야한의원",
        "distance": 333.7211870117312,
        "walking_time": "약 5분"
      },
      {
        "hospital_lat": 37.48351418,
        "hospital_lon": 126.925934,
        "hospital_type": "병원",
        "hospital_name": "청양한의원",
        "distance": 351.8661298537496,
        "walking_time": "약 6분"
      },
      {
        "hospital_lat": 37.4815152,
        "hospital_lon": 126.9276787,
        "hospital_type": "병원",
        "hospital_name": "여리한의원",
        "distance": 359.29437427344493,
        "walking_time": "약 6분"
      },
      {
        "hospital_lat": 37.48073968,
        "hospital_lon": 126.9279319,
        "hospital_type": "병원",
        "hospital_name": "박성신소아과의원",
        "distance": 375.5834837671104,
        "walking_time": "약 6분"
      },
      {
        "hospital_lat": 37.47979518,
        "hospital_lon": 126.9278367,
        "hospital_type": "병원",
        "hospital_name": "경희솔한의원",
        "distance": 386.8962551953627,
        "walking_time": "약 6분"
      }
    ],
    "music_room": [
      {
        "music_room_lat": 37.48321487,
        "music_room_lon": 126.925373,
        "music_room_type": "노래방",
        "music_room_name": "장수",
        "distance": 297.25205170108853,
        "walking_time": "약 5분"
      },
      {
        "music_room_lat": 37.48230383,
        "music_room_lon": 126.9269079,
        "music_room_type": "노래방",
        "music_room_name": "씽씽",
        "distance": 324.57021504433726,
        "walking_time": "약 5분"
      },
      {
        "music_room_lat": 37.48341254,
        "music_room_lon": 126.9216052,
        "music_room_type": "노래방",
        "music_room_name": "큐",
        "distance": 333.7211870117312,
        "walking_time": "약 5분"
      },
      {
        "music_room_lat": 37.48346168,
        "music_room_lon": 126.9213744,
        "music_room_type": "노래방",
        "music_room_name": "남부",
        "distance": 349.7454856293123,
        "walking_time": "약 6분"
      },
      {
        "music_room_lat": 37.48048896,
        "music_room_lon": 126.9276987,
        "music_room_type": "노래방",
        "music_room_name": "월드컵",
        "distance": 357.5483146767555,
        "walking_time": "약 6분"
      },
      {
        "music_room_lat": 37.48023447,
        "music_room_lon": 126.9277699,
        "music_room_type": "노래방",
        "music_room_name": "스타",
        "distance": 368.43654656094486,
        "walking_time": "약 6분"
      },
      {
        "music_room_lat": 37.48010285,
        "music_room_lon": 126.9278042,
        "music_room_type": "노래방",
        "music_room_name": "둘리",
        "distance": 374.6077008448845,
        "walking_time": "약 6분"
      },
      {
        "music_room_lat": 37.48003554,
        "music_room_lon": 126.9280793,
        "music_room_type": "노래방",
        "music_room_name": "명품노래연습장",
        "distance": 399.9687399407797,
        "walking_time": "약 6분"
      },
      {
        "music_room_lat": 37.48179088,
        "music_room_lon": 126.9282188,
        "music_room_type": "노래방",
        "music_room_name": "로얄노래연습장",
        "distance": 412.43189184789264,
        "walking_time": "약 7분"
      },
      {
        "music_room_lat": 37.47957354,
        "music_room_lon": 126.9281542,
        "music_room_type": "노래방",
        "music_room_name": "플러스",
        "distance": 421.5513500115582,
        "walking_time": "약 7분"
      }
    ],
    "park": [
      {
        "park_lat": 37.492333,
        "park_lon": 126.918289,
        "park_type": "공원",
        "park_name": "보라매근린공원",
        "distance": 1357.0149453605795,
        "walking_time": "약 21분"
      },
      {
        "park_lat": 37.492299,
        "park_lon": 126.9385469,
        "park_type": "공원",
        "park_name": "상도근린공원",
        "distance": 1823.7765883482111,
        "walking_time": "약 28분"
      }
    ],
    "park_station": [
      {
        "park_station_lat": 37.48271916,
        "park_station_lon": 126.9275934,
        "park_station_type": "주차장",
        "park_station_name": "서원동제1공영",
        "distance": 399.9629027304326,
        "walking_time": "약 6분"
      },
      {
        "park_station_lat": 37.48462415,
        "park_station_lon": 126.9252587,
        "park_station_type": "주차장",
        "park_station_name": "신림동제2공영",
        "distance": 436.5252667357436,
        "walking_time": "약 7분"
      },
      {
        "park_station_lat": 37.4848902,
        "park_station_lon": 126.9221482,
        "park_station_type": "주차장",
        "park_station_name": "남부초등학교",
        "distance": 463.46108275306216,
        "walking_time": "약 7분"
      },
      {
        "park_station_lat": 37.48736362,
        "park_station_lon": 126.9234863,
        "park_station_type": "주차장",
        "park_station_name": "신림동공영주차장",
        "distance": 718.5369057173637,
        "walking_time": "약 11분"
      },
      {
        "park_station_lat": 37.48445914,
        "park_station_lon": 126.9154432,
        "park_station_type": "주차장",
        "park_station_name": "신사동 제1공영주차장",
        "distance": 827.4111552408756,
        "walking_time": "약 13분"
      },
      {
        "park_station_lat": 37.48671106,
        "park_station_lon": 126.9172636,
        "park_station_type": "주차장",
        "park_station_name": "관악신사시장 공영주차장",
        "distance": 858.8391247342628,
        "walking_time": "약 13분"
      },
      {
        "park_station_lat": 37.47224069,
        "park_station_lon": 126.923162,
        "park_station_type": "주차장",
        "park_station_name": "난곡동제1공영주차장",
        "distance": 964.3465964597164,
        "walking_time": "약 15분"
      },
      {
        "park_station_lat": 37.490363,
        "park_station_lon": 126.9232398,
        "park_station_type": "주차장",
        "park_station_name": "보라매상업 공영주차장",
        "distance": 1052.5668946762935,
        "walking_time": "약 16분"
      },
      {
        "park_station_lat": 37.48685341,
        "park_station_lon": 126.9331906,
        "park_station_type": "주차장",
        "park_station_name": "봉천복개3 공영주차장",
        "distance": 1068.5772426267922,
        "walking_time": "약 16분"
      },
      {
        "park_station_lat": 37.48823393,
        "park_station_lon": 126.914468,
        "park_station_type": "주차장",
        "park_station_name": "신대방역 공영주차장",
        "distance": 1151.151435472749,
        "walking_time": "약 18분"
      }
    ],
    "pc_room": [
      {
        "pc_room_lat": 37.4810935137384,
        "pc_room_lon": 126.92809980254,
        "pc_room_type": "PC방",
        "pc_room_name": "히든PC",
        "distance": 390.52817136412006,
        "walking_time": "약 6분"
      },
      {
        "pc_room_lat": 37.4802789796022,
        "pc_room_lon": 126.928063499366,
        "pc_room_type": "PC방",
        "pc_room_name": "이네이쳐",
        "distance": 392.9399249079783,
        "walking_time": "약 6분"
      },
      {
        "pc_room_lat": 37.4815767925511,
        "pc_room_lon": 126.928063159676,
        "pc_room_type": "PC방",
        "pc_room_name": "인터파크秀",
        "distance": 393.9017958386461,
        "walking_time": "약 6분"
      },
      {
        "pc_room_lat": 37.4834373351336,
        "pc_room_lon": 126.927261669777,
        "pc_room_type": "PC방",
        "pc_room_name": "제우스PC",
        "distance": 423.362336601452,
        "walking_time": "약 7분"
      },
      {
        "pc_room_lat": 37.4847136870226,
        "pc_room_lon": 126.92752794785,
        "pc_room_type": "PC방",
        "pc_room_name": "꼬마PC",
        "distance": 542.9099722574567,
        "walking_time": "약 9분"
      },
      {
        "pc_room_lat": 37.48492343619,
        "pc_room_lon": 126.927225743639,
        "pc_room_type": "PC방",
        "pc_room_name": "당근PC",
        "distance": 545.5853411987756,
        "walking_time": "약 9분"
      },
      {
        "pc_room_lat": 37.4828969433377,
        "pc_room_lon": 126.929546648038,
        "pc_room_type": "PC방",
        "pc_room_name": "SNS PC방",
        "distance": 563.0830447162696,
        "walking_time": "약 9분"
      },
      {
        "pc_room_lat": 37.4852468185612,
        "pc_room_lon": 126.927830453385,
        "pc_room_type": "PC방",
        "pc_room_name": "황금PC방",
        "distance": 606.0795748894285,
        "walking_time": "약 10분"
      },
      {
        "pc_room_lat": 37.4850367672133,
        "pc_room_lon": 126.918506808414,
        "pc_room_type": "PC방",
        "pc_room_name": "수 PC방",
        "distance": 647.7907602996182,
        "walking_time": "약 10분"
      },
      {
        "pc_room_lat": 37.4858919115747,
        "pc_room_lon": 126.927636033729,
        "pc_room_type": "PC방",
        "pc_room_name": "뉴탑",
        "distance": 655.357317012704,
        "walking_time": "약 10분"
      }
    ],
    "police_office": [
      {
        "police_office_lat": 37.47992421,
        "police_office_lon": 126.9156105,
        "police_office_type": "경찰소",
        "police_office_name": "미성파출소",
        "distance": 720.3744633198843,
        "walking_time": "약 11분"
      },
      {
        "police_office_lat": 37.48401647,
        "police_office_lon": 126.9333173,
        "police_office_type": "경찰소",
        "police_office_name": "신림지구대",
        "distance": 918.0822322234926,
        "walking_time": "약 14분"
      },
      {
        "police_office_lat": 37.4872985,
        "police_office_lon": 126.9142051,
        "police_office_type": "경찰소",
        "police_office_name": "신사지구대",
        "distance": 1097.5704893463176,
        "walking_time": "약 17분"
      },
      {
        "police_office_lat": 37.48600685,
        "police_office_lon": 126.9343644,
        "police_office_type": "경찰소",
        "police_office_name": "당곡지구대",
        "distance": 1100.3265650116475,
        "walking_time": "약 17분"
      },
      {
        "police_office_lat": 37.4738594,
        "police_office_lon": 126.9352631,
        "police_office_type": "경찰소",
        "police_office_name": "관악산지구대",
        "distance": 1287.702307924124,
        "walking_time": "약 20분"
      },
      {
        "police_office_lat": 37.49856527,
        "police_office_lon": 126.920574,
        "police_office_type": "경찰소",
        "police_office_name": "대방파출소",
        "distance": 1982.9326253281288,
        "walking_time": "약 30분"
      },
      {
        "police_office_lat": 37.49909994,
        "police_office_lon": 126.9128049,
        "police_office_type": "경찰소",
        "police_office_name": "신풍지구대",
        "distance": 2239.3456945603457,
        "walking_time": "약 34분"
      }
    ],
    "post_office": [
      {
        "post_office_lat": 37.48066748,
        "post_office_lon": 126.9284834,
        "post_office_type": "우체국",
        "post_office_name": "서울신림동부우편취급국",
        "distance": 424.6175940227514,
        "walking_time": "약 7분"
      },
      {
        "post_office_lat": 37.47854878,
        "post_office_lon": 126.9149155,
        "post_office_type": "우체국",
        "post_office_name": "서울난곡우체국",
        "distance": 816.5485834818094,
        "walking_time": "약 13분"
      },
      {
        "post_office_lat": 37.48501945,
        "post_office_lon": 126.9155289,
        "post_office_type": "우체국",
        "post_office_name": "서울관악신사동우편취급국",
        "distance": 852.5359398222055,
        "walking_time": "약 13분"
      },
      {
        "post_office_lat": 37.48501424,
        "post_office_lon": 126.9331367,
        "post_office_type": "우체국",
        "post_office_name": "서울관악우체국",
        "distance": 951.3860959299676,
        "walking_time": "약 15분"
      },
      {
        "post_office_lat": 37.49121134,
        "post_office_lon": 126.9249903,
        "post_office_type": "우체국",
        "post_office_name": "서울보라매우편취급국",
        "distance": 1151.991065367309,
        "walking_time": "약 18분"
      },
      {
        "post_office_lat": 37.49791931,
        "post_office_lon": 126.9245212,
        "post_office_type": "우체국",
        "post_office_name": "서울동작우체국",
        "distance": 1893.525096063876,
        "walking_time": "약 29분"
      }
    ],
    "public_health_center": [
      {
        "public_health_center_lat": 37.48784455,
        "public_health_center_lon": 126.932302,
        "public_health_center_type": "보건소",
        "public_health_center_name": "관악구보건지소",
        "distance": 1083.69098311248,
        "walking_time": "약 17분"
      },
      {
        "public_health_center_lat": 37.49961665,
        "public_health_center_lon": 126.9242845,
        "public_health_center_type": "보건소",
        "public_health_center_name": "동작구보건지소",
        "distance": 2081.489601578673,
        "walking_time": "약 32분"
      }
    ],
    "school": [
      {
        "school_lat": 37.4807283676946,
        "school_lon": 126.920957326353,
        "school_type": "고등학교",
        "school_name": "성보고등학교",
        "distance": 241.07937629811704,
        "walking_time": "약 4분"
      },
      {
        "school_lat": 37.4807283676946,
        "school_lon": 126.920957326353,
        "school_type": "중학교",
        "school_name": "성보중학교",
        "distance": 241.07937629811704,
        "walking_time": "약 4분"
      },
      {
        "school_lat": 37.4821362472153,
        "school_lon": 126.921037135349,
        "school_type": "중학교",
        "school_name": "남서울중학교",
        "distance": 270.54354045721146,
        "walking_time": "약 5분"
      },
      {
        "school_lat": 37.4851194359099,
        "school_lon": 126.922183775699,
        "school_type": "초등학교",
        "school_name": "서울남부초등학교",
        "distance": 487.03821404519744,
        "walking_time": "약 8분"
      },
      {
        "school_lat": 37.4771198534832,
        "school_lon": 126.926876735629,
        "school_type": "초등학교",
        "school_name": "서울신림초등학교",
        "distance": 506.51204538745424,
        "walking_time": "약 8분"
      },
      {
        "school_lat": 37.4792104943499,
        "school_lon": 126.916967177377,
        "school_type": "고등학교",
        "school_name": "신림고등학교",
        "distance": 621.5795407330905,
        "walking_time": "약 10분"
      },
      {
        "school_lat": 37.4771205875183,
        "school_lon": 126.917458792183,
        "school_type": "초등학교",
        "school_name": "서울난우초등학교",
        "distance": 691.6319512167933,
        "walking_time": "약 11분"
      },
      {
        "school_lat": 37.4802012453571,
        "school_lon": 126.934452241482,
        "school_type": "중학교",
        "school_name": "신관중학교",
        "distance": 953.69890118539,
        "walking_time": "약 15분"
      },
      {
        "school_lat": 37.4783399695494,
        "school_lon": 126.912392273996,
        "school_type": "초등학교",
        "school_name": "서울미성초등학교",
        "distance": 1036.068065007435,
        "walking_time": "약 16분"
      },
      {
        "school_lat": 37.4713756726623,
        "school_lon": 126.924909105757,
        "school_type": "고등학교",
        "school_name": "남강고등학교",
        "distance": 1064.979118860205,
        "walking_time": "약 16분"
      }
    ],
    "self_laundromat": [
      {
        "self_laundromat_lat": 37.49878935,
        "self_laundromat_lon": 126.917808,
        "self_laundromat_type": "셀프 빨래방",
        "self_laundromat_name": "이지셀프빨래방",
        "distance": 2055.198439568948,
        "walking_time": "약 31분"
      },
      {
        "self_laundromat_lat": 37.49878935,
        "self_laundromat_lon": 126.917808,
        "self_laundromat_type": "셀프 빨래방",
        "self_laundromat_name": "이지셀프빨래방",
        "distance": 2055.198439568948,
        "walking_time": "약 31분"
      }
    ],
    "subway": [
      {
        "subway_lat": 37.4842176141092,
        "subway_lon": 126.92980331103,
        "subway_type": "지하철",
        "subway_name": "2호선-신림역",
        "distance": 653.9754397287697,
        "walking_time": "약 10분"
      },
      {
        "subway_lat": 37.4875759745635,
        "subway_lon": 126.913175585996,
        "subway_type": "지하철",
        "subway_name": "2호선-신대방역",
        "distance": 1187.2817211853271,
        "walking_time": "약 18분"
      },
      {
        "subway_lat": 37.4997218266711,
        "subway_lon": 126.928222967016,
        "subway_type": "지하철",
        "subway_name": "7호선-신대방삼거리역",
        "distance": 2130.5366481604296,
        "walking_time": "약 32분"
      },
      {
        "subway_lat": 37.499910050321,
        "subway_lon": 126.920489390309,
        "subway_type": "지하철",
        "subway_name": "7호선-보라매역",
        "distance": 2132.102885471364,
        "walking_time": "약 32분"
      }
    ],
    "supermarket": [
      {
        "supermarket_lat": 37.48385134,
        "supermarket_lon": 126.9302345,
        "supermarket_type": "마트",
        "supermarket_name": "타임스트림",
        "distance": 664.7443707336176,
        "walking_time": "약 10분"
      },
      {
        "supermarket_lat": 37.48476254,
        "supermarket_lon": 126.9300965,
        "supermarket_type": "마트",
        "supermarket_name": "르네상스쇼핑몰(주)",
        "distance": 710.3761561847423,
        "walking_time": "약 11분"
      },
      {
        "supermarket_lat": 37.47428544,
        "supermarket_lon": 126.9180585,
        "supermarket_type": "마트",
        "supermarket_name": "(주)천성세이브마트",
        "distance": 887.502232583908,
        "walking_time": "약 14분"
      },
      {
        "supermarket_lat": 37.4755685,
        "supermarket_lon": 126.9328111,
        "supermarket_type": "마트",
        "supermarket_name": "신림현대종합상가",
        "distance": 1000.540159152588,
        "walking_time": "약 15분"
      },
      {
        "supermarket_lat": 37.49049549,
        "supermarket_lon": 126.9249817,
        "supermarket_type": "마트",
        "supermarket_name": "롯데쇼핑(주) 관악점",
        "distance": 1072.7420399083212,
        "walking_time": "약 17분"
      },
      {
        "supermarket_lat": 37.48314523,
        "supermarket_lon": 126.9114212,
        "supermarket_type": "마트",
        "supermarket_name": "신림중앙시장",
        "distance": 1110.085897886022,
        "walking_time": "약 17분"
      },
      {
        "supermarket_lat": 37.47029785,
        "supermarket_lon": 126.9204441,
        "supermarket_type": "마트",
        "supermarket_name": "우림시장",
        "distance": 1213.3844800871905,
        "walking_time": "약 19분"
      },
      {
        "supermarket_lat": 37.47048117,
        "supermarket_lon": 126.9344768,
        "supermarket_type": "마트",
        "supermarket_name": "일성트루엘상가",
        "distance": 1500.253040965358,
        "walking_time": "약 23분"
      },
      {
        "supermarket_lat": 37.48665276,
        "supermarket_lon": 126.9392236,
        "supermarket_type": "마트",
        "supermarket_name": "GS THE FRESH 관악은천점",
        "distance": 1513.1411633464704,
        "walking_time": "약 23분"
      },
      {
        "supermarket_lat": 37.49732616,
        "supermarket_lon": 126.9130959,
        "supermarket_type": "마트",
        "supermarket_name": "홈플러스(주) 익스프레스 신길점",
        "distance": 2051.054940728068,
        "walking_time": "약 31분"
      }
    ],
    "tax_office": [
      {
        "tax_office_lat": 37.47933644,
        "tax_office_lon": 126.9243295,
        "tax_office_type": "세무서",
        "tax_office_name": "관악세무서",
        "distance": 183.4185959827298,
        "walking_time": "약 3분"
      },
      {
        "tax_office_lat": 37.49908057,
        "tax_office_lon": 126.9198001,
        "tax_office_type": "세무서",
        "tax_office_name": "동작세무서",
        "distance": 2049.988616172316,
        "walking_time": "약 31분"
      }
    ],
    "theater": [
      {
        "theater_lat": 37.4838513393186,
        "theater_lon": 126.930234545397,
        "theater_type": "영화관",
        "theater_name": "롯데시네마 신림",
        "distance": 664.7478182517094,
        "walking_time": "약 10분"
      }
    ]
  }
}