{
  "클러스터_위도": 37.62656700000001,
  "클러스터_경도": 127.076311,
  "클러스터_level": 3.0,
  "facilities": {
    "bus": [
      {
        "bus_lat": 37.62681435,
        "bus_lon": 127.076128,
        "bus_type": "버스정류장",
        "bus_name": "공연초등학교",
        "distance": 31.878006746654147,
        "walking_time": "약 1분"
      },
      {
        "bus_lat": 37.62672366,
        "bus_lon": 127.0755405,
        "bus_type": "버스정류장",
        "bus_name": "공연초등학교",
        "distance": 70.05596264932825,
        "walking_time": "약 2분"
      },
      {
        "bus_lat": 37.62736931,
        "bus_lon": 127.0775986,
        "bus_type": "버스정류장",
        "bus_name": "원자력병원입구",
        "distance": 144.28188440558773,
        "walking_time": "약 3분"
      },
      {
        "bus_lat": 37.62746879,
        "bus_lon": 127.0777061,
        "bus_type": "버스정류장",
        "bus_name": "현대성우아파트",
        "distance": 158.5874080491444,
        "walking_time": "약 3분"
      },
      {
        "bus_lat": 37.62762881,
        "bus_lon": 127.0775732,
        "bus_type": "버스정류장",
        "bus_name": "동신아파트",
        "distance": 162.16047930086893,
        "walking_time": "약 3분"
      },
      {
        "bus_lat": 37.62598221,
        "bus_lon": 127.0741277,
        "bus_type": "버스정류장",
        "bus_name": "공릉역",
        "distance": 202.97549999016323,
        "walking_time": "약 4분"
      },
      {
        "bus_lat": 37.62823009,
        "bus_lon": 127.0775444,
        "bus_type": "버스정류장",
        "bus_name": "공릉동.동신아파트앞",
        "distance": 214.46801725840845,
        "walking_time": "약 4분"
      },
      {
        "bus_lat": 37.62738942,
        "bus_lon": 127.0785188,
        "bus_type": "버스정류장",
        "bus_name": "동부아파트",
        "distance": 214.8657681091076,
        "walking_time": "약 4분"
      },
      {
        "bus_lat": 37.62598959,
        "bus_lon": 127.0736172,
        "bus_type": "버스정류장",
        "bus_name": "공릉역",
        "distance": 245.77077152396177,
        "walking_time": "약 4분"
      },
      {
        "bus_lat": 37.62627157,
        "bus_lon": 127.0794579,
        "bus_type": "버스정류장",
        "bus_name": "원자력병원입구",
        "distance": 279.0791174690184,
        "walking_time": "약 5분"
      }
    ],
    "community_center": [
      {
        "community_center_lat": 37.62477801,
        "community_center_lon": 127.0737505,
        "community_center_type": "주민센터",
        "community_center_name": "공릉1동 자치회관",
        "distance": 300.7015212243774,
        "walking_time": "약 5분"
      },
      {
        "community_center_lat": 37.62128712,
        "community_center_lon": 127.0833787,
        "community_center_type": "주민센터",
        "community_center_name": "공릉2동 자치회관",
        "distance": 855.6463407404927,
        "walking_time": "약 13분"
      },
      {
        "community_center_lat": 37.62100498,
        "community_center_lon": 127.0692318,
        "community_center_type": "주민센터",
        "community_center_name": "월계3동 자치회관",
        "distance": 878.1888314078113,
        "walking_time": "약 14분"
      },
      {
        "community_center_lat": 37.63204326,
        "community_center_lon": 127.0679518,
        "community_center_type": "주민센터",
        "community_center_name": "하계2동 자치회관",
        "distance": 955.3564335846496,
        "walking_time": "약 15분"
      },
      {
        "community_center_lat": 37.61999186,
        "community_center_lon": 127.0628833,
        "community_center_type": "주민센터",
        "community_center_name": "월계1동 자치회관",
        "distance": 1390.3458483547124,
        "walking_time": "약 21분"
      },
      {
        "community_center_lat": 37.61241458,
        "community_center_lon": 127.0784793,
        "community_center_type": "주민센터",
        "community_center_name": "묵1동 자치회관",
        "distance": 1585.222813592216,
        "walking_time": "약 24분"
      },
      {
        "community_center_lat": 37.61297096,
        "community_center_lon": 127.0614241,
        "community_center_type": "주민센터",
        "community_center_name": "석관동 자치회관",
        "distance": 2001.181798647424,
        "walking_time": "약 30분"
      }
    ],
    "convenience_store": [
      {
        "convenience_store_lat": 37.62685719,
        "convenience_store_lon": 127.0764871,
        "convenience_store_type": "편의점",
        "convenience_store_name": "CU 공릉플러스점",
        "distance": 35.801088850702975,
        "walking_time": "약 1분"
      },
      {
        "convenience_store_lat": 37.62612613,
        "convenience_store_lon": 127.0756518,
        "convenience_store_type": "편의점",
        "convenience_store_name": "세븐일레븐 공릉원룸점",
        "distance": 75.98338800290716,
        "walking_time": "약 2분"
      },
      {
        "convenience_store_lat": 37.62674851,
        "convenience_store_lon": 127.0752537,
        "convenience_store_type": "편의점",
        "convenience_store_name": "CU 공릉스타점",
        "distance": 95.27555321423216,
        "walking_time": "약 2분"
      },
      {
        "convenience_store_lat": 37.62529338,
        "convenience_store_lon": 127.0767149,
        "convenience_store_type": "편의점",
        "convenience_store_name": "GS25 공릉공원점",
        "distance": 146.0188905572813,
        "walking_time": "약 3분"
      },
      {
        "convenience_store_lat": 37.62788039,
        "convenience_store_lon": 127.0773923,
        "convenience_store_type": "편의점",
        "convenience_store_name": "세븐일레븐 산업대점",
        "distance": 174.34555289324533,
        "walking_time": "약 3분"
      },
      {
        "convenience_store_lat": 37.62791184,
        "convenience_store_lon": 127.0776543,
        "convenience_store_type": "편의점",
        "convenience_store_name": "GS25 서울산업대점",
        "distance": 190.67458611209472,
        "walking_time": "약 3분"
      },
      {
        "convenience_store_lat": 37.62592765,
        "convenience_store_lon": 127.0783953,
        "convenience_store_type": "편의점",
        "convenience_store_name": "GS25 공릉타운점",
        "distance": 196.84531863919565,
        "walking_time": "약 3분"
      },
      {
        "convenience_store_lat": 37.62617032,
        "convenience_store_lon": 127.0738705,
        "convenience_store_type": "편의점",
        "convenience_store_name": "GS25 공릉점",
        "distance": 219.407829991496,
        "walking_time": "약 4분"
      },
      {
        "convenience_store_lat": 37.62445211,
        "convenience_store_lon": 127.0767423,
        "convenience_store_type": "편의점",
        "convenience_store_name": "CU 공릉과기대점",
        "distance": 238.2128694209664,
        "walking_time": "약 4분"
      },
      {
        "convenience_store_lat": 37.62553621,
        "convenience_store_lon": 127.0735762,
        "convenience_store_type": "편의점",
        "convenience_store_name": "GS25 S공릉역점",
        "distance": 266.7302186063428,
        "walking_time": "약 4분"
      }
    ],
    "daycare": [
      {
        "daycare_lat": 37.62598238,
        "daycare_lon": 127.0756964,
        "daycare_type": "어린이집",
        "daycare_name": "희망나래어린이집",
        "distance": 84.59038824609497,
        "walking_time": "약 2분"
      },
      {
        "daycare_lat": 37.62717883808762,
        "daycare_lon": 127.07542166978506,
        "daycare_type": "어린이집",
        "daycare_name": "공릉어린이집",
        "distance": 103.74303995372006,
        "walking_time": "약 2분"
      },
      {
        "daycare_lat": 37.62772187,
        "daycare_lon": 127.0750703,
        "daycare_type": "어린이집",
        "daycare_name": "이레뜰어린이집",
        "distance": 168.60965552417568,
        "walking_time": "약 3분"
      },
      {
        "daycare_lat": 37.62787895,
        "daycare_lon": 127.07739047235226,
        "daycare_type": "어린이집",
        "daycare_name": "한양자연어린이집",
        "distance": 174.1235212144988,
        "walking_time": "약 3분"
      },
      {
        "daycare_lat": 37.628099,
        "daycare_lon": 127.0768586,
        "daycare_type": "어린이집",
        "daycare_name": "현대영유아전담어린이집",
        "distance": 177.04517102452084,
        "walking_time": "약 3분"
      },
      {
        "daycare_lat": 37.62779039084191,
        "daycare_lon": 127.07500464194688,
        "daycare_type": "어린이집",
        "daycare_name": "이레뜰어린이집",
        "distance": 178.1603783034909,
        "walking_time": "약 3분"
      },
      {
        "daycare_lat": 37.62642776,
        "daycare_lon": 127.0788414,
        "daycare_type": "어린이집",
        "daycare_name": "서울영신어린이집",
        "distance": 223.3824579246004,
        "walking_time": "약 4분"
      },
      {
        "daycare_lat": 37.62466736,
        "daycare_lon": 127.0786388,
        "daycare_type": "어린이집",
        "daycare_name": "사랑나무어린이집",
        "distance": 294.3559249015575,
        "walking_time": "약 5분"
      },
      {
        "daycare_lat": 37.62477998,
        "daycare_lon": 127.0738036,
        "daycare_type": "어린이집",
        "daycare_name": "꿈나무방과후교실",
        "distance": 297.0641628399301,
        "walking_time": "약 5분"
      },
      {
        "daycare_lat": 37.62802608912253,
        "daycare_lon": 127.07967781453787,
        "daycare_type": "어린이집",
        "daycare_name": "공릉한보어린이집",
        "distance": 337.98930917135004,
        "walking_time": "약 6분"
      }
    ],
    "education": [
      {
        "education_lat": 37.62879899,
        "education_lon": 127.0698009,
        "education_type": "문화원",
        "education_name": "노원문화원",
        "distance": 624.7310083460642,
        "walking_time": "약 10분"
      },
      {
        "education_lat": 37.62017392,
        "education_lon": 127.0769362,
        "education_type": "박물관/기념관",
        "education_name": "서울생활사박물관",
        "distance": 713.0073175120743,
        "walking_time": "약 11분"
      },
      {
        "education_lat": 37.63307893,
        "education_lon": 127.0767947,
        "education_type": "미술관/갤러리",
        "education_name": "서울과학기술대학교 미술관",
        "distance": 725.3453983680954,
        "walking_time": "약 11분"
      },
      {
        "education_lat": 37.61517057,
        "education_lon": 127.0869064,
        "education_type": "도서관",
        "education_name": "중랑구립정보도서관",
        "distance": 1573.747339485671,
        "walking_time": "약 24분"
      },
      {
        "education_lat": 37.61517057,
        "education_lon": 127.0869064,
        "education_type": "도서관",
        "education_name": "중랑구립정보도서관",
        "distance": 1573.747339485671,
        "walking_time": "약 24분"
      },
      {
        "education_lat": 37.63951386,
        "education_lon": 127.0678213,
        "education_type": "도서관",
        "education_name": "서울특별시교육청 노원평생학습관",
        "distance": 1622.1663912035356,
        "walking_time": "약 25분"
      },
      {
        "education_lat": 37.61348164414527,
        "education_lon": 127.06543951524604,
        "education_type": "도서관",
        "education_name": "석관동미리내도서관",
        "distance": 1741.813248398654,
        "walking_time": "약 26분"
      }
    ],
    "fitness": [
      {
        "fitness_lat": 37.62715484,
        "fitness_lon": 127.0762692,
        "fitness_type": "운동시설",
        "fitness_name": "뉴크로핏",
        "distance": 65.46840156788046,
        "walking_time": "약 1분"
      },
      {
        "fitness_lat": 37.62706167,
        "fitness_lon": 127.0771013,
        "fitness_type": "운동시설",
        "fitness_name": "스포애니 공릉점",
        "distance": 88.71064191060198,
        "walking_time": "약 2분"
      },
      {
        "fitness_lat": 37.62668094,
        "fitness_lon": 127.0751054,
        "fitness_type": "운동시설",
        "fitness_name": "리얼리햅 맞춤운동센터",
        "distance": 106.92688722738907,
        "walking_time": "약 2분"
      },
      {
        "fitness_lat": 37.62751291,
        "fitness_lon": 127.077198,
        "fitness_type": "운동시설",
        "fitness_name": "위너블 헬스피티 앤 필라",
        "distance": 131.0147870187649,
        "walking_time": "약 2분"
      },
      {
        "fitness_lat": 37.62727287,
        "fitness_lon": 127.0783271,
        "fitness_type": "운동시설",
        "fitness_name": "LJ PT",
        "distance": 194.12626155050685,
        "walking_time": "약 3분"
      },
      {
        "fitness_lat": 37.62743009,
        "fitness_lon": 127.0786011,
        "fitness_type": "운동시설",
        "fitness_name": "필짐",
        "distance": 223.3513839413121,
        "walking_time": "약 4분"
      },
      {
        "fitness_lat": 37.62887637,
        "fitness_lon": 127.0763821,
        "fitness_type": "운동시설",
        "fitness_name": "공릉 라이크짐",
        "distance": 256.86655511089344,
        "walking_time": "약 4분"
      },
      {
        "fitness_lat": 37.62614199,
        "fitness_lon": 127.0730666,
        "fitness_type": "운동시설",
        "fitness_name": "S&C 트레이닝 센터",
        "distance": 289.6077214345753,
        "walking_time": "약 5분"
      },
      {
        "fitness_lat": 37.627173,
        "fitness_lon": 127.0799936,
        "fitness_type": "운동시설",
        "fitness_name": "에이치짐",
        "distance": 331.2410256924968,
        "walking_time": "약 5분"
      },
      {
        "fitness_lat": 37.62605156,
        "fitness_lon": 127.0724374,
        "fitness_type": "운동시설",
        "fitness_name": "카인드짐 공릉역 2호점",
        "distance": 345.919142565608,
        "walking_time": "약 6분"
      }
    ],
    "gas_station": [
      {
        "gas_station_lat": 37.62697563,
        "gas_station_lon": 127.0719676,
        "gas_station_type": "주유소",
        "gas_station_name": "한신주유소",
        "distance": 385.1989486049629,
        "walking_time": "약 6분"
      },
      {
        "gas_station_lat": 37.62595629,
        "gas_station_lon": 127.0855496,
        "gas_station_type": "주유소",
        "gas_station_name": "유한책임회사동하석유 태릉솔밭지점",
        "distance": 816.4492505033068,
        "walking_time": "약 13분"
      },
      {
        "gas_station_lat": 37.63358901,
        "gas_station_lon": 127.072325,
        "gas_station_type": "주유소",
        "gas_station_name": "하계삼호주유소",
        "distance": 856.0849919138683,
        "walking_time": "약 13분"
      },
      {
        "gas_station_lat": 37.61957693,
        "gas_station_lon": 127.0808357,
        "gas_station_type": "주유소",
        "gas_station_name": "화랑대주유소",
        "distance": 873.4601867837085,
        "walking_time": "약 14분"
      },
      {
        "gas_station_lat": 37.61859616,
        "gas_station_lon": 127.0791755,
        "gas_station_type": "주유소",
        "gas_station_name": "㈜이엠석유 배꽃나라주유소",
        "distance": 921.5225838937412,
        "walking_time": "약 14분"
      },
      {
        "gas_station_lat": 37.61363831,
        "gas_station_lon": 127.0602167,
        "gas_station_type": "주유소",
        "gas_station_name": "현대오일뱅크(주)직영 장삼주유소",
        "distance": 2018.915314786292,
        "walking_time": "약 31분"
      },
      {
        "gas_station_lat": 37.61261571,
        "gas_station_lon": 127.0614001,
        "gas_station_type": "주유소",
        "gas_station_name": "우리주유소",
        "distance": 2032.555998731994,
        "walking_time": "약 31분"
      }
    ],
    "hospital": [
      {
        "hospital_lat": 37.62706167,
        "hospital_lon": 127.0771013,
        "hospital_type": "병원",
        "hospital_name": "고려숲정신건강의학과의원",
        "distance": 88.71064191060198,
        "walking_time": "약 2분"
      },
      {
        "hospital_lat": 37.62706167,
        "hospital_lon": 127.0771013,
        "hospital_type": "병원",
        "hospital_name": "연세바른치과의원",
        "distance": 88.71064191060198,
        "walking_time": "약 2분"
      },
      {
        "hospital_lat": 37.62706167,
        "hospital_lon": 127.0771013,
        "hospital_type": "병원",
        "hospital_name": "연세신통마취통증의학과의원",
        "distance": 88.71064191060198,
        "walking_time": "약 2분"
      },
      {
        "hospital_lat": 37.62706167,
        "hospital_lon": 127.0771013,
        "hospital_type": "병원",
        "hospital_name": "정앤남의원",
        "distance": 88.71064191060198,
        "walking_time": "약 2분"
      },
      {
        "hospital_lat": 37.62766764,
        "hospital_lon": 127.0775759,
        "hospital_type": "병원",
        "hospital_name": "최비뇨기과의원",
        "distance": 165.49060026120478,
        "walking_time": "약 3분"
      },
      {
        "hospital_lat": 37.62590104,
        "hospital_lon": 127.0742578,
        "hospital_type": "병원",
        "hospital_name": "중앙드림치과의원",
        "distance": 195.3959025834833,
        "walking_time": "약 3분"
      },
      {
        "hospital_lat": 37.62590104,
        "hospital_lon": 127.0742578,
        "hospital_type": "병원",
        "hospital_name": "중앙외과의원",
        "distance": 195.3959025834833,
        "walking_time": "약 3분"
      },
      {
        "hospital_lat": 37.62647293,
        "hospital_lon": 127.0786598,
        "hospital_type": "병원",
        "hospital_name": "새연세정형외과의원",
        "distance": 207.11648885392952,
        "walking_time": "약 4분"
      },
      {
        "hospital_lat": 37.62647293,
        "hospital_lon": 127.0786598,
        "hospital_type": "병원",
        "hospital_name": "열린이비인후과의원",
        "distance": 207.11648885392952,
        "walking_time": "약 4분"
      },
      {
        "hospital_lat": 37.62647293,
        "hospital_lon": 127.0786598,
        "hospital_type": "병원",
        "hospital_name": "해독한의원",
        "distance": 207.11648885392952,
        "walking_time": "약 4분"
      }
    ],
    "music_room": [
      {
        "music_room_lat": 37.62722231,
        "music_room_lon": 127.0772534,
        "music_room_type": "노래방",
        "music_room_name": "용가리",
        "distance": 110.44292616895066,
        "walking_time": "약 2분"
      },
      {
        "music_room_lat": 37.62751291,
        "music_room_lon": 127.077198,
        "music_room_type": "노래방",
        "music_room_name": "VIP노래연습장",
        "distance": 131.0147870187649,
        "walking_time": "약 2분"
      },
      {
        "music_room_lat": 37.62751291,
        "music_room_lon": 127.077198,
        "music_room_type": "노래방",
        "music_room_name": "악쓰는 하마 코인 노래연습장",
        "distance": 131.0147870187649,
        "walking_time": "약 2분"
      },
      {
        "music_room_lat": 37.62769911,
        "music_room_lon": 127.0773938,
        "music_room_type": "노래방",
        "music_room_name": "허스키노래연습장",
        "distance": 157.9247303599183,
        "walking_time": "약 3분"
      },
      {
        "music_room_lat": 37.62766764,
        "music_room_lon": 127.0775759,
        "music_room_type": "노래방",
        "music_room_name": "파티파티",
        "distance": 165.49060026120478,
        "walking_time": "약 3분"
      },
      {
        "music_room_lat": 37.6277285,
        "music_room_lon": 127.0777825,
        "music_room_type": "노래방",
        "music_room_name": "엣지코인 노래연습장",
        "distance": 182.95895236766933,
        "walking_time": "약 3분"
      },
      {
        "music_room_lat": 37.62750965,
        "music_room_lon": 127.0780536,
        "music_room_type": "노래방",
        "music_room_name": "불러불러 노래연습장",
        "distance": 185.8446499263285,
        "walking_time": "약 3분"
      },
      {
        "music_room_lat": 37.62791184,
        "music_room_lon": 127.0776543,
        "music_room_type": "노래방",
        "music_room_name": "영순이 노래연습장",
        "distance": 190.67458611209472,
        "walking_time": "약 3분"
      },
      {
        "music_room_lat": 37.62727287,
        "music_room_lon": 127.0783271,
        "music_room_type": "노래방",
        "music_room_name": "애플",
        "distance": 194.12626155050685,
        "walking_time": "약 3분"
      },
      {
        "music_room_lat": 37.62808926,
        "music_room_lon": 127.0774965,
        "music_room_type": "노래방",
        "music_room_name": "샵# 노래연습장",
        "distance": 198.87533594059693,
        "walking_time": "약 3분"
      }
    ],
    "outdoor_sports": [
      {
        "outdoor_sports_lat": 37.6184024603499,
        "outdoor_sports_lon": 127.081009777604,
        "outdoor_sports_type": "야외 체육시설",
        "outdoor_sports_name": "묵동브라운스톤A",
        "distance": 997.7259745626976,
        "walking_time": "약 15분"
      },
      {
        "outdoor_sports_lat": 37.6174857389557,
        "outdoor_sports_lon": 127.077195979289,
        "outdoor_sports_type": "야외 체육시설",
        "outdoor_sports_name": "묵동천 제방 산책로",
        "distance": 1012.7937433713606,
        "walking_time": "약 16분"
      },
      {
        "outdoor_sports_lat": 37.6180483805077,
        "outdoor_sports_lon": 127.083326859732,
        "outdoor_sports_type": "야외 체육시설",
        "outdoor_sports_name": "원묵분수공원",
        "distance": 1130.9475423983863,
        "walking_time": "약 17분"
      },
      {
        "outdoor_sports_lat": 37.6172115102861,
        "outdoor_sports_lon": 127.083627782035,
        "outdoor_sports_type": "야외 체육시설",
        "outdoor_sports_name": "봉화마을마당",
        "distance": 1223.703798837999,
        "walking_time": "약 19분"
      },
      {
        "outdoor_sports_lat": 37.6153032238014,
        "outdoor_sports_lon": 127.078096097168,
        "outdoor_sports_type": "야외 체육시설",
        "outdoor_sports_name": "묵동소공원",
        "distance": 1262.3039494114191,
        "walking_time": "약 19분"
      },
      {
        "outdoor_sports_lat": 37.6151688817533,
        "outdoor_sports_lon": 127.079452856775,
        "outdoor_sports_type": "야외 체육시설",
        "outdoor_sports_name": "자투리녹지",
        "distance": 1297.2690467153989,
        "walking_time": "약 20분"
      },
      {
        "outdoor_sports_lat": 37.6167374084338,
        "outdoor_sports_lon": 127.08476704839,
        "outdoor_sports_type": "야외 체육시설",
        "outdoor_sports_name": "원묵어린이공원(묵동)",
        "distance": 1322.6117107936882,
        "walking_time": "약 20분"
      },
      {
        "outdoor_sports_lat": 37.6147980994094,
        "outdoor_sports_lon": 127.078549074829,
        "outdoor_sports_type": "야외 체육시설",
        "outdoor_sports_name": "정자목마을마당",
        "distance": 1323.404269943691,
        "walking_time": "약 20분"
      },
      {
        "outdoor_sports_lat": 37.617064081586,
        "outdoor_sports_lon": 127.08812215091,
        "outdoor_sports_type": "야외 체육시설",
        "outdoor_sports_name": "서당어린이공원(묵동)",
        "distance": 1482.7896737713472,
        "walking_time": "약 23분"
      },
      {
        "outdoor_sports_lat": 37.6146560859622,
        "outdoor_sports_lon": 127.085072761092,
        "outdoor_sports_type": "야외 체육시설",
        "outdoor_sports_name": "유아숲체험장(묵동)",
        "distance": 1532.84731888209,
        "walking_time": "약 23분"
      }
    ],
    "park": [
      {
        "park_lat": 37.627077,
        "park_lon": 127.076482,
        "park_type": "공원",
        "park_name": "경춘선숲길",
        "distance": 58.67489912451875,
        "walking_time": "약 1분"
      }
    ],
    "park_station": [
      {
        "park_station_lat": 37.61909794,
        "park_station_lon": 127.0775052,
        "park_station_type": "주차장",
        "park_station_name": "북부지법주변",
        "distance": 837.1546343151341,
        "walking_time": "약 13분"
      },
      {
        "park_station_lat": 37.63731977,
        "park_station_lon": 127.073265,
        "park_station_type": "주차장",
        "park_station_name": "가재울 공영주차장",
        "distance": 1225.3718577104316,
        "walking_time": "약 19분"
      },
      {
        "park_station_lat": 37.6146818,
        "park_station_lon": 127.0803891,
        "park_station_type": "주차장",
        "park_station_name": "숙선옹주로 5공영",
        "distance": 1369.5125170430924,
        "walking_time": "약 21분"
      },
      {
        "park_station_lat": 37.63967475,
        "park_station_lon": 127.0744388,
        "park_station_type": "주차장",
        "park_station_name": "한신동성아파트옆",
        "distance": 1466.809880642807,
        "walking_time": "약 22분"
      },
      {
        "park_station_lat": 37.61538417,
        "park_station_lon": 127.0860709,
        "park_station_type": "주차장",
        "park_station_name": "원묵 고등학교 공용 지하주차장",
        "distance": 1511.6626876046118,
        "walking_time": "약 23분"
      },
      {
        "park_station_lat": 37.61565507,
        "park_station_lon": 127.065157,
        "park_station_type": "주차장",
        "park_station_name": "석계역 앞",
        "distance": 1561.1782442270244,
        "walking_time": "약 24분"
      },
      {
        "park_station_lat": 37.61544723,
        "park_station_lon": 127.0624695,
        "park_station_type": "주차장",
        "park_station_name": "석계역 공영주차장",
        "distance": 1736.368446688425,
        "walking_time": "약 26분"
      },
      {
        "park_station_lat": 37.63957022,
        "park_station_lon": 127.0651678,
        "park_station_type": "주차장",
        "park_station_name": "건영백화점앞",
        "distance": 1747.421635822994,
        "walking_time": "약 27분"
      }
    ],
    "pc_room": [
      {
        "pc_room_lat": 37.6282993079139,
        "pc_room_lon": 127.077315687829,
        "pc_room_type": "PC방",
        "pc_room_name": "리얼(REAL)PC방",
        "distance": 211.9728043292595,
        "walking_time": "약 4분"
      },
      {
        "pc_room_lat": 37.6274300879998,
        "pc_room_lon": 127.078601108937,
        "pc_room_type": "PC방",
        "pc_room_name": "스펀지PC방",
        "distance": 223.3519990668264,
        "walking_time": "약 4분"
      },
      {
        "pc_room_lat": 37.6271656479512,
        "pc_room_lon": 127.079141072247,
        "pc_room_type": "PC방",
        "pc_room_name": "1% PC 아레나",
        "distance": 257.9716154261845,
        "walking_time": "약 4분"
      },
      {
        "pc_room_lat": 37.6259363374297,
        "pc_room_lon": 127.079415945795,
        "pc_room_type": "PC방",
        "pc_room_name": "라이또PC방 공릉본점",
        "distance": 282.29378253226247,
        "walking_time": "약 5분"
      },
      {
        "pc_room_lat": 37.6238126999489,
        "pc_room_lon": 127.076153237632,
        "pc_room_type": "PC방",
        "pc_room_name": "공릉PC",
        "distance": 306.57918522766283,
        "walking_time": "약 5분"
      },
      {
        "pc_room_lat": 37.6252765854844,
        "pc_room_lon": 127.080022646504,
        "pc_room_type": "PC방",
        "pc_room_name": "런PC방",
        "distance": 356.9834125252587,
        "walking_time": "약 6분"
      },
      {
        "pc_room_lat": 37.6236617520042,
        "pc_room_lon": 127.073937845108,
        "pc_room_type": "PC방",
        "pc_room_name": "욜로PC공릉점",
        "distance": 384.7622263184323,
        "walking_time": "약 6분"
      },
      {
        "pc_room_lat": 37.6227280196366,
        "pc_room_lon": 127.076543157312,
        "pc_room_type": "PC방",
        "pc_room_name": "깡통로봇 PC방",
        "distance": 427.3645072994492,
        "walking_time": "약 7분"
      },
      {
        "pc_room_lat": 37.6253252165218,
        "pc_room_lon": 127.07164570234,
        "pc_room_type": "PC방",
        "pc_room_name": "PCCUS",
        "distance": 433.4446954175224,
        "walking_time": "약 7분"
      },
      {
        "pc_room_lat": 37.6234059297882,
        "pc_room_lon": 127.073411876507,
        "pc_room_type": "PC방",
        "pc_room_name": "에이스PC방",
        "distance": 434.4404345669301,
        "walking_time": "약 7분"
      }
    ],
    "police_office": [
      {
        "police_office_lat": 37.62256817,
        "police_office_lon": 127.0745978,
        "police_office_type": "경찰소",
        "police_office_name": "화랑지구대",
        "distance": 469.55110989866046,
        "walking_time": "약 8분"
      },
      {
        "police_office_lat": 37.6146248,
        "police_office_lon": 127.0815324,
        "police_office_type": "경찰소",
        "police_office_name": "먹골파출소",
        "distance": 1405.28694187229,
        "walking_time": "약 21분"
      }
    ],
    "post_office": [
      {
        "post_office_lat": 37.62499145,
        "post_office_lon": 127.0799903,
        "post_office_type": "우체국",
        "post_office_name": "서울공릉2동우편취급국",
        "distance": 368.3575755821166,
        "walking_time": "약 6분"
      },
      {
        "post_office_lat": 37.63307893,
        "post_office_lon": 127.0767947,
        "post_office_type": "우체국",
        "post_office_name": "서울과학기술대우편취급국",
        "distance": 725.3453983680954,
        "walking_time": "약 11분"
      },
      {
        "post_office_lat": 37.62090624,
        "post_office_lon": 127.0690603,
        "post_office_type": "우체국",
        "post_office_name": "서울월계3동우체국",
        "distance": 896.6490240640769,
        "walking_time": "약 14분"
      },
      {
        "post_office_lat": 37.61846246,
        "post_office_lon": 127.0757204,
        "post_office_type": "우체국",
        "post_office_name": "서울공릉동우체국",
        "distance": 902.6836132722918,
        "walking_time": "약 14분"
      },
      {
        "post_office_lat": 37.63543136,
        "post_office_lon": 127.0727291,
        "post_office_type": "우체국",
        "post_office_name": "서울하계시영우편취급국",
        "distance": 1034.9127250874003,
        "walking_time": "약 16분"
      },
      {
        "post_office_lat": 37.63097668,
        "post_office_lon": 127.0610256,
        "post_office_type": "우체국",
        "post_office_name": "서울월계시영우편취급국",
        "distance": 1432.625564004219,
        "walking_time": "약 22분"
      },
      {
        "post_office_lat": 37.61036795,
        "post_office_lon": 127.0774411,
        "post_office_type": "우체국",
        "post_office_name": "서울묵동우체국",
        "distance": 1804.0001990730257,
        "walking_time": "약 27분"
      },
      {
        "post_office_lat": 37.61165278,
        "post_office_lon": 127.0621684,
        "post_office_type": "우체국",
        "post_office_name": "서울석관1동우편취급국",
        "distance": 2074.082796145301,
        "walking_time": "약 31분"
      }
    ],
    "public_health_center": [
      {
        "public_health_center_lat": 37.62478808,
        "public_health_center_lon": 127.080003,
        "public_health_center_type": "보건소",
        "public_health_center_name": "공릉보건지소",
        "distance": 380.5897905283792,
        "walking_time": "약 6분"
      },
      {
        "public_health_center_lat": 37.63145003,
        "public_health_center_lon": 127.0615911,
        "public_health_center_type": "보건소",
        "public_health_center_name": "월계보건지소",
        "distance": 1405.4178628651882,
        "walking_time": "약 21분"
      },
      {
        "public_health_center_lat": 37.61047326,
        "public_health_center_lon": 127.0634208,
        "public_health_center_type": "보건소",
        "public_health_center_name": "장위석관보건지소",
        "distance": 2119.298425003981,
        "walking_time": "약 32분"
      }
    ],
    "school": [
      {
        "school_lat": 37.62719482311,
        "school_lon": 127.074030837547,
        "school_type": "초등학교",
        "school_name": "서울공연초등학교",
        "distance": 212.59536248855147,
        "walking_time": "약 4분"
      },
      {
        "school_lat": 37.6307779754887,
        "school_lon": 127.073998366297,
        "school_type": "고등학교",
        "school_name": "서울동산고등학교",
        "distance": 510.6131197861077,
        "walking_time": "약 8분"
      },
      {
        "school_lat": 37.6312721593711,
        "school_lon": 127.072117818679,
        "school_type": "중학교",
        "school_name": "한천중학교",
        "distance": 640.3809369023346,
        "walking_time": "약 10분"
      },
      {
        "school_lat": 37.6322400488783,
        "school_lon": 127.074928451599,
        "school_type": "고등학교",
        "school_name": "경기기계공업고등학교",
        "distance": 642.4564361098292,
        "walking_time": "약 10분"
      },
      {
        "school_lat": 37.6299301501593,
        "school_lon": 127.068936691961,
        "school_type": "초등학교",
        "school_name": "서울용원초등학교",
        "distance": 749.3967795301952,
        "walking_time": "약 12분"
      },
      {
        "school_lat": 37.6221359473952,
        "school_lon": 127.083501333421,
        "school_type": "중학교",
        "school_name": "공릉중학교",
        "distance": 802.3529934715983,
        "walking_time": "약 12분"
      },
      {
        "school_lat": 37.622879790197,
        "school_lon": 127.08478195175,
        "school_type": "초등학교",
        "school_name": "서울태릉초등학교",
        "distance": 851.2703472967141,
        "walking_time": "약 13분"
      },
      {
        "school_lat": 37.6207501680548,
        "school_lon": 127.069258063469,
        "school_type": "초등학교",
        "school_name": "서울한천초등학교",
        "distance": 896.7653028501624,
        "walking_time": "약 14분"
      },
      {
        "school_lat": 37.6186120126537,
        "school_lon": 127.074614270574,
        "school_type": "초등학교",
        "school_name": "서울공릉초등학교",
        "distance": 897.0879194094955,
        "walking_time": "약 14분"
      },
      {
        "school_lat": 37.6344239191317,
        "school_lon": 127.072522941451,
        "school_type": "초등학교",
        "school_name": "서울연촌초등학교",
        "distance": 935.1700382349212,
        "walking_time": "약 14분"
      }
    ],
    "self_laundromat": [
      {
        "self_laundromat_lat": 37.6145997,
        "self_laundromat_lon": 127.0809575,
        "self_laundromat_type": "셀프 빨래방",
        "self_laundromat_name": "셀프빨래방 중랑하늘점",
        "distance": 1392.208808303509,
        "walking_time": "약 21분"
      },
      {
        "self_laundromat_lat": 37.6145997,
        "self_laundromat_lon": 127.0809575,
        "self_laundromat_type": "셀프 빨래방",
        "self_laundromat_name": "셀프빨래방 중랑하늘점",
        "distance": 1392.208808303509,
        "walking_time": "약 21분"
      },
      {
        "self_laundromat_lat": 37.61101318,
        "self_laundromat_lon": 127.0619897,
        "self_laundromat_type": "셀프 빨래방",
        "self_laundromat_name": "워시콥셀프빨래방석관동얼음왕국",
        "distance": 2140.6164479381955,
        "walking_time": "약 32분"
      },
      {
        "self_laundromat_lat": 37.61101318,
        "self_laundromat_lon": 127.0619897,
        "self_laundromat_type": "셀프 빨래방",
        "self_laundromat_name": "워시콥셀프빨래방석관동얼음왕국",
        "distance": 2140.6164479381955,
        "walking_time": "약 32분"
      }
    ],
    "subway": [
      {
        "subway_lat": 37.6254769202851,
        "subway_lon": 127.073005201049,
        "subway_type": "지하철",
        "subway_name": "7호선-공릉(서울과학기술대)역",
        "distance": 315.3591377825352,
        "walking_time": "약 5분"
      },
      {
        "subway_lat": 37.6185137762138,
        "subway_lon": 127.075368429731,
        "subway_type": "지하철",
        "subway_name": "6호선-태릉입구역",
        "distance": 899.3172397996923,
        "walking_time": "약 14분"
      },
      {
        "subway_lat": 37.6185137762138,
        "subway_lon": 127.075368429731,
        "subway_type": "지하철",
        "subway_name": "7호선-태릉입구역",
        "distance": 899.3172397996923,
        "walking_time": "약 14분"
      },
      {
        "subway_lat": 37.6198943887187,
        "subway_lon": 127.083744624338,
        "subway_type": "지하철",
        "subway_name": "6호선-화랑대(서울여대입구)역",
        "distance": 989.5053533594044,
        "walking_time": "약 15분"
      },
      {
        "subway_lat": 37.6364521240646,
        "subway_lon": 127.067988537404,
        "subway_type": "지하철",
        "subway_name": "7호선-하계역",
        "distance": 1321.1017494855255,
        "walking_time": "약 20분"
      },
      {
        "subway_lat": 37.6150480846952,
        "subway_lon": 127.066118430844,
        "subway_type": "지하철",
        "subway_name": "6호선-석계역",
        "distance": 1564.106336722699,
        "walking_time": "약 24분"
      },
      {
        "subway_lat": 37.6106250591244,
        "subway_lon": 127.077764798784,
        "subway_type": "지하철",
        "subway_name": "7호선-먹골역",
        "distance": 1777.2815187353713,
        "walking_time": "약 27분"
      }
    ],
    "supermarket": [
      {
        "supermarket_lat": 37.62825426,
        "supermarket_lon": 127.0710099,
        "supermarket_type": "마트",
        "supermarket_name": "홈플러스(주)익스프레스 공릉점",
        "distance": 503.1358770905368,
        "walking_time": "약 8분"
      },
      {
        "supermarket_lat": 37.62195341,
        "supermarket_lon": 127.0753261,
        "supermarket_type": "마트",
        "supermarket_name": "공릉종합상가",
        "distance": 520.2891810851544,
        "walking_time": "약 8분"
      },
      {
        "supermarket_lat": 37.62262021,
        "supermarket_lon": 127.0794891,
        "supermarket_type": "마트",
        "supermarket_name": "롯데쇼핑(주) 롯데슈퍼공릉점",
        "distance": 520.5200784142245,
        "walking_time": "약 8분"
      },
      {
        "supermarket_lat": 37.62082546,
        "supermarket_lon": 127.0836357,
        "supermarket_type": "마트",
        "supermarket_name": "(주)이마트에브리데이 공릉동점",
        "distance": 907.5981056456576,
        "walking_time": "약 14분"
      },
      {
        "supermarket_lat": 37.61872537,
        "supermarket_lon": 127.0670846,
        "supermarket_type": "마트",
        "supermarket_name": "(주)지에스리테일 GS슈퍼 노원월계점",
        "distance": 1191.8854050350576,
        "walking_time": "약 18분"
      },
      {
        "supermarket_lat": 37.62650936,
        "supermarket_lon": 127.0619798,
        "supermarket_type": "마트",
        "supermarket_name": "이마트타운 월계점",
        "distance": 1262.124283579471,
        "walking_time": "약 19분"
      },
      {
        "supermarket_lat": 37.63662358,
        "supermarket_lon": 127.0689153,
        "supermarket_type": "마트",
        "supermarket_name": "세이브존",
        "distance": 1294.0710768198735,
        "walking_time": "약 20분"
      },
      {
        "supermarket_lat": 37.61383489,
        "supermarket_lon": 127.077545,
        "supermarket_type": "마트",
        "supermarket_name": "주식회사 이마트 묵동점",
        "distance": 1419.9116463756868,
        "walking_time": "약 22분"
      },
      {
        "supermarket_lat": 37.63985808,
        "supermarket_lon": 127.068668,
        "supermarket_type": "마트",
        "supermarket_name": "홈플러스(주) 중계점",
        "distance": 1623.9362464524388,
        "walking_time": "약 25분"
      }
    ],
    "theater": [
      {
        "theater_lat": 37.6151499459916,
        "theater_lon": 127.076057076024,
        "theater_type": "영화관",
        "theater_name": "롯데시네마 중랑관",
        "distance": 1269.7154524701905,
        "walking_time": "약 19분"
      },
      {
        "theater_lat": 37.6398580838556,
        "theater_lon": 127.068668049616,
        "theater_type": "영화관",
        "theater_name": "CGV 중계",
        "distance": 1623.9348258361742,
        "walking_time": "약 25분"
      },
      {
        "theater_lat": 37.6391097783726,
        "theater_lon": 127.064915087375,
        "theater_type": "영화관",
        "theater_name": "CGV 하계",
        "distance": 1718.203393499497,
        "walking_time": "약 26분"
      }
    ],
    "university": [
      {
        "university_lat": 37.6330789279387,
        "university_lon": 127.076794742851,
        "university_type": "대학교",
        "university_name": "서울과학기술대학교",
        "distance": 725.3453911731766,
        "walking_time": "약 11분"
      },
      {
        "university_lat": 37.6330789279387,
        "university_lon": 127.076794742851,
        "university_type": "대학교",
        "university_name": "서울과학기술대학교",
        "distance": 725.3453911731766,
        "walking_time": "약 11분"
      },
      {
        "university_lat": 37.6129860183722,
        "university_lon": 127.0614007785,
        "university_type": "대학교",
        "university_name": "한국예술종합학교",
        "distance": 2001.264315052939,
        "walking_time": "약 30분"
      }
    ]
  }
}