{
  "클러스터_위도": 37.499399,
  "클러스터_경도": 126.941168,
  "클러스터_level": 3.0,
  "facilities": {
    "bus": [
      {
        "bus_lat": 37.49962656,
        "bus_lon": 126.9406673,
        "bus_type": "버스정류장",
        "bus_name": "더크는킨더어린이집",
        "distance": 50.90480042073051,
        "walking_time": "약 1분"
      },
      {
        "bus_lat": 37.49977524,
        "bus_lon": 126.940666,
        "bus_type": "버스정류장",
        "bus_name": "더크는킨더어린이집",
        "distance": 60.92142715352381,
        "walking_time": "약 1분"
      },
      {
        "bus_lat": 37.499156,
        "bus_lon": 126.940108,
        "bus_type": "버스정류장",
        "bus_name": "상도4동성문교회.상도어울마당",
        "distance": 97.33635923023856,
        "walking_time": "약 2분"
      },
      {
        "bus_lat": 37.49914503,
        "bus_lon": 126.9399947,
        "bus_type": "버스정류장",
        "bus_name": "상도4동성문교회.상도어울마당",
        "distance": 107.28918988543911,
        "walking_time": "약 2분"
      },
      {
        "bus_lat": 37.50088857,
        "bus_lon": 126.9416028,
        "bus_type": "버스정류장",
        "bus_name": "현대아이파크",
        "distance": 170.0158738503158,
        "walking_time": "약 3분"
      },
      {
        "bus_lat": 37.4993164,
        "bus_lon": 126.9435349,
        "bus_type": "버스정류장",
        "bus_name": "신상도초등학교",
        "distance": 209.00420594451683,
        "walking_time": "약 4분"
      },
      {
        "bus_lat": 37.49937392,
        "bus_lon": 126.9436737,
        "bus_type": "버스정류장",
        "bus_name": "신상도초등학교",
        "distance": 221.0644097044116,
        "walking_time": "약 4분"
      },
      {
        "bus_lat": 37.50147931,
        "bus_lon": 126.9408309,
        "bus_type": "버스정류장",
        "bus_name": "상도2동아이파크.포스코더샵아파트",
        "distance": 233.22357733622323,
        "walking_time": "약 4분"
      },
      {
        "bus_lat": 37.50151368,
        "bus_lon": 126.9411385,
        "bus_type": "버스정류장",
        "bus_name": "상도2동아이파크.포스코더샵아파트",
        "distance": 235.15608769452845,
        "walking_time": "약 4분"
      },
      {
        "bus_lat": 37.49825261,
        "bus_lon": 126.9435185,
        "bus_type": "버스정류장",
        "bus_name": "약수맨션.약수당약국",
        "distance": 243.405485010742,
        "walking_time": "약 4분"
      }
    ],
    "community_center": [
      {
        "community_center_lat": 37.50059942,
        "community_center_lon": 126.9377767,
        "community_center_type": "주민센터",
        "community_center_name": "상도4동 자치회관",
        "distance": 327.5968266790524,
        "walking_time": "약 5분"
      },
      {
        "community_center_lat": 37.50546805,
        "community_center_lon": 126.9423012,
        "community_center_type": "주민센터",
        "community_center_name": "상도2동 자치회관",
        "distance": 682.2111567491403,
        "walking_time": "약 11분"
      },
      {
        "community_center_lat": 37.49912572,
        "community_center_lon": 126.931404,
        "community_center_type": "주민센터",
        "community_center_name": "상도3동 자치회관",
        "distance": 861.8938350615055,
        "walking_time": "약 13분"
      },
      {
        "community_center_lat": 37.49810133,
        "community_center_lon": 126.9530811,
        "community_center_type": "주민센터",
        "community_center_name": "상도1동 자치회관",
        "distance": 1060.81338549384,
        "walking_time": "약 16분"
      },
      {
        "community_center_lat": 37.50851669,
        "community_center_lon": 126.9373567,
        "community_center_type": "주민센터",
        "community_center_name": "노량진2동 자치회관",
        "distance": 1068.1319436502447,
        "walking_time": "약 16분"
      },
      {
        "community_center_lat": 37.48817585,
        "community_center_lon": 126.932778,
        "community_center_type": "주민센터",
        "community_center_name": "보라매동 자치회관",
        "distance": 1450.963530623074,
        "walking_time": "약 22분"
      },
      {
        "community_center_lat": 37.48533865,
        "community_center_lon": 126.9424717,
        "community_center_type": "주민센터",
        "community_center_name": "은천동 자치회관",
        "distance": 1567.6648113384051,
        "walking_time": "약 24분"
      },
      {
        "community_center_lat": 37.49184717,
        "community_center_lon": 126.9586277,
        "community_center_type": "주민센터",
        "community_center_name": "청림동 자치회관",
        "distance": 1754.353388428725,
        "walking_time": "약 27분"
      },
      {
        "community_center_lat": 37.48419282,
        "community_center_lon": 126.9497511,
        "community_center_type": "주민센터",
        "community_center_name": "중앙동 자치회관",
        "distance": 1852.677164215848,
        "walking_time": "약 28분"
      },
      {
        "community_center_lat": 37.48721429,
        "community_center_lon": 126.956633,
        "community_center_type": "주민센터",
        "community_center_name": "성현동 자치회관",
        "distance": 1922.8288998149071,
        "walking_time": "약 29분"
      }
    ],
    "convenience_store": [
      {
        "convenience_store_lat": 37.49963198,
        "convenience_store_lon": 126.9403385,
        "convenience_store_type": "편의점",
        "convenience_store_name": "GS25 상도맨션점",
        "distance": 77.6267438749486,
        "walking_time": "약 2분"
      },
      {
        "convenience_store_lat": 37.50050836,
        "convenience_store_lon": 126.941731,
        "convenience_store_type": "편의점",
        "convenience_store_name": "세븐일레븐 장승배기로점",
        "distance": 132.9783081748552,
        "walking_time": "약 2분"
      },
      {
        "convenience_store_lat": 37.49743429,
        "convenience_store_lon": 126.9417009,
        "convenience_store_type": "편의점",
        "convenience_store_name": "GS25 양녕골드점",
        "distance": 223.466787170553,
        "walking_time": "약 4분"
      },
      {
        "convenience_store_lat": 37.49905332,
        "convenience_store_lon": 126.9443329,
        "convenience_store_type": "편의점",
        "convenience_store_name": "CU 상도약수점",
        "distance": 281.83392778980425,
        "walking_time": "약 5분"
      },
      {
        "convenience_store_lat": 37.5014493,
        "convenience_store_lon": 126.9438142,
        "convenience_store_type": "편의점",
        "convenience_store_name": "CU 상도포스코점",
        "distance": 326.296793105268,
        "walking_time": "약 5분"
      },
      {
        "convenience_store_lat": 37.49725467,
        "convenience_store_lon": 126.9449606,
        "convenience_store_type": "편의점",
        "convenience_store_name": "세븐일레븐 상도약수점",
        "distance": 410.8478272635248,
        "walking_time": "약 7분"
      },
      {
        "convenience_store_lat": 37.49620755,
        "convenience_store_lon": 126.9436853,
        "convenience_store_type": "편의점",
        "convenience_store_name": "GS25 상도골드점",
        "distance": 418.6312458815381,
        "walking_time": "약 7분"
      },
      {
        "convenience_store_lat": 37.50115283,
        "convenience_store_lon": 126.9367759,
        "convenience_store_type": "편의점",
        "convenience_store_name": "GS25 상도초교점",
        "distance": 433.7668484476093,
        "walking_time": "약 7분"
      },
      {
        "convenience_store_lat": 37.50397929,
        "convenience_store_lon": 126.9391917,
        "convenience_store_type": "편의점",
        "convenience_store_name": "미니스톱 장승배기역점",
        "distance": 538.3174693581701,
        "walking_time": "약 9분"
      },
      {
        "convenience_store_lat": 37.50431826,
        "convenience_store_lon": 126.942467,
        "convenience_store_type": "편의점",
        "convenience_store_name": "GS25 상도트레지움",
        "distance": 558.870749204602,
        "walking_time": "약 9분"
      }
    ],
    "daycare": [
      {
        "daycare_lat": 37.4992835,
        "daycare_lon": 126.9405345,
        "daycare_type": "어린이집",
        "daycare_name": "예사랑어린이집",
        "distance": 57.34260512711548,
        "walking_time": "약 1분"
      },
      {
        "daycare_lat": 37.49986259,
        "daycare_lon": 126.9406032,
        "daycare_type": "어린이집",
        "daycare_name": "더크는킨더앤어린이집",
        "distance": 71.69259649765023,
        "walking_time": "약 2분"
      },
      {
        "daycare_lat": 37.50010277,
        "daycare_lon": 126.9415634,
        "daycare_type": "어린이집",
        "daycare_name": "와이즈맘 어린이집",
        "distance": 85.67751181184855,
        "walking_time": "약 2분"
      },
      {
        "daycare_lat": 37.50071857,
        "daycare_lon": 126.9412052,
        "daycare_type": "어린이집",
        "daycare_name": "해아뜰어린이집",
        "distance": 146.76618264997572,
        "walking_time": "약 3분"
      },
      {
        "daycare_lat": 37.50052604110252,
        "daycare_lon": 126.94219033065733,
        "daycare_type": "어린이집",
        "daycare_name": "상도아이파크어린이집",
        "distance": 154.39910855115858,
        "walking_time": "약 3분"
      },
      {
        "daycare_lat": 37.49920226,
        "daycare_lon": 126.9391118,
        "daycare_type": "어린이집",
        "daycare_name": "구립샛별어린이집",
        "distance": 182.70763802861143,
        "walking_time": "약 3분"
      },
      {
        "daycare_lat": 37.49769187,
        "daycare_lon": 126.9404914,
        "daycare_type": "어린이집",
        "daycare_name": "킨더키즈어린이집",
        "distance": 198.9873496266432,
        "walking_time": "약 3분"
      },
      {
        "daycare_lat": 37.50067466,
        "daycare_lon": 126.9428412,
        "daycare_type": "어린이집",
        "daycare_name": "SAINT어린이집",
        "distance": 204.713468430193,
        "walking_time": "약 4분"
      },
      {
        "daycare_lat": 37.49954776,
        "daycare_lon": 126.9383548,
        "daycare_type": "어린이집",
        "daycare_name": "우리또래어린이집",
        "distance": 248.7240887853441,
        "walking_time": "약 4분"
      },
      {
        "daycare_lat": 37.4985692,
        "daycare_lon": 126.9441828,
        "daycare_type": "어린이집",
        "daycare_name": "로뎀어린이집",
        "distance": 281.5107452285285,
        "walking_time": "약 5분"
      }
    ],
    "education": [
      {
        "education_lat": 37.49925547,
        "education_lon": 126.9403722,
        "education_type": "공연장",
        "education_name": "상도어울마당 아트홀",
        "distance": 71.99488179850876,
        "walking_time": "약 2분"
      },
      {
        "education_lat": 37.49543351,
        "education_lon": 126.9405902,
        "education_type": "도서관",
        "education_name": "국사봉숲속작은도서관",
        "distance": 443.8788887917346,
        "walking_time": "약 7분"
      },
      {
        "education_lat": 37.50444553,
        "education_lon": 126.9410884,
        "education_type": "문화원",
        "education_name": "동작문화원 동작본원",
        "distance": 561.1924652837396,
        "walking_time": "약 9분"
      },
      {
        "education_lat": 37.49788488,
        "education_lon": 126.9474555,
        "education_type": "도서관",
        "education_name": "약수도서관",
        "distance": 579.6626267605559,
        "walking_time": "약 9분"
      },
      {
        "education_lat": 37.50596845,
        "education_lon": 126.9401029,
        "education_type": "도서관",
        "education_name": "서울특별시교육청 동작도서관",
        "distance": 736.5071159912975,
        "walking_time": "약 11분"
      },
      {
        "education_lat": 37.50547361,
        "education_lon": 126.9499672,
        "education_type": "도서관",
        "education_name": "김영삼도서관",
        "distance": 1028.9606139466798,
        "walking_time": "약 16분"
      },
      {
        "education_lat": 37.50920443,
        "education_lon": 126.9434315,
        "education_type": "도서관",
        "education_name": "동작영어마루도서관",
        "distance": 1108.4456819953894,
        "walking_time": "약 17분"
      },
      {
        "education_lat": 37.49642897,
        "education_lon": 126.9551579,
        "education_type": "박물관/기념관",
        "education_name": "숭실대학교 한국기독교박물관",
        "distance": 1277.6016143231088,
        "walking_time": "약 20분"
      },
      {
        "education_lat": 37.48624318,
        "education_lon": 126.9596703,
        "education_type": "도서관",
        "education_name": "글빛정보도서관",
        "distance": 2191.9394275400464,
        "walking_time": "약 33분"
      }
    ],
    "fitness": [
      {
        "fitness_lat": 37.50062034,
        "fitness_lon": 126.9413327,
        "fitness_type": "운동시설",
        "fitness_name": "프루브짐",
        "distance": 136.58181112587013,
        "walking_time": "약 3분"
      },
      {
        "fitness_lat": 37.49700194,
        "fitness_lon": 126.9436426,
        "fitness_type": "운동시설",
        "fitness_name": "러너 피트니스",
        "distance": 344.5313927472875,
        "walking_time": "약 6분"
      },
      {
        "fitness_lat": 37.49739021,
        "fitness_lon": 126.9442578,
        "fitness_type": "운동시설",
        "fitness_name": "엔짐",
        "distance": 352.40868270132864,
        "walking_time": "약 6분"
      },
      {
        "fitness_lat": 37.50425279,
        "fitness_lon": 126.9384185,
        "fitness_type": "운동시설",
        "fitness_name": "LIKE PT STUDIO 장승배기점",
        "distance": 591.7119041214299,
        "walking_time": "약 9분"
      },
      {
        "fitness_lat": 37.50425279,
        "fitness_lon": 126.9384185,
        "fitness_type": "운동시설",
        "fitness_name": "플러스버닝 퍼스널트레이닝",
        "distance": 591.7119041214299,
        "walking_time": "약 9분"
      },
      {
        "fitness_lat": 37.50342868,
        "fitness_lon": 126.9362862,
        "fitness_type": "운동시설",
        "fitness_name": "이콩고",
        "distance": 621.4774125131289,
        "walking_time": "약 10분"
      },
      {
        "fitness_lat": 37.50480319,
        "fitness_lon": 126.9385474,
        "fitness_type": "운동시설",
        "fitness_name": "에브리데이짐",
        "distance": 643.8515037795844,
        "walking_time": "약 10분"
      },
      {
        "fitness_lat": 37.50500375,
        "fitness_lon": 126.9432089,
        "fitness_type": "운동시설",
        "fitness_name": "(주)킹콩휘트니스",
        "distance": 648.7033335722417,
        "walking_time": "약 10분"
      },
      {
        "fitness_lat": 37.50238508,
        "fitness_lon": 126.9479362,
        "fitness_type": "운동시설",
        "fitness_name": "아워러스(OUROUS)",
        "distance": 683.1777799692604,
        "walking_time": "약 11분"
      },
      {
        "fitness_lat": 37.50531033,
        "fitness_lon": 126.9456393,
        "fitness_type": "운동시설",
        "fitness_name": "빅브로짐상도점",
        "distance": 766.5719974799315,
        "walking_time": "약 12분"
      }
    ],
    "gas_station": [
      {
        "gas_station_lat": 37.50286297,
        "gas_station_lon": 126.9351815,
        "gas_station_type": "주유소",
        "gas_station_name": "매일주유소",
        "distance": 653.6455275084521,
        "walking_time": "약 10분"
      },
      {
        "gas_station_lat": 37.4983605,
        "gas_station_lon": 126.951389,
        "gas_station_type": "주유소",
        "gas_station_name": "살피재주유소",
        "distance": 909.0424199199532,
        "walking_time": "약 14분"
      },
      {
        "gas_station_lat": 37.49347189,
        "gas_station_lon": 126.9564351,
        "gas_station_type": "주유소",
        "gas_station_name": "현대오일뱅크㈜직영동작주유소",
        "distance": 1499.4838643114904,
        "walking_time": "약 23분"
      },
      {
        "gas_station_lat": 37.48233196,
        "gas_station_lon": 126.9450663,
        "gas_station_type": "주유소",
        "gas_station_name": "시몬주유소",
        "distance": 1928.682874910192,
        "walking_time": "약 29분"
      },
      {
        "gas_station_lat": 37.48041974,
        "gas_station_lon": 126.9306687,
        "gas_station_type": "주유소",
        "gas_station_name": "신관주유소",
        "distance": 2304.752477218617,
        "walking_time": "약 35분"
      }
    ],
    "hospital": [
      {
        "hospital_lat": 37.50074659,
        "hospital_lon": 126.9413722,
        "hospital_type": "병원",
        "hospital_name": "서울뷰치과의원",
        "distance": 150.92406938578642,
        "walking_time": "약 3분"
      },
      {
        "hospital_lat": 37.50074659,
        "hospital_lon": 126.9413722,
        "hospital_type": "병원",
        "hospital_name": "큰나무한의원",
        "distance": 150.92406938578642,
        "walking_time": "약 3분"
      },
      {
        "hospital_lat": 37.50115097,
        "hospital_lon": 126.9415621,
        "hospital_type": "병원",
        "hospital_name": "명소아청소년과의원",
        "distance": 197.8880717830596,
        "walking_time": "약 3분"
      },
      {
        "hospital_lat": 37.49833215,
        "hospital_lon": 126.9433807,
        "hospital_type": "병원",
        "hospital_name": "수치과의원",
        "distance": 228.42040547420507,
        "walking_time": "약 4분"
      },
      {
        "hospital_lat": 37.49878775,
        "hospital_lon": 126.94368,
        "hospital_type": "병원",
        "hospital_name": "연세굿모닝치과의원",
        "distance": 231.7924252694151,
        "walking_time": "약 4분"
      },
      {
        "hospital_lat": 37.49878775,
        "hospital_lon": 126.94368,
        "hospital_type": "병원",
        "hospital_name": "제일의원",
        "distance": 231.7924252694151,
        "walking_time": "약 4분"
      },
      {
        "hospital_lat": 37.49822388,
        "hospital_lon": 126.943434,
        "hospital_type": "병원",
        "hospital_name": "연세가정의학과의원",
        "distance": 238.8200468565393,
        "walking_time": "약 4분"
      },
      {
        "hospital_lat": 37.49931288,
        "hospital_lon": 126.9439001,
        "hospital_type": "병원",
        "hospital_name": "현함한의원",
        "distance": 241.20954220747427,
        "walking_time": "약 4분"
      },
      {
        "hospital_lat": 37.49775386,
        "hospital_lon": 126.9435125,
        "hospital_type": "병원",
        "hospital_name": "행복한아침내과의원",
        "distance": 276.11920124097674,
        "walking_time": "약 5분"
      },
      {
        "hospital_lat": 37.49752443,
        "hospital_lon": 126.9434427,
        "hospital_type": "병원",
        "hospital_name": "약수부부한의원",
        "distance": 289.33927233933304,
        "walking_time": "약 5분"
      }
    ],
    "music_room": [
      {
        "music_room_lat": 37.49884595,
        "music_room_lon": 126.9434738,
        "music_room_type": "노래방",
        "music_room_name": "베토벤노래연습장",
        "distance": 212.5054953257201,
        "walking_time": "약 4분"
      },
      {
        "music_room_lat": 37.49757655,
        "music_room_lon": 126.9439082,
        "music_room_type": "노래방",
        "music_room_name": "팡팡노래방(연소자실5)",
        "distance": 315.44023684998524,
        "walking_time": "약 5분"
      },
      {
        "music_room_lat": 37.50429811,
        "music_room_lon": 126.9387505,
        "music_room_type": "노래방",
        "music_room_name": "뉴스타노래연습장",
        "distance": 585.0117018402939,
        "walking_time": "약 9분"
      },
      {
        "music_room_lat": 37.50425279,
        "music_room_lon": 126.9384185,
        "music_room_type": "노래방",
        "music_room_name": "앵무새노래연습실(연소자실2)",
        "distance": 591.7119041214299,
        "walking_time": "약 9분"
      },
      {
        "music_room_lat": 37.50270903,
        "music_room_lon": 126.9359157,
        "music_room_type": "노래방",
        "music_room_name": "디지털 노래연습장",
        "distance": 591.7316344455112,
        "walking_time": "약 9분"
      },
      {
        "music_room_lat": 37.5022986,
        "music_room_lon": 126.9352109,
        "music_room_type": "노래방",
        "music_room_name": "열린노래연습장",
        "distance": 616.5360462832584,
        "walking_time": "약 10분"
      },
      {
        "music_room_lat": 37.50216101,
        "music_room_lon": 126.9350323,
        "music_room_type": "노래방",
        "music_room_name": "월드노래연습장",
        "distance": 622.3287865520832,
        "walking_time": "약 10분"
      },
      {
        "music_room_lat": 37.50480319,
        "music_room_lon": 126.9385474,
        "music_room_type": "노래방",
        "music_room_name": "파파코노래연습장",
        "distance": 643.8515037795844,
        "walking_time": "약 10분"
      },
      {
        "music_room_lat": 37.50458334,
        "music_room_lon": 126.9373394,
        "music_room_type": "노래방",
        "music_room_name": "자기야노래연습장",
        "distance": 668.1222460094423,
        "walking_time": "약 10분"
      },
      {
        "music_room_lat": 37.50287836,
        "music_room_lon": 126.9474901,
        "music_room_type": "노래방",
        "music_room_name": "KBS노래연습장",
        "distance": 678.7629733257958,
        "walking_time": "약 11분"
      }
    ],
    "park": [
      {
        "park_lat": 37.492299,
        "park_lon": 126.9385469,
        "park_type": "공원",
        "park_name": "상도근린공원",
        "distance": 822.651812072435,
        "walking_time": "약 13분"
      }
    ],
    "park_station": [
      {
        "park_station_lat": 37.501405,
        "park_station_lon": 126.9410975,
        "park_station_type": "주차장",
        "park_station_name": "공유) 장승배기로A",
        "distance": 223.14370836410995,
        "walking_time": "약 4분"
      },
      {
        "park_station_lat": 37.50250138,
        "park_station_lon": 126.9402727,
        "park_station_type": "주차장",
        "park_station_name": "공유) 장승배기로C",
        "distance": 353.89450906925293,
        "walking_time": "약 6분"
      },
      {
        "park_station_lat": 37.50302525,
        "park_station_lon": 126.9397837,
        "park_station_type": "주차장",
        "park_station_name": "공유) 장승배기로D",
        "distance": 421.3066873124495,
        "walking_time": "약 7분"
      },
      {
        "park_station_lat": 37.49978486,
        "park_station_lon": 126.9354957,
        "park_station_type": "주차장",
        "park_station_name": "도화공영주차장",
        "distance": 502.2313405363605,
        "walking_time": "약 8분"
      },
      {
        "park_station_lat": 37.50482472,
        "park_station_lon": 126.94137,
        "park_station_type": "주차장",
        "park_station_name": "공유) 상도2동 170-27",
        "distance": 603.5756334852878,
        "walking_time": "약 10분"
      },
      {
        "park_station_lat": 37.49725268,
        "park_station_lon": 126.9338844,
        "park_station_type": "주차장",
        "park_station_name": "공유) 성대주차장",
        "distance": 685.4414950871845,
        "walking_time": "약 11분"
      },
      {
        "park_station_lat": 37.50642272,
        "park_station_lon": 126.9418691,
        "park_station_type": "주차장",
        "park_station_name": "공유) 동작도서관",
        "distance": 783.4469685370445,
        "walking_time": "약 12분"
      },
      {
        "park_station_lat": 37.50531623,
        "park_station_lon": 126.9351787,
        "park_station_type": "주차장",
        "park_station_name": "공유) 상도래미안",
        "distance": 843.8382446300975,
        "walking_time": "약 13분"
      },
      {
        "park_station_lat": 37.49330922,
        "park_station_lon": 126.9336841,
        "park_station_type": "주차장",
        "park_station_name": "빙수골장미",
        "distance": 945.7539304079664,
        "walking_time": "약 15분"
      },
      {
        "park_station_lat": 37.49193146,
        "park_station_lon": 126.9331501,
        "park_station_type": "주차장",
        "park_station_name": "당곡중학교공영 ",
        "distance": 1090.796303430442,
        "walking_time": "약 17분"
      }
    ],
    "pc_room": [
      {
        "pc_room_lat": 37.5011653364565,
        "pc_room_lon": 126.941107893311,
        "pc_room_type": "PC방",
        "pc_room_name": "사이버펠리스 PC방",
        "distance": 196.4792139855697,
        "walking_time": "약 3분"
      },
      {
        "pc_room_lat": 37.4975244304507,
        "pc_room_lon": 126.943442696438,
        "pc_room_type": "PC방",
        "pc_room_name": "진 PC방",
        "distance": 289.33901829752057,
        "walking_time": "약 5분"
      },
      {
        "pc_room_lat": 37.4973902075154,
        "pc_room_lon": 126.944257806099,
        "pc_room_type": "PC방",
        "pc_room_name": "제로백 PC 상도점",
        "distance": 352.4092739781939,
        "walking_time": "약 6분"
      },
      {
        "pc_room_lat": 37.4970504767188,
        "pc_room_lon": 126.944149044524,
        "pc_room_type": "PC방",
        "pc_room_name": "JAM PC방",
        "distance": 370.6171254924524,
        "walking_time": "약 6분"
      },
      {
        "pc_room_lat": 37.4975922447346,
        "pc_room_lon": 126.934976916217,
        "pc_room_type": "PC방",
        "pc_room_name": "배틀짱PC방",
        "distance": 581.9469167121534,
        "walking_time": "약 9분"
      },
      {
        "pc_room_lat": 37.5049680434096,
        "pc_room_lon": 126.94131526696,
        "pc_room_type": "PC방",
        "pc_room_name": "제노pc",
        "distance": 619.385626121007,
        "walking_time": "약 10분"
      },
      {
        "pc_room_lat": 37.5043302773119,
        "pc_room_lon": 126.937557355363,
        "pc_room_type": "PC방",
        "pc_room_name": "세븐PC방",
        "distance": 634.1284312041913,
        "walking_time": "약 10분"
      },
      {
        "pc_room_lat": 37.5017661558763,
        "pc_room_lon": 126.934326748325,
        "pc_room_type": "PC방",
        "pc_room_name": "아이비스 PC방",
        "distance": 658.4115148558934,
        "walking_time": "약 10분"
      },
      {
        "pc_room_lat": 37.5042108879341,
        "pc_room_lon": 126.945558089006,
        "pc_room_type": "PC방",
        "pc_room_name": "오투 PC존",
        "distance": 660.5036125314521,
        "walking_time": "약 10분"
      },
      {
        "pc_room_lat": 37.5035322576258,
        "pc_room_lon": 126.935216389442,
        "pc_room_type": "PC방",
        "pc_room_name": "홈런PC",
        "distance": 697.7663600093381,
        "walking_time": "약 11분"
      }
    ],
    "police_office": [
      {
        "police_office_lat": 37.50593298,
        "police_office_lon": 126.9362025,
        "police_office_type": "경찰소",
        "police_office_name": "상도지구대",
        "distance": 848.371582134179,
        "walking_time": "약 13분"
      },
      {
        "police_office_lat": 37.48735272,
        "police_office_lon": 126.9454289,
        "police_office_type": "경찰소",
        "police_office_name": "구암지구대",
        "distance": 1391.234681132802,
        "walking_time": "약 21분"
      },
      {
        "police_office_lat": 37.48600685,
        "police_office_lon": 126.9343644,
        "police_office_type": "경찰소",
        "police_office_name": "당곡지구대",
        "distance": 1605.56424143688,
        "walking_time": "약 24분"
      },
      {
        "police_office_lat": 37.48401647,
        "police_office_lon": 126.9333173,
        "police_office_type": "경찰소",
        "police_office_name": "신림지구대",
        "distance": 1845.3787216937203,
        "walking_time": "약 28분"
      }
    ],
    "post_office": [
      {
        "post_office_lat": 37.49941236,
        "post_office_lon": 126.9437362,
        "post_office_type": "우체국",
        "post_office_name": "서울동작약수우편취급국",
        "distance": 226.56523012376368,
        "walking_time": "약 4분"
      },
      {
        "post_office_lat": 37.50500444,
        "post_office_lon": 126.9448543,
        "post_office_type": "우체국",
        "post_office_name": "서울상도동우체국",
        "distance": 703.024400354681,
        "walking_time": "약 11분"
      },
      {
        "post_office_lat": 37.50964891,
        "post_office_lon": 126.9403493,
        "post_office_type": "우체국",
        "post_office_name": "서울노량진1동우편취급국",
        "distance": 1142.023746781763,
        "walking_time": "약 18분"
      },
      {
        "post_office_lat": 37.50472672,
        "post_office_lon": 126.9538339,
        "post_office_type": "우체국",
        "post_office_name": "중앙대학교우편취급국",
        "distance": 1264.6537726262995,
        "walking_time": "약 19분"
      },
      {
        "post_office_lat": 37.49642897,
        "post_office_lon": 126.9551579,
        "post_office_type": "우체국",
        "post_office_name": "숭실대학교우편취급국",
        "distance": 1277.6016143231088,
        "walking_time": "약 20분"
      },
      {
        "post_office_lat": 37.48582895,
        "post_office_lon": 126.9416713,
        "post_office_type": "우체국",
        "post_office_name": "서울은천동우체국",
        "distance": 1509.5739239857717,
        "walking_time": "약 23분"
      },
      {
        "post_office_lat": 37.48501424,
        "post_office_lon": 126.9331367,
        "post_office_type": "우체국",
        "post_office_name": "서울관악우체국",
        "distance": 1749.4316866204067,
        "walking_time": "약 27분"
      },
      {
        "post_office_lat": 37.48227075,
        "post_office_lon": 126.9412539,
        "post_office_type": "우체국",
        "post_office_name": "서울봉천역전우편취급국",
        "distance": 1904.5895810893223,
        "walking_time": "약 29분"
      },
      {
        "post_office_lat": 37.48677759,
        "post_office_lon": 126.9567026,
        "post_office_type": "우체국",
        "post_office_name": "서울봉천동우체국",
        "distance": 1961.636097730052,
        "walking_time": "약 30분"
      },
      {
        "post_office_lat": 37.48084938,
        "post_office_lon": 126.9547091,
        "post_office_type": "우체국",
        "post_office_name": "서울행운동우체국",
        "distance": 2383.642489471224,
        "walking_time": "약 36분"
      }
    ],
    "public_health_center": [
      {
        "public_health_center_lat": 37.50444553,
        "public_health_center_lon": 126.9410884,
        "public_health_center_type": "보건소",
        "public_health_center_name": "동작문화복지센타",
        "distance": 561.1924652837396,
        "walking_time": "약 9분"
      },
      {
        "public_health_center_lat": 37.48784455,
        "public_health_center_lon": 126.932302,
        "public_health_center_type": "보건소",
        "public_health_center_name": "관악구보건지소",
        "distance": 1504.1723029315838,
        "walking_time": "약 23분"
      }
    ],
    "school": [
      {
        "school_lat": 37.5008246344742,
        "school_lon": 126.943817704578,
        "school_type": "초등학교",
        "school_name": "서울신상도초등학교",
        "distance": 282.4321226834364,
        "walking_time": "약 5분"
      },
      {
        "school_lat": 37.5003760295043,
        "school_lon": 126.937378799359,
        "school_type": "초등학교",
        "school_name": "서울상도초등학교",
        "distance": 351.4833098363217,
        "walking_time": "약 6분"
      },
      {
        "school_lat": 37.5031485833795,
        "school_lon": 126.940834004372,
        "school_type": "중학교",
        "school_name": "장승중학교",
        "distance": 417.9744033834528,
        "walking_time": "약 7분"
      },
      {
        "school_lat": 37.493532631943,
        "school_lon": 126.944055659373,
        "school_type": "중학교",
        "school_name": "국사봉중학교",
        "distance": 700.2910513879501,
        "walking_time": "약 11분"
      },
      {
        "school_lat": 37.5031159857549,
        "school_lon": 126.930756309893,
        "school_type": "중학교",
        "school_name": "강현중학교",
        "distance": 1007.1814530272802,
        "walking_time": "약 16분"
      },
      {
        "school_lat": 37.4927662360841,
        "school_lon": 126.949035651603,
        "school_type": "중학교",
        "school_name": "구암중학교",
        "distance": 1012.7780034604648,
        "walking_time": "약 16분"
      },
      {
        "school_lat": 37.4917603442825,
        "school_lon": 126.934246405052,
        "school_type": "고등학교",
        "school_name": "당곡고등학교",
        "distance": 1046.099522622755,
        "walking_time": "약 16분"
      },
      {
        "school_lat": 37.4923586311415,
        "school_lon": 126.932678731475,
        "school_type": "중학교",
        "school_name": "당곡중학교",
        "distance": 1083.4054698648397,
        "walking_time": "약 17분"
      },
      {
        "school_lat": 37.4925540129161,
        "school_lon": 126.950219161074,
        "school_type": "고등학교",
        "school_name": "구암고등학교",
        "distance": 1103.1458434381525,
        "walking_time": "약 17분"
      },
      {
        "school_lat": 37.4948743920855,
        "school_lon": 126.952669123087,
        "school_type": "초등학교",
        "school_name": "서울상현초등학교",
        "distance": 1132.519809408422,
        "walking_time": "약 17분"
      }
    ],
    "subway": [
      {
        "subway_lat": 37.5046658024741,
        "subway_lon": 126.938744364462,
        "subway_type": "지하철",
        "subway_name": "7호선-장승배기역",
        "distance": 623.4472995007492,
        "walking_time": "약 10분"
      },
      {
        "subway_lat": 37.5032080456431,
        "subway_lon": 126.947700373641,
        "subway_type": "지하철",
        "subway_name": "7호선-상도역",
        "distance": 715.1657504026332,
        "walking_time": "약 11분"
      },
      {
        "subway_lat": 37.4958143308836,
        "subway_lon": 126.954060246067,
        "subway_type": "지하철",
        "subway_name": "7호선-숭실대입구(살피재)역",
        "distance": 1205.1740990739268,
        "walking_time": "약 18분"
      },
      {
        "subway_lat": 37.4825562153548,
        "subway_lon": 126.941495272047,
        "subway_type": "지하철",
        "subway_name": "2호선-봉천역",
        "distance": 1873.054775527772,
        "walking_time": "약 28분"
      },
      {
        "subway_lat": 37.4811526631844,
        "subway_lon": 126.952645104944,
        "subway_type": "지하철",
        "subway_name": "2호선-서울대입구(관악구청)역",
        "distance": 2267.5552001840983,
        "walking_time": "약 34분"
      }
    ],
    "supermarket": [
      {
        "supermarket_lat": 37.49700194,
        "supermarket_lon": 126.9436426,
        "supermarket_type": "마트",
        "supermarket_name": "홈플러스 익스프레스 상도3점",
        "distance": 344.5313927472875,
        "walking_time": "약 6분"
      },
      {
        "supermarket_lat": 37.50431826,
        "supermarket_lon": 126.942467,
        "supermarket_type": "마트",
        "supermarket_name": "GS THE FRESH 동작구청점",
        "distance": 558.870749204602,
        "walking_time": "약 9분"
      },
      {
        "supermarket_lat": 37.49897519,
        "supermarket_lon": 126.9336619,
        "supermarket_type": "마트",
        "supermarket_name": "홈플러스(주) 익스프레스 상도점",
        "distance": 663.8466293446189,
        "walking_time": "약 10분"
      },
      {
        "supermarket_lat": 37.50623587,
        "supermarket_lon": 126.9445418,
        "supermarket_type": "마트",
        "supermarket_name": "(주)이마트에브리데이 상도동점",
        "distance": 816.4049436545349,
        "walking_time": "약 13분"
      },
      {
        "supermarket_lat": 37.4999427,
        "supermarket_lon": 126.9317763,
        "supermarket_type": "마트",
        "supermarket_name": "성대종합시장",
        "distance": 830.7128414383536,
        "walking_time": "약 13분"
      },
      {
        "supermarket_lat": 37.49678998,
        "supermarket_lon": 126.9516675,
        "supermarket_type": "마트",
        "supermarket_name": "(주)지에스리테일 상도 엠코타운점",
        "distance": 970.6260992417722,
        "walking_time": "약 15분"
      },
      {
        "supermarket_lat": 37.50762648,
        "supermarket_lon": 126.9495479,
        "supermarket_type": "마트",
        "supermarket_name": "홈플러스 익스프레스 상도2점",
        "distance": 1176.1780720405102,
        "walking_time": "약 18분"
      },
      {
        "supermarket_lat": 37.48665276,
        "supermarket_lon": 126.9392236,
        "supermarket_type": "마트",
        "supermarket_name": "GS THE FRESH 관악은천점",
        "distance": 1427.6609393550573,
        "walking_time": "약 22분"
      },
      {
        "supermarket_lat": 37.48629672,
        "supermarket_lon": 126.9412497,
        "supermarket_type": "마트",
        "supermarket_name": "(주)이마트에브리데이 봉천동점",
        "distance": 1456.924894079938,
        "walking_time": "약 22분"
      },
      {
        "supermarket_lat": 37.48658496,
        "supermarket_lon": 126.9465719,
        "supermarket_type": "마트",
        "supermarket_name": "봉천현대시장",
        "distance": 1502.502999197282,
        "walking_time": "약 23분"
      }
    ],
    "theater": [
      {
        "theater_lat": 37.4838513393186,
        "theater_lon": 126.930234545397,
        "theater_type": "영화관",
        "theater_name": "롯데시네마 신림",
        "distance": 1979.7272677991127,
        "walking_time": "약 30분"
      },
      {
        "theater_lat": 37.4809479979455,
        "theater_lon": 126.952083773717,
        "theater_type": "영화관",
        "theater_name": "롯데시네마 서울대입구",
        "distance": 2266.456893051887,
        "walking_time": "약 34분"
      }
    ],
    "university": [
      {
        "university_lat": 37.5047267237807,
        "university_lon": 126.953833907628,
        "university_type": "대학교",
        "university_name": "중앙대학교 서울캠퍼스",
        "distance": 1264.6545640337838,
        "walking_time": "약 19분"
      },
      {
        "university_lat": 37.4964019323152,
        "university_lon": 126.956588222367,
        "university_type": "대학교",
        "university_name": "숭실대학교",
        "distance": 1400.5877316357814,
        "walking_time": "약 21분"
      }
    ]
  }
}