{
  "클러스터_위도": 37.48765702273012,
  "클러스터_경도": 126.94161770452224,
  "클러스터_level": 3.0,
  "facilities": {
    "bus": [
      {
        "bus_lat": 37.4879473,
        "bus_lon": 126.9405544,
        "bus_type": "버스정류장",
        "bus_name": "경천교회",
        "distance": 99.21392949618269,
        "walking_time": "약 2분"
      },
      {
        "bus_lat": 37.48859121,
        "bus_lon": 126.941601,
        "bus_type": "버스정류장",
        "bus_name": "산성교회",
        "distance": 103.88734030006772,
        "walking_time": "약 2분"
      },
      {
        "bus_lat": 37.48802746,
        "bus_lon": 126.9404797,
        "bus_type": "버스정류장",
        "bus_name": "경천교회",
        "distance": 108.52811099270244,
        "walking_time": "약 2분"
      },
      {
        "bus_lat": 37.48867229,
        "bus_lon": 126.9415478,
        "bus_type": "버스정류장",
        "bus_name": "산성교회",
        "distance": 113.06092706339192,
        "walking_time": "약 2분"
      },
      {
        "bus_lat": 37.48904105,
        "bus_lon": 126.941975,
        "bus_type": "버스정류장",
        "bus_name": "서울관광고등학교",
        "distance": 157.0923819407373,
        "walking_time": "약 3분"
      },
      {
        "bus_lat": 37.48907524,
        "bus_lon": 126.9418664,
        "bus_type": "버스정류장",
        "bus_name": "서울관광고등학교",
        "distance": 159.2178166853003,
        "walking_time": "약 3분"
      },
      {
        "bus_lat": 37.48632002,
        "bus_lon": 126.9424483,
        "bus_type": "버스정류장",
        "bus_name": "은천초등학교",
        "distance": 165.7494653843977,
        "walking_time": "약 3분"
      },
      {
        "bus_lat": 37.48608434,
        "bus_lon": 126.9424345,
        "bus_type": "버스정류장",
        "bus_name": "은천초등학교",
        "distance": 189.1422841247034,
        "walking_time": "약 3분"
      },
      {
        "bus_lat": 37.48956378,
        "bus_lon": 126.9421499,
        "bus_type": "버스정류장",
        "bus_name": "수정슈퍼",
        "distance": 217.15906858568388,
        "walking_time": "약 4분"
      },
      {
        "bus_lat": 37.4865356,
        "bus_lon": 126.9394213,
        "bus_type": "버스정류장",
        "bus_name": "국회단지입구",
        "distance": 230.44544877386085,
        "walking_time": "약 4분"
      }
    ],
    "community_center": [
      {
        "community_center_lat": 37.48533865,
        "community_center_lon": 126.9424717,
        "community_center_type": "주민센터",
        "community_center_name": "은천동 자치회관",
        "distance": 268.57779809408066,
        "walking_time": "약 5분"
      },
      {
        "community_center_lat": 37.48817585,
        "community_center_lon": 126.932778,
        "community_center_type": "주민센터",
        "community_center_name": "보라매동 자치회관",
        "distance": 782.0679637205624,
        "walking_time": "약 12분"
      },
      {
        "community_center_lat": 37.48419282,
        "community_center_lon": 126.9497511,
        "community_center_type": "주민센터",
        "community_center_name": "중앙동 자치회관",
        "distance": 814.4842185707242,
        "walking_time": "약 13분"
      },
      {
        "community_center_lat": 37.4791175,
        "community_center_lon": 126.9416407,
        "community_center_type": "주민센터",
        "community_center_name": "청룡동 자치회관",
        "distance": 949.5537714204085,
        "walking_time": "약 15분"
      },
      {
        "community_center_lat": 37.47976918,
        "community_center_lon": 126.9313747,
        "community_center_type": "주민센터",
        "community_center_name": "서원동 자치회관",
        "distance": 1259.4217158387305,
        "walking_time": "약 19분"
      },
      {
        "community_center_lat": 37.48721429,
        "community_center_lon": 126.956633,
        "community_center_type": "주민센터",
        "community_center_name": "성현동 자치회관",
        "distance": 1325.739524095255,
        "walking_time": "약 20분"
      },
      {
        "community_center_lat": 37.47499588,
        "community_center_lon": 126.9349996,
        "community_center_type": "주민센터",
        "community_center_name": "서림동 자치회관",
        "distance": 1524.1657911584791,
        "walking_time": "약 23분"
      },
      {
        "community_center_lat": 37.49810133,
        "community_center_lon": 126.9530811,
        "community_center_type": "주민센터",
        "community_center_name": "상도1동 자치회관",
        "distance": 1539.9982651416335,
        "walking_time": "약 23분"
      },
      {
        "community_center_lat": 37.49912572,
        "community_center_lon": 126.931404,
        "community_center_type": "주민센터",
        "community_center_name": "상도3동 자치회관",
        "distance": 1561.4970518920877,
        "walking_time": "약 24분"
      },
      {
        "community_center_lat": 37.48064257,
        "community_center_lon": 126.9570309,
        "community_center_type": "주민센터",
        "community_center_name": "행운동 자치회관",
        "distance": 1567.780245814385,
        "walking_time": "약 24분"
      }
    ],
    "convenience_store": [
      {
        "convenience_store_lat": 37.48763754,
        "convenience_store_lon": 126.9402329,
        "convenience_store_type": "편의점",
        "convenience_store_name": "CU 관악국회단지점",
        "distance": 122.20252660510798,
        "walking_time": "약 2분"
      },
      {
        "convenience_store_lat": 37.48638056,
        "convenience_store_lon": 126.94226,
        "convenience_store_type": "편의점",
        "convenience_store_name": "CU 관악은천길점",
        "distance": 152.8315988033098,
        "walking_time": "약 3분"
      },
      {
        "convenience_store_lat": 37.48689585,
        "convenience_store_lon": 126.9441318,
        "convenience_store_type": "편의점",
        "convenience_store_name": "세븐일레븐 은천로점",
        "distance": 237.42221754684377,
        "walking_time": "약 4분"
      },
      {
        "convenience_store_lat": 37.49040548,
        "convenience_store_lon": 126.9423219,
        "convenience_store_type": "편의점",
        "convenience_store_name": "GS25 봉천가람점",
        "distance": 311.8661441256404,
        "walking_time": "약 5분"
      },
      {
        "convenience_store_lat": 37.48735272,
        "convenience_store_lon": 126.9454289,
        "convenience_store_type": "편의점",
        "convenience_store_name": "GS25 관악블루밍점",
        "distance": 337.96610609914853,
        "walking_time": "약 6분"
      },
      {
        "convenience_store_lat": 37.48463949,
        "convenience_store_lon": 126.9401672,
        "convenience_store_type": "편의점",
        "convenience_store_name": "CU 관악봉천점",
        "distance": 359.1139900086103,
        "walking_time": "약 6분"
      },
      {
        "convenience_store_lat": 37.48611481,
        "convenience_store_lon": 126.9379012,
        "convenience_store_type": "편의점",
        "convenience_store_name": "GS25 관악은천점",
        "distance": 370.0491882456713,
        "walking_time": "약 6분"
      },
      {
        "convenience_store_lat": 37.48414958,
        "convenience_store_lon": 126.9413582,
        "convenience_store_type": "편의점",
        "convenience_store_name": "GS25 봉천한아름점",
        "distance": 390.6813861617928,
        "walking_time": "약 6분"
      },
      {
        "convenience_store_lat": 37.48531965,
        "convenience_store_lon": 126.937872,
        "convenience_store_type": "편의점",
        "convenience_store_name": "세븐일레븐 은천점",
        "distance": 420.44789632741214,
        "walking_time": "약 7분"
      },
      {
        "convenience_store_lat": 37.48759032,
        "convenience_store_lon": 126.9464095,
        "convenience_store_type": "편의점",
        "convenience_store_name": "세븐일레븐 은천로점",
        "distance": 422.85229037049294,
        "walking_time": "약 7분"
      }
    ],
    "daycare": [
      {
        "daycare_lat": 37.4873612,
        "daycare_lon": 126.9412728,
        "daycare_type": "어린이집",
        "daycare_name": "하나둘셋 어린이집",
        "distance": 44.81171344689629,
        "walking_time": "약 1분"
      },
      {
        "daycare_lat": 37.48744532,
        "daycare_lon": 126.9428185,
        "daycare_type": "어린이집",
        "daycare_name": "예쁜어린이집",
        "distance": 108.5317389264016,
        "walking_time": "약 2분"
      },
      {
        "daycare_lat": 37.48825032,
        "daycare_lon": 126.9427947,
        "daycare_type": "어린이집",
        "daycare_name": "구립은천어린이집",
        "distance": 123.0308192067976,
        "walking_time": "약 2분"
      },
      {
        "daycare_lat": 37.485305640589225,
        "daycare_lon": 126.94240795689444,
        "daycare_type": "어린이집",
        "daycare_name": "구립아이뜰어린이집",
        "distance": 270.59933184686406,
        "walking_time": "약 5분"
      },
      {
        "daycare_lat": 37.48725,
        "daycare_lon": 126.9452,
        "daycare_type": "어린이집",
        "daycare_name": "우리아이어린이집",
        "distance": 319.2958775730388,
        "walking_time": "약 5분"
      },
      {
        "daycare_lat": 37.48851630642436,
        "daycare_lon": 126.94508643616872,
        "daycare_type": "어린이집",
        "daycare_name": "구립마루어린이집",
        "distance": 320.6176612902254,
        "walking_time": "약 5분"
      },
      {
        "daycare_lat": 37.48519255706962,
        "daycare_lon": 126.93968538354534,
        "daycare_type": "어린이집",
        "daycare_name": "구립선봉어린이집",
        "distance": 322.7445962230603,
        "walking_time": "약 5분"
      },
      {
        "daycare_lat": 37.48728200005818,
        "daycare_lon": 126.94524676897969,
        "daycare_type": "어린이집",
        "daycare_name": "신나는어린이집",
        "distance": 322.90240676226284,
        "walking_time": "약 5분"
      },
      {
        "daycare_lat": 37.487282,
        "daycare_lon": 126.9452468,
        "daycare_type": "어린이집",
        "daycare_name": "햇살어린이집",
        "distance": 322.90512165187056,
        "walking_time": "약 5분"
      },
      {
        "daycare_lat": 37.487282,
        "daycare_lon": 126.9452468,
        "daycare_type": "어린이집",
        "daycare_name": "아이꿈나무어린이집",
        "distance": 322.90512165187056,
        "walking_time": "약 5분"
      }
    ],
    "education": [
      {
        "education_lat": 37.49543351,
        "education_lon": 126.9405902,
        "education_type": "도서관",
        "education_name": "국사봉숲속작은도서관",
        "distance": 869.4448824047814,
        "walking_time": "약 13분"
      },
      {
        "education_lat": 37.49788488,
        "education_lon": 126.9474555,
        "education_type": "도서관",
        "education_name": "약수도서관",
        "distance": 1248.473954054998,
        "walking_time": "약 19분"
      },
      {
        "education_lat": 37.49925547,
        "education_lon": 126.9403722,
        "education_type": "공연장",
        "education_name": "상도어울마당 아트홀",
        "distance": 1294.3612064657598,
        "walking_time": "약 20분"
      },
      {
        "education_lat": 37.49642897,
        "education_lon": 126.9551579,
        "education_type": "박물관/기념관",
        "education_name": "숭실대학교 한국기독교박물관",
        "distance": 1542.2284858461842,
        "walking_time": "약 24분"
      },
      {
        "education_lat": 37.48624318,
        "education_lon": 126.9596703,
        "education_type": "도서관",
        "education_name": "글빛정보도서관",
        "distance": 1600.5613352993712,
        "walking_time": "약 24분"
      },
      {
        "education_lat": 37.47197208,
        "education_lon": 126.959371,
        "education_type": "도서관",
        "education_name": "낙성대공원도서관",
        "distance": 2344.3457367579854,
        "walking_time": "약 35분"
      }
    ],
    "fitness": [
      {
        "fitness_lat": 37.48629672,
        "fitness_lon": 126.9412497,
        "fitness_type": "운동시설",
        "fitness_name": "은천점 스포애니 (주)케이디헬스케어",
        "distance": 154.70457471210324,
        "walking_time": "약 3분"
      },
      {
        "fitness_lat": 37.4859764,
        "fitness_lon": 126.9405053,
        "fitness_type": "운동시설",
        "fitness_name": "엠제이핏 PT",
        "distance": 211.08378364175613,
        "walking_time": "약 4분"
      },
      {
        "fitness_lat": 37.48633741,
        "fitness_lon": 126.9395785,
        "fitness_type": "운동시설",
        "fitness_name": "미래가 그려짐",
        "distance": 232.17110689357403,
        "walking_time": "약 4분"
      },
      {
        "fitness_lat": 37.4854854,
        "fitness_lon": 126.9422431,
        "fitness_type": "운동시설",
        "fitness_name": "프리원핏 봉천점",
        "distance": 247.69797837813016,
        "walking_time": "약 4분"
      },
      {
        "fitness_lat": 37.4859081,
        "fitness_lon": 126.9383899,
        "fitness_type": "운동시설",
        "fitness_name": "봉일스파랜드",
        "distance": 344.8601793853994,
        "walking_time": "약 6분"
      },
      {
        "fitness_lat": 37.48640729,
        "fitness_lon": 126.9379271,
        "fitness_type": "운동시설",
        "fitness_name": "폴인핏(FALL IN FIT)",
        "distance": 354.04228381532727,
        "walking_time": "약 6분"
      },
      {
        "fitness_lat": 37.48734609,
        "fitness_lon": 126.945895,
        "fitness_type": "운동시설",
        "fitness_name": "에스짐 관악봉천점",
        "distance": 378.9731679596289,
        "walking_time": "약 6분"
      },
      {
        "fitness_lat": 37.48398984,
        "fitness_lon": 126.9415579,
        "fitness_type": "운동시설",
        "fitness_name": "인바이트짐",
        "distance": 407.8062552146958,
        "walking_time": "약 7분"
      },
      {
        "fitness_lat": 37.48725893,
        "fitness_lon": 126.946611,
        "fitness_type": "운동시설",
        "fitness_name": "텐 퍼센트(TEN PERCENT)",
        "distance": 442.785078641382,
        "walking_time": "약 7분"
      },
      {
        "fitness_lat": 37.4873103,
        "fitness_lon": 126.9470363,
        "fitness_type": "운동시설",
        "fitness_name": "커브스 봉천클럽",
        "distance": 479.6436189402558,
        "walking_time": "약 8분"
      }
    ],
    "gas_station": [
      {
        "gas_station_lat": 37.48233196,
        "gas_station_lon": 126.9450663,
        "gas_station_type": "주유소",
        "gas_station_name": "시몬주유소",
        "distance": 665.7294188062122,
        "walking_time": "약 10분"
      },
      {
        "gas_station_lat": 37.48041974,
        "gas_station_lon": 126.9306687,
        "gas_station_type": "주유소",
        "gas_station_name": "신관주유소",
        "distance": 1257.3612918455642,
        "walking_time": "약 19분"
      },
      {
        "gas_station_lat": 37.49347189,
        "gas_station_lon": 126.9564351,
        "gas_station_type": "주유소",
        "gas_station_name": "현대오일뱅크㈜직영동작주유소",
        "distance": 1458.467785033964,
        "walking_time": "약 22분"
      },
      {
        "gas_station_lat": 37.4983605,
        "gas_station_lon": 126.951389,
        "gas_station_type": "주유소",
        "gas_station_name": "살피재주유소",
        "distance": 1469.5854681119931,
        "walking_time": "약 22분"
      },
      {
        "gas_station_lat": 37.4737677,
        "gas_station_lon": 126.9348256,
        "gas_station_type": "주유소",
        "gas_station_name": "유림주유소",
        "distance": 1656.635125580368,
        "walking_time": "약 25분"
      },
      {
        "gas_station_lat": 37.4787977,
        "gas_station_lon": 126.9583966,
        "gas_station_type": "주유소",
        "gas_station_name": "SK에너지㈜ 신봉천주유소",
        "distance": 1778.3044858061676,
        "walking_time": "약 27분"
      },
      {
        "gas_station_lat": 37.47909674,
        "gas_station_lon": 126.9591692,
        "gas_station_type": "주유소",
        "gas_station_name": "행운주유소",
        "distance": 1817.8160366365505,
        "walking_time": "약 28분"
      }
    ],
    "hospital": [
      {
        "hospital_lat": 37.48629672,
        "hospital_lon": 126.9412497,
        "hospital_type": "병원",
        "hospital_name": "서울퍼스트병원",
        "distance": 154.70457471210324,
        "walking_time": "약 3분"
      },
      {
        "hospital_lat": 37.48629672,
        "hospital_lon": 126.9412497,
        "hospital_type": "병원",
        "hospital_name": "서울퍼스트병원",
        "distance": 154.70457471210324,
        "walking_time": "약 3분"
      },
      {
        "hospital_lat": 37.48586498,
        "hospital_lon": 126.9418525,
        "hospital_type": "병원",
        "hospital_name": "서울원정형외과소아청소년과의원",
        "distance": 200.34006056989887,
        "walking_time": "약 3분"
      },
      {
        "hospital_lat": 37.48633741,
        "hospital_lon": 126.9395785,
        "hospital_type": "병원",
        "hospital_name": "365바른정형외과의원",
        "distance": 232.17110689357403,
        "walking_time": "약 4분"
      },
      {
        "hospital_lat": 37.48633741,
        "hospital_lon": 126.9395785,
        "hospital_type": "병원",
        "hospital_name": "김태경치과의원",
        "distance": 232.17110689357403,
        "walking_time": "약 4분"
      },
      {
        "hospital_lat": 37.48633741,
        "hospital_lon": 126.9395785,
        "hospital_type": "병원",
        "hospital_name": "청담한의원",
        "distance": 232.17110689357403,
        "walking_time": "약 4분"
      },
      {
        "hospital_lat": 37.48665276,
        "hospital_lon": 126.9392236,
        "hospital_type": "병원",
        "hospital_name": "대추나무한의원",
        "distance": 238.9370254475784,
        "walking_time": "약 4분"
      },
      {
        "hospital_lat": 37.48641797,
        "hospital_lon": 126.9392389,
        "hospital_type": "병원",
        "hospital_name": "봉천연세가정의학과의원",
        "distance": 251.06757491236297,
        "walking_time": "약 4분"
      },
      {
        "hospital_lat": 37.48641797,
        "hospital_lon": 126.9392389,
        "hospital_type": "병원",
        "hospital_name": "푸른치과의원",
        "distance": 251.06757491236297,
        "walking_time": "약 4분"
      },
      {
        "hospital_lat": 37.48602386,
        "hospital_lon": 126.9395724,
        "hospital_type": "병원",
        "hospital_name": "이정희소아청소년과의원",
        "distance": 256.0174471024611,
        "walking_time": "약 4분"
      }
    ],
    "music_room": [
      {
        "music_room_lat": 37.48641797,
        "music_room_lon": 126.9392389,
        "music_room_type": "노래방",
        "music_room_name": "카드OK코인노래연습장",
        "distance": 251.06757491236297,
        "walking_time": "약 4분"
      },
      {
        "music_room_lat": 37.48604415,
        "music_room_lon": 126.939426,
        "music_room_type": "노래방",
        "music_room_name": "버즈노래연습장",
        "distance": 263.7415005708499,
        "walking_time": "약 4분"
      },
      {
        "music_room_lat": 37.48635007,
        "music_room_lon": 126.9389662,
        "music_room_type": "노래방",
        "music_room_name": "스타노래연습장",
        "distance": 275.41154910980055,
        "walking_time": "약 5분"
      },
      {
        "music_room_lat": 37.48639473,
        "music_room_lon": 126.9385584,
        "music_room_type": "노래방",
        "music_room_name": "소나타",
        "distance": 304.2413951738802,
        "walking_time": "약 5분"
      },
      {
        "music_room_lat": 37.4856008,
        "music_room_lon": 126.938805,
        "music_room_type": "노래방",
        "music_room_name": "봉일",
        "distance": 337.4410976613584,
        "walking_time": "약 6분"
      },
      {
        "music_room_lat": 37.48652896,
        "music_room_lon": 126.937991,
        "music_room_type": "노래방",
        "music_room_name": "가족 노래연습장",
        "distance": 343.6984963285018,
        "walking_time": "약 6분"
      },
      {
        "music_room_lat": 37.4859081,
        "music_room_lon": 126.9383899,
        "music_room_type": "노래방",
        "music_room_name": "슈노래연습장",
        "distance": 344.8601793853994,
        "walking_time": "약 6분"
      },
      {
        "music_room_lat": 37.48543342,
        "music_room_lon": 126.9376523,
        "music_room_type": "노래방",
        "music_room_name": "웃음잔치",
        "distance": 428.4264695815697,
        "walking_time": "약 7분"
      },
      {
        "music_room_lat": 37.48796404,
        "music_room_lon": 126.9467666,
        "music_room_type": "노래방",
        "music_room_name": "스마일(코인)",
        "distance": 455.5744697158334,
        "walking_time": "약 7분"
      },
      {
        "music_room_lat": 37.48351039,
        "music_room_lon": 126.942251,
        "music_room_type": "노래방",
        "music_room_name": "월드컵",
        "distance": 464.4580731737951,
        "walking_time": "약 7분"
      }
    ],
    "park": [
      {
        "park_lat": 37.492299,
        "park_lon": 126.9385469,
        "park_type": "공원",
        "park_name": "상도근린공원",
        "distance": 582.9497028328148,
        "walking_time": "약 9분"
      }
    ],
    "park_station": [
      {
        "park_station_lat": 37.48685341,
        "park_station_lon": 126.9331906,
        "park_station_type": "주차장",
        "park_station_name": "봉천복개3 공영주차장",
        "distance": 748.8898204391777,
        "walking_time": "약 12분"
      },
      {
        "park_station_lat": 37.49193146,
        "park_station_lon": 126.9331501,
        "park_station_type": "주차장",
        "park_station_name": "당곡중학교공영 ",
        "distance": 885.4636948367639,
        "walking_time": "약 14분"
      },
      {
        "park_station_lat": 37.49330922,
        "park_station_lon": 126.9336841,
        "park_station_type": "주차장",
        "park_station_name": "빙수골장미",
        "distance": 940.723385365312,
        "walking_time": "약 15분"
      },
      {
        "park_station_lat": 37.49725268,
        "park_station_lon": 126.9338844,
        "park_station_type": "주차장",
        "park_station_name": "공유) 성대주차장",
        "distance": 1266.4777603838231,
        "walking_time": "약 19분"
      },
      {
        "park_station_lat": 37.49978486,
        "park_station_lon": 126.9354957,
        "park_station_type": "주차장",
        "park_station_name": "도화공영주차장",
        "distance": 1452.6926923424942,
        "walking_time": "약 22분"
      },
      {
        "park_station_lat": 37.49727728,
        "park_station_lon": 126.9540285,
        "park_station_type": "주차장",
        "park_station_name": "살피재 공유주차장",
        "distance": 1530.760833066333,
        "walking_time": "약 23분"
      },
      {
        "park_station_lat": 37.49727728,
        "park_station_lon": 126.9540285,
        "park_station_type": "주차장",
        "park_station_name": "살피재 공유주차장",
        "distance": 1530.760833066333,
        "walking_time": "약 23분"
      },
      {
        "park_station_lat": 37.47785677,
        "park_station_lon": 126.9588859,
        "park_station_type": "주차장",
        "park_station_name": "낙성대제1공영",
        "distance": 1873.28180667601,
        "walking_time": "약 28분"
      },
      {
        "park_station_lat": 37.47480251,
        "park_station_lon": 126.9598846,
        "park_station_type": "주차장",
        "park_station_name": "낙성대제2공영",
        "distance": 2154.328488027761,
        "walking_time": "약 33분"
      }
    ],
    "pc_room": [
      {
        "pc_room_lat": 37.486362897773,
        "pc_room_lon": 126.938850219252,
        "pc_room_type": "PC방",
        "pc_room_name": "강남PC",
        "distance": 283.42860887644963,
        "walking_time": "약 5분"
      },
      {
        "pc_room_lat": 37.4863947321423,
        "pc_room_lon": 126.938558361976,
        "pc_room_type": "PC방",
        "pc_room_name": "아센PC방 봉일시장점",
        "distance": 304.2442618477716,
        "walking_time": "약 5분"
      },
      {
        "pc_room_lat": 37.4841495810369,
        "pc_room_lon": 126.941358237708,
        "pc_room_type": "PC방",
        "pc_room_name": "스타덤PC 봉천점",
        "distance": 390.6810760805721,
        "walking_time": "약 6분"
      },
      {
        "pc_room_lat": 37.4861307788499,
        "pc_room_lon": 126.936759768287,
        "pc_room_type": "PC방",
        "pc_room_name": "키키슬롯",
        "distance": 461.0020484853299,
        "walking_time": "약 7분"
      },
      {
        "pc_room_lat": 37.4873102965781,
        "pc_room_lon": 126.947036314759,
        "pc_room_type": "PC방",
        "pc_room_name": "이네이처PC방",
        "distance": 479.6449475348347,
        "walking_time": "약 8분"
      },
      {
        "pc_room_lat": 37.4869996530658,
        "pc_room_lon": 126.947493902254,
        "pc_room_type": "PC방",
        "pc_room_name": "레드포스PC아레나 봉천점",
        "distance": 523.5950873370707,
        "walking_time": "약 8분"
      },
      {
        "pc_room_lat": 37.4840824266542,
        "pc_room_lon": 126.937097299683,
        "pc_room_type": "PC방",
        "pc_room_name": "에이스피시방",
        "distance": 563.0900149322468,
        "walking_time": "약 9분"
      },
      {
        "pc_room_lat": 37.4825397376028,
        "pc_room_lon": 126.940613730465,
        "pc_room_type": "PC방",
        "pc_room_name": "3POP PC방",
        "distance": 575.8703808839088,
        "walking_time": "약 9분"
      },
      {
        "pc_room_lat": 37.4815170316646,
        "pc_room_lon": 126.946522694417,
        "pc_room_type": "PC방",
        "pc_room_name": "브라보PC",
        "distance": 808.3546777821863,
        "walking_time": "약 13분"
      },
      {
        "pc_room_lat": 37.4848212281323,
        "pc_room_lon": 126.932009130194,
        "pc_room_type": "PC방",
        "pc_room_name": "썬PC",
        "distance": 904.5363411040368,
        "walking_time": "약 14분"
      }
    ],
    "police_office": [
      {
        "police_office_lat": 37.48735272,
        "police_office_lon": 126.9454289,
        "police_office_type": "경찰소",
        "police_office_name": "구암지구대",
        "distance": 337.96610609914853,
        "walking_time": "약 6분"
      },
      {
        "police_office_lat": 37.48600685,
        "police_office_lon": 126.9343644,
        "police_office_type": "경찰소",
        "police_office_name": "당곡지구대",
        "distance": 665.7619406391481,
        "walking_time": "약 10분"
      },
      {
        "police_office_lat": 37.48401647,
        "police_office_lon": 126.9333173,
        "police_office_type": "경찰소",
        "police_office_name": "신림지구대",
        "distance": 836.8060793664071,
        "walking_time": "약 13분"
      },
      {
        "police_office_lat": 37.4738594,
        "police_office_lon": 126.9352631,
        "police_office_type": "경찰소",
        "police_office_name": "관악산지구대",
        "distance": 1633.4821440599424,
        "walking_time": "약 25분"
      },
      {
        "police_office_lat": 37.47832691,
        "police_office_lon": 126.9575957,
        "police_office_type": "경찰소",
        "police_office_name": "낙성대지구대",
        "distance": 1750.429055361869,
        "walking_time": "약 27분"
      }
    ],
    "post_office": [
      {
        "post_office_lat": 37.48582895,
        "post_office_lon": 126.9416713,
        "post_office_type": "우체국",
        "post_office_name": "서울은천동우체국",
        "distance": 203.3274110810465,
        "walking_time": "약 4분"
      },
      {
        "post_office_lat": 37.48227075,
        "post_office_lon": 126.9412539,
        "post_office_type": "우체국",
        "post_office_name": "서울봉천역전우편취급국",
        "distance": 599.7858071245934,
        "walking_time": "약 9분"
      },
      {
        "post_office_lat": 37.48501424,
        "post_office_lon": 126.9331367,
        "post_office_type": "우체국",
        "post_office_name": "서울관악우체국",
        "distance": 803.9376510607998,
        "walking_time": "약 12분"
      },
      {
        "post_office_lat": 37.47864491,
        "post_office_lon": 126.947376,
        "post_office_type": "우체국",
        "post_office_name": "서울청룡동우편취급국",
        "distance": 1123.5505019379343,
        "walking_time": "약 17분"
      },
      {
        "post_office_lat": 37.49941236,
        "post_office_lon": 126.9437362,
        "post_office_type": "우체국",
        "post_office_name": "서울동작약수우편취급국",
        "distance": 1320.4286246846136,
        "walking_time": "약 20분"
      },
      {
        "post_office_lat": 37.48677759,
        "post_office_lon": 126.9567026,
        "post_office_type": "우체국",
        "post_office_name": "서울봉천동우체국",
        "distance": 1334.557487325579,
        "walking_time": "약 20분"
      },
      {
        "post_office_lat": 37.48084938,
        "post_office_lon": 126.9547091,
        "post_office_type": "우체국",
        "post_office_name": "서울행운동우체국",
        "distance": 1381.05985508034,
        "walking_time": "약 21분"
      },
      {
        "post_office_lat": 37.49642897,
        "post_office_lon": 126.9551579,
        "post_office_type": "우체국",
        "post_office_name": "숭실대학교우편취급국",
        "distance": 1542.2284858461842,
        "walking_time": "약 24분"
      }
    ],
    "public_health_center": [
      {
        "public_health_center_lat": 37.48784455,
        "public_health_center_lon": 126.932302,
        "public_health_center_type": "보건소",
        "public_health_center_name": "관악구보건지소",
        "distance": 822.2015165988105,
        "walking_time": "약 13분"
      },
      {
        "public_health_center_lat": 37.47821067,
        "public_health_center_lon": 126.9515012,
        "public_health_center_type": "보건소",
        "public_health_center_name": "관악구보건소",
        "distance": 1365.2300815982535,
        "walking_time": "약 21분"
      }
    ],
    "school": [
      {
        "school_lat": 37.4865852040387,
        "school_lon": 126.942679132637,
        "school_type": "초등학교",
        "school_name": "서울은천초등학교",
        "distance": 151.57427971632558,
        "walking_time": "약 3분"
      },
      {
        "school_lat": 37.4878154195732,
        "school_lon": 126.943760849751,
        "school_type": "고등학교",
        "school_name": "서울관광고등학교",
        "distance": 189.91110544210125,
        "walking_time": "약 3분"
      },
      {
        "school_lat": 37.4892174749954,
        "school_lon": 126.946271723126,
        "school_type": "초등학교",
        "school_name": "서울구암초등학교",
        "distance": 445.781746960556,
        "walking_time": "약 7분"
      },
      {
        "school_lat": 37.493532631943,
        "school_lon": 126.944055659373,
        "school_type": "중학교",
        "school_name": "국사봉중학교",
        "distance": 687.8347703711736,
        "walking_time": "약 11분"
      },
      {
        "school_lat": 37.4855779476851,
        "school_lon": 126.949130876206,
        "school_type": "초등학교",
        "school_name": "서울신봉초등학교",
        "distance": 702.0622421691678,
        "walking_time": "약 11분"
      },
      {
        "school_lat": 37.4810297131995,
        "school_lon": 126.942570541831,
        "school_type": "초등학교",
        "school_name": "서울관악초등학교",
        "distance": 741.7035973845047,
        "walking_time": "약 12분"
      },
      {
        "school_lat": 37.4917603442825,
        "school_lon": 126.934246405052,
        "school_type": "고등학교",
        "school_name": "당곡고등학교",
        "distance": 794.4510252313731,
        "walking_time": "약 12분"
      },
      {
        "school_lat": 37.4811981682395,
        "school_lon": 126.937702673305,
        "school_type": "중학교",
        "school_name": "봉림중학교",
        "distance": 796.9510365772617,
        "walking_time": "약 12분"
      },
      {
        "school_lat": 37.4927662360841,
        "school_lon": 126.949035651603,
        "school_type": "중학교",
        "school_name": "구암중학교",
        "distance": 866.6572158573479,
        "walking_time": "약 13분"
      },
      {
        "school_lat": 37.4925540129161,
        "school_lon": 126.950219161074,
        "school_type": "고등학교",
        "school_name": "구암고등학교",
        "distance": 934.0357387093104,
        "walking_time": "약 14분"
      }
    ],
    "subway": [
      {
        "subway_lat": 37.4825562153548,
        "subway_lon": 126.941495272047,
        "subway_type": "지하철",
        "subway_name": "2호선-봉천역",
        "distance": 567.286769013655,
        "walking_time": "약 9분"
      },
      {
        "subway_lat": 37.4811526631844,
        "subway_lon": 126.952645104944,
        "subway_type": "지하철",
        "subway_name": "2호선-서울대입구(관악구청)역",
        "distance": 1212.366909088753,
        "walking_time": "약 19분"
      },
      {
        "subway_lat": 37.4958143308836,
        "subway_lon": 126.954060246067,
        "subway_type": "지하철",
        "subway_name": "7호선-숭실대입구(살피재)역",
        "distance": 1424.0178101062002,
        "walking_time": "약 22분"
      }
    ],
    "supermarket": [
      {
        "supermarket_lat": 37.48629672,
        "supermarket_lon": 126.9412497,
        "supermarket_type": "마트",
        "supermarket_name": "(주)이마트에브리데이 봉천동점",
        "distance": 154.70457471210324,
        "walking_time": "약 3분"
      },
      {
        "supermarket_lat": 37.48665276,
        "supermarket_lon": 126.9392236,
        "supermarket_type": "마트",
        "supermarket_name": "GS THE FRESH 관악은천점",
        "distance": 238.9370254475784,
        "walking_time": "약 4분"
      },
      {
        "supermarket_lat": 37.48658496,
        "supermarket_lon": 126.9465719,
        "supermarket_type": "마트",
        "supermarket_name": "봉천현대시장",
        "distance": 453.0822522591712,
        "walking_time": "약 7분"
      },
      {
        "supermarket_lat": 37.48615809,
        "supermarket_lon": 126.9472386,
        "supermarket_type": "마트",
        "supermarket_name": "홈플러스 익스프레스 봉천점",
        "distance": 523.2029133963412,
        "walking_time": "약 8분"
      },
      {
        "supermarket_lat": 37.49700194,
        "supermarket_lon": 126.9436426,
        "supermarket_type": "마트",
        "supermarket_name": "홈플러스 익스프레스 상도3점",
        "distance": 1054.3525867755131,
        "walking_time": "약 16분"
      },
      {
        "supermarket_lat": 37.48476254,
        "supermarket_lon": 126.9300965,
        "supermarket_type": "마트",
        "supermarket_name": "르네상스쇼핑몰(주)",
        "distance": 1066.286559950168,
        "walking_time": "약 16분"
      },
      {
        "supermarket_lat": 37.48385134,
        "supermarket_lon": 126.9302345,
        "supermarket_type": "마트",
        "supermarket_name": "타임스트림",
        "distance": 1089.8892767367593,
        "walking_time": "약 17분"
      },
      {
        "supermarket_lat": 37.47933913,
        "supermarket_lon": 126.9490155,
        "supermarket_type": "마트",
        "supermarket_name": "(주)지에스리테일 관악점",
        "distance": 1132.052257337212,
        "walking_time": "약 17분"
      },
      {
        "supermarket_lat": 37.480948,
        "supermarket_lon": 126.9520838,
        "supermarket_type": "마트",
        "supermarket_name": "라붐아울렛",
        "distance": 1187.158607701927,
        "walking_time": "약 18분"
      },
      {
        "supermarket_lat": 37.48362314,
        "supermarket_lon": 126.9551835,
        "supermarket_type": "마트",
        "supermarket_name": "관악프라자",
        "distance": 1278.2460202815723,
        "walking_time": "약 20분"
      }
    ],
    "theater": [
      {
        "theater_lat": 37.4838513393186,
        "theater_lon": 126.930234545397,
        "theater_type": "영화관",
        "theater_name": "롯데시네마 신림",
        "distance": 1089.8856148704178,
        "walking_time": "약 17분"
      },
      {
        "theater_lat": 37.4809479979455,
        "theater_lon": 126.952083773717,
        "theater_type": "영화관",
        "theater_name": "롯데시네마 서울대입구",
        "distance": 1187.1569472710091,
        "walking_time": "약 18분"
      }
    ],
    "university": [
      {
        "university_lat": 37.4964019323152,
        "university_lon": 126.956588222367,
        "university_type": "대학교",
        "university_name": "숭실대학교",
        "distance": 1640.1329160596167,
        "walking_time": "약 25분"
      }
    ]
  }
}