{
  "클러스터_위도": 37.486359250203776,
  "클러스터_경도": 126.93752200042692,
  "클러스터_level": 3.0,
  "facilities": {
    "bus": [
      {
        "bus_lat": 37.48553253,
        "bus_lon": 126.9372877,
        "bus_type": "버스정류장",
        "bus_name": "봉일시장",
        "distance": 94.22297492252142,
        "walking_time": "약 2분"
      },
      {
        "bus_lat": 37.48618881,
        "bus_lon": 126.9386238,
        "bus_type": "버스정류장",
        "bus_name": "봉일시장",
        "distance": 99.04529708331184,
        "walking_time": "약 2분"
      },
      {
        "bus_lat": 37.48618479,
        "bus_lon": 126.9387053,
        "bus_type": "버스정류장",
        "bus_name": "봉일시장",
        "distance": 106.19309208553628,
        "walking_time": "약 2분"
      },
      {
        "bus_lat": 37.48626234,
        "bus_lon": 126.9389873,
        "bus_type": "버스정류장",
        "bus_name": "봉일시장",
        "distance": 129.7361315135905,
        "walking_time": "약 2분"
      },
      {
        "bus_lat": 37.48640037,
        "bus_lon": 126.935882,
        "bus_type": "버스정류장",
        "bus_name": "은천교앞",
        "distance": 144.77430462551635,
        "walking_time": "약 3분"
      },
      {
        "bus_lat": 37.48507287,
        "bus_lon": 126.9372434,
        "bus_type": "버스정류장",
        "bus_name": "봉일시장",
        "distance": 145.13584854642116,
        "walking_time": "약 3분"
      },
      {
        "bus_lat": 37.48627418,
        "bus_lon": 126.9358192,
        "bus_type": "버스정류장",
        "bus_name": "은천교",
        "distance": 150.5407294262427,
        "walking_time": "약 3분"
      },
      {
        "bus_lat": 37.48659952,
        "bus_lon": 126.9393195,
        "bus_type": "버스정류장",
        "bus_name": "국회단지입구",
        "distance": 160.83304046740648,
        "walking_time": "약 3분"
      },
      {
        "bus_lat": 37.4865356,
        "bus_lon": 126.9394213,
        "bus_type": "버스정류장",
        "bus_name": "국회단지입구",
        "distance": 168.7240331146327,
        "walking_time": "약 3분"
      },
      {
        "bus_lat": 37.48648873,
        "bus_lon": 126.9355505,
        "bus_type": "버스정류장",
        "bus_name": "은천교",
        "distance": 174.54601129077165,
        "walking_time": "약 3분"
      }
    ],
    "community_center": [
      {
        "community_center_lat": 37.48533865,
        "community_center_lon": 126.9424717,
        "community_center_type": "주민센터",
        "community_center_name": "은천동 자치회관",
        "distance": 451.2336709736053,
        "walking_time": "약 7분"
      },
      {
        "community_center_lat": 37.48817585,
        "community_center_lon": 126.932778,
        "community_center_type": "주민센터",
        "community_center_name": "보라매동 자치회관",
        "distance": 464.7637559518116,
        "walking_time": "약 7분"
      },
      {
        "community_center_lat": 37.4791175,
        "community_center_lon": 126.9416407,
        "community_center_type": "주민센터",
        "community_center_name": "청룡동 자치회관",
        "distance": 883.4574268864958,
        "walking_time": "약 14분"
      },
      {
        "community_center_lat": 37.47976918,
        "community_center_lon": 126.9313747,
        "community_center_type": "주민센터",
        "community_center_name": "서원동 자치회관",
        "distance": 911.6950666069024,
        "walking_time": "약 14분"
      },
      {
        "community_center_lat": 37.487396,
        "community_center_lon": 126.9271139,
        "community_center_type": "주민센터",
        "community_center_name": "신림동 자치회관",
        "distance": 925.5388875836954,
        "walking_time": "약 14분"
      },
      {
        "community_center_lat": 37.48161061,
        "community_center_lon": 126.9273799,
        "community_center_type": "주민센터",
        "community_center_name": "신원동 자치회관",
        "distance": 1039.0617182871913,
        "walking_time": "약 16분"
      },
      {
        "community_center_lat": 37.48419282,
        "community_center_lon": 126.9497511,
        "community_center_type": "주민센터",
        "community_center_name": "중앙동 자치회관",
        "distance": 1105.58899078279,
        "walking_time": "약 17분"
      },
      {
        "community_center_lat": 37.47499588,
        "community_center_lon": 126.9349996,
        "community_center_type": "주민센터",
        "community_center_name": "서림동 자치회관",
        "distance": 1283.002871849838,
        "walking_time": "약 20분"
      },
      {
        "community_center_lat": 37.49912572,
        "community_center_lon": 126.931404,
        "community_center_type": "주민센터",
        "community_center_name": "상도3동 자치회관",
        "distance": 1518.7211503503677,
        "walking_time": "약 23분"
      },
      {
        "community_center_lat": 37.47059604,
        "community_center_lon": 126.9369573,
        "community_center_type": "주민센터",
        "community_center_name": "대학동 자치회관",
        "distance": 1753.4971802080902,
        "walking_time": "약 27분"
      }
    ],
    "convenience_store": [
      {
        "convenience_store_lat": 37.48611481,
        "convenience_store_lon": 126.9379012,
        "convenience_store_type": "편의점",
        "convenience_store_name": "GS25 관악은천점",
        "distance": 43.10702305674671,
        "walking_time": "약 1분"
      },
      {
        "convenience_store_lat": 37.48531965,
        "convenience_store_lon": 126.937872,
        "convenience_store_type": "편의점",
        "convenience_store_name": "세븐일레븐 은천점",
        "distance": 119.6521637538008,
        "walking_time": "약 2분"
      },
      {
        "convenience_store_lat": 37.48763754,
        "convenience_store_lon": 126.9402329,
        "convenience_store_type": "편의점",
        "convenience_store_name": "CU 관악국회단지점",
        "distance": 278.2351997749092,
        "walking_time": "약 5분"
      },
      {
        "convenience_store_lat": 37.48558501,
        "convenience_store_lon": 126.934401,
        "convenience_store_type": "편의점",
        "convenience_store_name": "GS25 관악당곡점",
        "distance": 288.52041372569795,
        "walking_time": "약 5분"
      },
      {
        "convenience_store_lat": 37.48463949,
        "convenience_store_lon": 126.9401672,
        "convenience_store_type": "편의점",
        "convenience_store_name": "CU 관악봉천점",
        "distance": 301.7321986345529,
        "walking_time": "약 5분"
      },
      {
        "convenience_store_lat": 37.48887215,
        "convenience_store_lon": 126.9361887,
        "convenience_store_type": "편의점",
        "convenience_store_name": "GS25 동신점",
        "distance": 303.1756040096345,
        "walking_time": "약 5분"
      },
      {
        "convenience_store_lat": 37.48321534,
        "convenience_store_lon": 126.9378617,
        "convenience_store_type": "편의점",
        "convenience_store_name": "GS25 관악장군점",
        "distance": 350.86945820591825,
        "walking_time": "약 6분"
      },
      {
        "convenience_store_lat": 37.48451119,
        "convenience_store_lon": 126.9339059,
        "convenience_store_type": "편의점",
        "convenience_store_name": "GS25 신림두림점",
        "distance": 379.5122218619669,
        "walking_time": "약 6분"
      },
      {
        "convenience_store_lat": 37.48317376,
        "convenience_store_lon": 126.9391642,
        "convenience_store_type": "편의점",
        "convenience_store_name": "세븐일레븐 봉천5호점",
        "distance": 382.70192648023857,
        "walking_time": "약 6분"
      },
      {
        "convenience_store_lat": 37.48525701,
        "convenience_store_lon": 126.9333704,
        "convenience_store_type": "편의점",
        "convenience_store_name": "CU 관악우체국점",
        "distance": 386.2711512174888,
        "walking_time": "약 6분"
      }
    ],
    "daycare": [
      {
        "daycare_lat": 37.4857357,
        "daycare_lon": 126.9376316,
        "daycare_type": "어린이집",
        "daycare_name": "아이보리어린이집",
        "distance": 70.00673901865405,
        "walking_time": "약 2분"
      },
      {
        "daycare_lat": 37.48705735540585,
        "daycare_lon": 126.93739873779566,
        "daycare_type": "어린이집",
        "daycare_name": "구립키즈맘어린이집",
        "distance": 78.38393116516669,
        "walking_time": "약 2분"
      },
      {
        "daycare_lat": 37.48705826,
        "daycare_lon": 126.9373999,
        "daycare_type": "어린이집",
        "daycare_name": "키즈맘어린이집",
        "distance": 78.46940149533127,
        "walking_time": "약 2분"
      },
      {
        "daycare_lat": 37.4874874,
        "daycare_lon": 126.936964,
        "daycare_type": "어린이집",
        "daycare_name": "아뜰어린이집",
        "distance": 134.76010235917803,
        "walking_time": "약 3분"
      },
      {
        "daycare_lat": 37.4853853,
        "daycare_lon": 126.9361213,
        "daycare_type": "어린이집",
        "daycare_name": "창민어린이집",
        "distance": 164.3250207288823,
        "walking_time": "약 3분"
      },
      {
        "daycare_lat": 37.48672202832664,
        "daycare_lon": 126.93544178309531,
        "daycare_type": "어린이집",
        "daycare_name": "구립당곡어린이집",
        "distance": 187.92390771515176,
        "walking_time": "약 3분"
      },
      {
        "daycare_lat": 37.48719894,
        "daycare_lon": 126.9351487,
        "daycare_type": "어린이집",
        "daycare_name": "초록가정어린이집",
        "distance": 229.27514847995363,
        "walking_time": "약 4분"
      },
      {
        "daycare_lat": 37.48519255706962,
        "daycare_lon": 126.93968538354534,
        "daycare_type": "어린이집",
        "daycare_name": "구립선봉어린이집",
        "distance": 230.79508832916727,
        "walking_time": "약 4분"
      },
      {
        "daycare_lat": 37.4840772,
        "daycare_lon": 126.9364255,
        "daycare_type": "어린이집",
        "daycare_name": "구립다온어린이집",
        "distance": 271.57070476616553,
        "walking_time": "약 5분"
      },
      {
        "daycare_lat": 37.48404231,
        "daycare_lon": 126.9364192,
        "daycare_type": "어린이집",
        "daycare_name": "다온어린이집",
        "distance": 275.3951421898663,
        "walking_time": "약 5분"
      }
    ],
    "education": [
      {
        "education_lat": 37.49543351,
        "education_lon": 126.9405902,
        "education_type": "도서관",
        "education_name": "국사봉숲속작은도서관",
        "distance": 1044.6927663951528,
        "walking_time": "약 16분"
      },
      {
        "education_lat": 37.49925547,
        "education_lon": 126.9403722,
        "education_type": "공연장",
        "education_name": "상도어울마당 아트홀",
        "distance": 1455.8748172713467,
        "walking_time": "약 22분"
      },
      {
        "education_lat": 37.49379251,
        "education_lon": 126.9231084,
        "education_type": "미술관/갤러리",
        "education_name": "동작아트갤러리",
        "distance": 1516.696830560099,
        "walking_time": "약 23분"
      },
      {
        "education_lat": 37.49788488,
        "education_lon": 126.9474555,
        "education_type": "도서관",
        "education_name": "약수도서관",
        "distance": 1552.5928320556327,
        "walking_time": "약 24분"
      }
    ],
    "fitness": [
      {
        "fitness_lat": 37.48640729,
        "fitness_lon": 126.9379271,
        "fitness_type": "운동시설",
        "fitness_name": "폴인핏(FALL IN FIT)",
        "distance": 36.14008904474234,
        "walking_time": "약 1분"
      },
      {
        "fitness_lat": 37.4859081,
        "fitness_lon": 126.9383899,
        "fitness_type": "운동시설",
        "fitness_name": "봉일스파랜드",
        "distance": 91.54625664599068,
        "walking_time": "약 2분"
      },
      {
        "fitness_lat": 37.48633741,
        "fitness_lon": 126.9395785,
        "fitness_type": "운동시설",
        "fitness_name": "미래가 그려짐",
        "distance": 181.46736222509088,
        "walking_time": "약 3분"
      },
      {
        "fitness_lat": 37.48438657,
        "fitness_lon": 126.9378705,
        "fitness_type": "운동시설",
        "fitness_name": "쿠타(본점)",
        "distance": 221.4968371149038,
        "walking_time": "약 4분"
      },
      {
        "fitness_lat": 37.4859764,
        "fitness_lon": 126.9405053,
        "fitness_type": "운동시설",
        "fitness_name": "엠제이핏 PT",
        "distance": 266.64632351497914,
        "walking_time": "약 4분"
      },
      {
        "fitness_lat": 37.48369573,
        "fitness_lon": 126.9379889,
        "fitness_type": "운동시설",
        "fitness_name": "메이크타임PT",
        "distance": 299.021396615983,
        "walking_time": "약 5분"
      },
      {
        "fitness_lat": 37.48558849,
        "fitness_lon": 126.9340015,
        "fitness_type": "운동시설",
        "fitness_name": "고핏 피트니스",
        "distance": 322.2323665928078,
        "walking_time": "약 5분"
      },
      {
        "fitness_lat": 37.48629672,
        "fitness_lon": 126.9412497,
        "fitness_type": "운동시설",
        "fitness_name": "은천점 스포애니 (주)케이디헬스케어",
        "distance": 328.9796631651422,
        "walking_time": "약 5분"
      },
      {
        "fitness_lat": 37.48327253,
        "fitness_lon": 126.9402662,
        "fitness_type": "운동시설",
        "fitness_name": "핏티",
        "distance": 420.0405130447671,
        "walking_time": "약 7분"
      },
      {
        "fitness_lat": 37.4854854,
        "fitness_lon": 126.9422431,
        "fitness_type": "운동시설",
        "fitness_name": "프리원핏 봉천점",
        "distance": 427.74181820700494,
        "walking_time": "약 7분"
      }
    ],
    "gas_station": [
      {
        "gas_station_lat": 37.48233196,
        "gas_station_lon": 126.9450663,
        "gas_station_type": "주유소",
        "gas_station_name": "시몬주유소",
        "distance": 802.2838831366995,
        "walking_time": "약 12분"
      },
      {
        "gas_station_lat": 37.48041974,
        "gas_station_lon": 126.9306687,
        "gas_station_type": "주유소",
        "gas_station_name": "신관주유소",
        "distance": 895.4669536520606,
        "walking_time": "약 14분"
      },
      {
        "gas_station_lat": 37.49159774,
        "gas_station_lon": 126.927219,
        "gas_station_type": "주유소",
        "gas_station_name": "대양석유㈜보라매주유소",
        "distance": 1079.6475559121295,
        "walking_time": "약 17분"
      },
      {
        "gas_station_lat": 37.49322282,
        "gas_station_lon": 126.9266746,
        "gas_station_type": "주유소",
        "gas_station_name": "㈜엠오티이엔지직영삼화주유소",
        "distance": 1224.0990946038644,
        "walking_time": "약 19분"
      },
      {
        "gas_station_lat": 37.4737677,
        "gas_station_lon": 126.9348256,
        "gas_station_type": "주유소",
        "gas_station_name": "유림주유소",
        "distance": 1420.1892871796963,
        "walking_time": "약 22분"
      }
    ],
    "hospital": [
      {
        "hospital_lat": 37.48640729,
        "hospital_lon": 126.9379271,
        "hospital_type": "병원",
        "hospital_name": "관악이안치과의원",
        "distance": 36.14008904474234,
        "walking_time": "약 1분"
      },
      {
        "hospital_lat": 37.48642557,
        "hospital_lon": 126.9382512,
        "hospital_type": "병원",
        "hospital_name": "은천경희한의원",
        "distance": 64.76066268611403,
        "walking_time": "약 1분"
      },
      {
        "hospital_lat": 37.48639473,
        "hospital_lon": 126.9385584,
        "hospital_type": "병원",
        "hospital_name": "한순기치과의원",
        "distance": 91.52966398601548,
        "walking_time": "약 2분"
      },
      {
        "hospital_lat": 37.48606093,
        "hospital_lon": 126.9391165,
        "hospital_type": "병원",
        "hospital_name": "손이비인후과의원",
        "distance": 144.54548898470082,
        "walking_time": "약 3분"
      },
      {
        "hospital_lat": 37.48641797,
        "hospital_lon": 126.9392389,
        "hospital_type": "병원",
        "hospital_name": "봉천연세가정의학과의원",
        "distance": 151.62775293827053,
        "walking_time": "약 3분"
      },
      {
        "hospital_lat": 37.48641797,
        "hospital_lon": 126.9392389,
        "hospital_type": "병원",
        "hospital_name": "푸른치과의원",
        "distance": 151.62775293827053,
        "walking_time": "약 3분"
      },
      {
        "hospital_lat": 37.48665276,
        "hospital_lon": 126.9392236,
        "hospital_type": "병원",
        "hospital_name": "대추나무한의원",
        "distance": 153.6432593075937,
        "walking_time": "약 3분"
      },
      {
        "hospital_lat": 37.48604415,
        "hospital_lon": 126.939426,
        "hospital_type": "병원",
        "hospital_name": "신동진내과의원",
        "distance": 171.61076658844834,
        "walking_time": "약 3분"
      },
      {
        "hospital_lat": 37.48633741,
        "hospital_lon": 126.9395785,
        "hospital_type": "병원",
        "hospital_name": "365바른정형외과의원",
        "distance": 181.46736222509088,
        "walking_time": "약 3분"
      },
      {
        "hospital_lat": 37.48633741,
        "hospital_lon": 126.9395785,
        "hospital_type": "병원",
        "hospital_name": "김태경치과의원",
        "distance": 181.46736222509088,
        "walking_time": "약 3분"
      }
    ],
    "music_room": [
      {
        "music_room_lat": 37.48652896,
        "music_room_lon": 126.937991,
        "music_room_type": "노래방",
        "music_room_name": "가족 노래연습장",
        "distance": 45.48089664301003,
        "walking_time": "약 1분"
      },
      {
        "music_room_lat": 37.48639473,
        "music_room_lon": 126.9385584,
        "music_room_type": "노래방",
        "music_room_name": "소나타",
        "distance": 91.52966398601548,
        "walking_time": "약 2분"
      },
      {
        "music_room_lat": 37.4859081,
        "music_room_lon": 126.9383899,
        "music_room_type": "노래방",
        "music_room_name": "슈노래연습장",
        "distance": 91.54625664599068,
        "walking_time": "약 2분"
      },
      {
        "music_room_lat": 37.48543342,
        "music_room_lon": 126.9376523,
        "music_room_type": "노래방",
        "music_room_name": "웃음잔치",
        "distance": 103.58759091188644,
        "walking_time": "약 2분"
      },
      {
        "music_room_lat": 37.48635007,
        "music_room_lon": 126.9389662,
        "music_room_type": "노래방",
        "music_room_name": "스타노래연습장",
        "distance": 127.43012797506124,
        "walking_time": "약 2분"
      },
      {
        "music_room_lat": 37.4856008,
        "music_room_lon": 126.938805,
        "music_room_type": "노래방",
        "music_room_name": "봉일",
        "distance": 141.1649769081411,
        "walking_time": "약 3분"
      },
      {
        "music_room_lat": 37.48641797,
        "music_room_lon": 126.9392389,
        "music_room_type": "노래방",
        "music_room_name": "카드OK코인노래연습장",
        "distance": 151.62775293827053,
        "walking_time": "약 3분"
      },
      {
        "music_room_lat": 37.48652076,
        "music_room_lon": 126.9356394,
        "music_room_type": "노래방",
        "music_room_name": "앵콜",
        "distance": 167.07528800103765,
        "walking_time": "약 3분"
      },
      {
        "music_room_lat": 37.48604415,
        "music_room_lon": 126.939426,
        "music_room_type": "노래방",
        "music_room_name": "버즈노래연습장",
        "distance": 171.61076658844834,
        "walking_time": "약 3분"
      },
      {
        "music_room_lat": 37.48474153,
        "music_room_lon": 126.9371233,
        "music_room_type": "노래방",
        "music_room_name": "대흥노래연습장",
        "distance": 183.28990690423564,
        "walking_time": "약 3분"
      }
    ],
    "park": [
      {
        "park_lat": 37.492299,
        "park_lon": 126.9385469,
        "park_type": "공원",
        "park_name": "상도근린공원",
        "distance": 666.6315338656391,
        "walking_time": "약 10분"
      }
    ],
    "park_station": [
      {
        "park_station_lat": 37.48685341,
        "park_station_lon": 126.9331906,
        "park_station_type": "주차장",
        "park_station_name": "봉천복개3 공영주차장",
        "distance": 386.1010754136241,
        "walking_time": "약 6분"
      },
      {
        "park_station_lat": 37.49193146,
        "park_station_lon": 126.9331501,
        "park_station_type": "주차장",
        "park_station_name": "당곡중학교공영 ",
        "distance": 729.8593649697838,
        "walking_time": "약 11분"
      },
      {
        "park_station_lat": 37.49330922,
        "park_station_lon": 126.9336841,
        "park_station_type": "주차장",
        "park_station_name": "빙수골장미",
        "distance": 843.730508510726,
        "walking_time": "약 13분"
      },
      {
        "park_station_lat": 37.48271916,
        "park_station_lon": 126.9275934,
        "park_station_type": "주차장",
        "park_station_name": "서원동제1공영",
        "distance": 965.0369189610066,
        "walking_time": "약 15분"
      },
      {
        "park_station_lat": 37.48462415,
        "park_station_lon": 126.9252587,
        "park_station_type": "주차장",
        "park_station_name": "신림동제2공영",
        "distance": 1099.106200438756,
        "walking_time": "약 17분"
      },
      {
        "park_station_lat": 37.48736362,
        "park_station_lon": 126.9234863,
        "park_station_type": "주차장",
        "park_station_name": "신림동공영주차장",
        "distance": 1243.428907757455,
        "walking_time": "약 19분"
      },
      {
        "park_station_lat": 37.49725268,
        "park_station_lon": 126.9338844,
        "park_station_type": "주차장",
        "park_station_name": "공유) 성대주차장",
        "distance": 1253.0887447337366,
        "walking_time": "약 19분"
      },
      {
        "park_station_lat": 37.490363,
        "park_station_lon": 126.9232398,
        "park_station_type": "주차장",
        "park_station_name": "보라매상업 공영주차장",
        "distance": 1336.4583623522674,
        "walking_time": "약 20분"
      },
      {
        "park_station_lat": 37.4848902,
        "park_station_lon": 126.9221482,
        "park_station_type": "주차장",
        "park_station_name": "남부초등학교",
        "distance": 1366.2896616694638,
        "walking_time": "약 21분"
      },
      {
        "park_station_lat": 37.49978486,
        "park_station_lon": 126.9354957,
        "park_station_type": "주차장",
        "park_station_name": "도화공영주차장",
        "distance": 1503.525506776261,
        "walking_time": "약 23분"
      }
    ],
    "pc_room": [
      {
        "pc_room_lat": 37.4861307788499,
        "pc_room_lon": 126.936759768287,
        "pc_room_type": "PC방",
        "pc_room_name": "키키슬롯",
        "distance": 71.89243881967955,
        "walking_time": "약 2분"
      },
      {
        "pc_room_lat": 37.4863947321423,
        "pc_room_lon": 126.938558361976,
        "pc_room_type": "PC방",
        "pc_room_name": "아센PC방 봉일시장점",
        "distance": 91.52632240200045,
        "walking_time": "약 2분"
      },
      {
        "pc_room_lat": 37.486362897773,
        "pc_room_lon": 126.938850219252,
        "pc_room_type": "PC방",
        "pc_room_name": "강남PC",
        "distance": 117.19340351607488,
        "walking_time": "약 2분"
      },
      {
        "pc_room_lat": 37.4840824266542,
        "pc_room_lon": 126.937097299683,
        "pc_room_type": "PC방",
        "pc_room_name": "에이스피시방",
        "distance": 255.92950186483435,
        "walking_time": "약 4분"
      },
      {
        "pc_room_lat": 37.4841495810369,
        "pc_room_lon": 126.941358237708,
        "pc_room_type": "PC방",
        "pc_room_name": "스타덤PC 봉천점",
        "distance": 418.2634891057452,
        "walking_time": "약 7분"
      },
      {
        "pc_room_lat": 37.4825397376028,
        "pc_room_lon": 126.940613730465,
        "pc_room_type": "PC방",
        "pc_room_name": "3POP PC방",
        "distance": 504.7757181000752,
        "walking_time": "약 8분"
      },
      {
        "pc_room_lat": 37.4848212281323,
        "pc_room_lon": 126.932009130194,
        "pc_room_type": "PC방",
        "pc_room_name": "썬PC",
        "distance": 515.6105730500929,
        "walking_time": "약 8분"
      },
      {
        "pc_room_lat": 37.4850497000506,
        "pc_room_lon": 126.931500008304,
        "pc_room_type": "PC방",
        "pc_room_name": "한수PC",
        "distance": 550.9348163355959,
        "walking_time": "약 9분"
      },
      {
        "pc_room_lat": 37.4852226853822,
        "pc_room_lon": 126.931021236392,
        "pc_room_type": "PC방",
        "pc_room_name": "골드PC게임장",
        "distance": 587.3440471556271,
        "walking_time": "약 9분"
      },
      {
        "pc_room_lat": 37.4866144579726,
        "pc_room_lon": 126.930688324152,
        "pc_room_type": "PC방",
        "pc_room_name": "돼지PC",
        "distance": 603.6220150289498,
        "walking_time": "약 10분"
      }
    ],
    "police_office": [
      {
        "police_office_lat": 37.48600685,
        "police_office_lon": 126.9343644,
        "police_office_type": "경찰소",
        "police_office_name": "당곡지구대",
        "distance": 281.347300515473,
        "walking_time": "약 5분"
      },
      {
        "police_office_lat": 37.48401647,
        "police_office_lon": 126.9333173,
        "police_office_type": "경찰소",
        "police_office_name": "신림지구대",
        "distance": 453.32472109035336,
        "walking_time": "약 7분"
      },
      {
        "police_office_lat": 37.48735272,
        "police_office_lon": 126.9454289,
        "police_office_type": "경찰소",
        "police_office_name": "구암지구대",
        "distance": 706.3366346120677,
        "walking_time": "약 11분"
      },
      {
        "police_office_lat": 37.4738594,
        "police_office_lon": 126.9352631,
        "police_office_type": "경찰소",
        "police_office_name": "관악산지구대",
        "distance": 1404.1397120536287,
        "walking_time": "약 21분"
      },
      {
        "police_office_lat": 37.49856527,
        "police_office_lon": 126.920574,
        "police_office_type": "경찰소",
        "police_office_name": "대방파출소",
        "distance": 2019.3797207351693,
        "walking_time": "약 31분"
      }
    ],
    "post_office": [
      {
        "post_office_lat": 37.48582895,
        "post_office_lon": 126.9416713,
        "post_office_type": "우체국",
        "post_office_name": "서울은천동우체국",
        "distance": 370.8246763420128,
        "walking_time": "약 6분"
      },
      {
        "post_office_lat": 37.48501424,
        "post_office_lon": 126.9331367,
        "post_office_type": "우체국",
        "post_office_name": "서울관악우체국",
        "distance": 414.8297919473056,
        "walking_time": "약 7분"
      },
      {
        "post_office_lat": 37.48227075,
        "post_office_lon": 126.9412539,
        "post_office_type": "우체국",
        "post_office_name": "서울봉천역전우편취급국",
        "distance": 561.3455321143033,
        "walking_time": "약 9분"
      },
      {
        "post_office_lat": 37.48066748,
        "post_office_lon": 126.9284834,
        "post_office_type": "우체국",
        "post_office_name": "서울신림동부우편취급국",
        "distance": 1018.1435242227988,
        "walking_time": "약 16분"
      },
      {
        "post_office_lat": 37.47864491,
        "post_office_lon": 126.947376,
        "post_office_type": "우체국",
        "post_office_name": "서울청룡동우편취급국",
        "distance": 1221.4051504615074,
        "walking_time": "약 19분"
      },
      {
        "post_office_lat": 37.49121134,
        "post_office_lon": 126.9249903,
        "post_office_type": "우체국",
        "post_office_name": "서울보라매우편취급국",
        "distance": 1230.2860597341537,
        "walking_time": "약 19분"
      },
      {
        "post_office_lat": 37.49941236,
        "post_office_lon": 126.9437362,
        "post_office_type": "우체국",
        "post_office_name": "서울동작약수우편취급국",
        "distance": 1551.532892711152,
        "walking_time": "약 24분"
      },
      {
        "post_office_lat": 37.49791931,
        "post_office_lon": 126.9245212,
        "post_office_type": "우체국",
        "post_office_name": "서울동작우체국",
        "distance": 1722.7704100400993,
        "walking_time": "약 26분"
      }
    ],
    "public_health_center": [
      {
        "public_health_center_lat": 37.48784455,
        "public_health_center_lon": 126.932302,
        "public_health_center_type": "보건소",
        "public_health_center_name": "관악구보건지소",
        "distance": 489.2885752349054,
        "walking_time": "약 8분"
      },
      {
        "public_health_center_lat": 37.49961665,
        "public_health_center_lon": 126.9242845,
        "public_health_center_type": "보건소",
        "public_health_center_name": "동작구보건지소",
        "distance": 1880.71249292826,
        "walking_time": "약 29분"
      }
    ],
    "school": [
      {
        "school_lat": 37.4865852040387,
        "school_lon": 126.942679132637,
        "school_type": "초등학교",
        "school_name": "서울은천초등학교",
        "distance": 455.7215758089256,
        "walking_time": "약 7분"
      },
      {
        "school_lat": 37.4878154195732,
        "school_lon": 126.943760849751,
        "school_type": "고등학교",
        "school_name": "서울관광고등학교",
        "distance": 573.7869432183605,
        "walking_time": "약 9분"
      },
      {
        "school_lat": 37.4811981682395,
        "school_lon": 126.937702673305,
        "school_type": "중학교",
        "school_name": "봉림중학교",
        "distance": 574.1075103998055,
        "walking_time": "약 9분"
      },
      {
        "school_lat": 37.4917603442825,
        "school_lon": 126.934246405052,
        "school_type": "고등학교",
        "school_name": "당곡고등학교",
        "distance": 666.4933493156752,
        "walking_time": "약 10분"
      },
      {
        "school_lat": 37.4802012453571,
        "school_lon": 126.934452241482,
        "school_type": "중학교",
        "school_name": "신관중학교",
        "distance": 736.3662688395567,
        "walking_time": "약 11분"
      },
      {
        "school_lat": 37.4810297131995,
        "school_lon": 126.942570541831,
        "school_type": "초등학교",
        "school_name": "서울관악초등학교",
        "distance": 741.3726565568949,
        "walking_time": "약 12분"
      },
      {
        "school_lat": 37.4901681154487,
        "school_lon": 126.930369788237,
        "school_type": "초등학교",
        "school_name": "서울당곡초등학교",
        "distance": 759.99497389874,
        "walking_time": "약 12분"
      },
      {
        "school_lat": 37.4923586311415,
        "school_lon": 126.932678731475,
        "school_type": "중학교",
        "school_name": "당곡중학교",
        "distance": 792.2277509131657,
        "walking_time": "약 12분"
      },
      {
        "school_lat": 37.4892174749954,
        "school_lon": 126.946271723126,
        "school_type": "초등학교",
        "school_name": "서울구암초등학교",
        "distance": 834.860819126278,
        "walking_time": "약 13분"
      },
      {
        "school_lat": 37.493532631943,
        "school_lon": 126.944055659373,
        "school_type": "중학교",
        "school_name": "국사봉중학교",
        "distance": 984.1430375594126,
        "walking_time": "약 15분"
      }
    ],
    "subway": [
      {
        "subway_lat": 37.4825562153548,
        "subway_lon": 126.941495272047,
        "subway_type": "지하철",
        "subway_name": "2호선-봉천역",
        "distance": 549.3032469080708,
        "walking_time": "약 9분"
      },
      {
        "subway_lat": 37.4842176141092,
        "subway_lon": 126.92980331103,
        "subway_type": "지하철",
        "subway_name": "2호선-신림역",
        "distance": 721.4866812036976,
        "walking_time": "약 11분"
      },
      {
        "subway_lat": 37.4997218266711,
        "subway_lon": 126.928222967016,
        "subway_type": "지하철",
        "subway_name": "7호선-신대방삼거리역",
        "distance": 1697.2983464612762,
        "walking_time": "약 26분"
      },
      {
        "subway_lat": 37.499910050321,
        "subway_lon": 126.920489390309,
        "subway_type": "지하철",
        "subway_name": "7호선-보라매역",
        "distance": 2128.026975294879,
        "walking_time": "약 32분"
      }
    ],
    "supermarket": [
      {
        "supermarket_lat": 37.48665276,
        "supermarket_lon": 126.9392236,
        "supermarket_type": "마트",
        "supermarket_name": "GS THE FRESH 관악은천점",
        "distance": 153.6432593075937,
        "walking_time": "약 3분"
      },
      {
        "supermarket_lat": 37.48629672,
        "supermarket_lon": 126.9412497,
        "supermarket_type": "마트",
        "supermarket_name": "(주)이마트에브리데이 봉천동점",
        "distance": 328.9796631651422,
        "walking_time": "약 5분"
      },
      {
        "supermarket_lat": 37.48476254,
        "supermarket_lon": 126.9300965,
        "supermarket_type": "마트",
        "supermarket_name": "르네상스쇼핑몰(주)",
        "distance": 678.8113061402545,
        "walking_time": "약 11분"
      },
      {
        "supermarket_lat": 37.48385134,
        "supermarket_lon": 126.9302345,
        "supermarket_type": "마트",
        "supermarket_name": "타임스트림",
        "distance": 700.8758031447599,
        "walking_time": "약 11분"
      },
      {
        "supermarket_lat": 37.48658496,
        "supermarket_lon": 126.9465719,
        "supermarket_type": "마트",
        "supermarket_name": "봉천현대시장",
        "distance": 798.8927277576781,
        "walking_time": "약 12분"
      },
      {
        "supermarket_lat": 37.48615809,
        "supermarket_lon": 126.9472386,
        "supermarket_type": "마트",
        "supermarket_name": "홈플러스 익스프레스 봉천점",
        "distance": 857.6174316301104,
        "walking_time": "약 13분"
      },
      {
        "supermarket_lat": 37.49049549,
        "supermarket_lon": 126.9249817,
        "supermarket_type": "마트",
        "supermarket_name": "롯데쇼핑(주) 관악점",
        "distance": 1198.223010043881,
        "walking_time": "약 18분"
      },
      {
        "supermarket_lat": 37.4755685,
        "supermarket_lon": 126.9328111,
        "supermarket_type": "마트",
        "supermarket_name": "신림현대종합상가",
        "distance": 1269.8423343474751,
        "walking_time": "약 19분"
      },
      {
        "supermarket_lat": 37.47933913,
        "supermarket_lon": 126.9490155,
        "supermarket_type": "마트",
        "supermarket_name": "(주)지에스리테일 관악점",
        "distance": 1279.783624409076,
        "walking_time": "약 20분"
      },
      {
        "supermarket_lat": 37.49700194,
        "supermarket_lon": 126.9436426,
        "supermarket_type": "마트",
        "supermarket_name": "홈플러스 익스프레스 상도3점",
        "distance": 1300.7947104284372,
        "walking_time": "약 20분"
      }
    ],
    "tax_office": [
      {
        "tax_office_lat": 37.47933644,
        "tax_office_lon": 126.9243295,
        "tax_office_type": "세무서",
        "tax_office_name": "관악세무서",
        "distance": 1401.7350799570218,
        "walking_time": "약 21분"
      }
    ],
    "theater": [
      {
        "theater_lat": 37.4838513393186,
        "theater_lon": 126.930234545397,
        "theater_type": "영화관",
        "theater_name": "롯데시네마 신림",
        "distance": 700.8721584335905,
        "walking_time": "약 11분"
      }
    ]
  }
}