{
  "클러스터_위도": 37.491665,
  "클러스터_경도": 127.145078,
  "클러스터_level": 3.0,
  "facilities": {
    "bus": [
      {
        "bus_lat": 37.49195738,
        "bus_lon": 127.1440918,
        "bus_type": "버스정류장",
        "bus_name": "거여역6번출구",
        "distance": 92.88457805375334,
        "walking_time": "약 2분"
      },
      {
        "bus_lat": 37.492387,
        "bus_lon": 127.143927,
        "bus_type": "버스정류장",
        "bus_name": "거여역7번출구",
        "distance": 129.45040248913287,
        "walking_time": "약 2분"
      },
      {
        "bus_lat": 37.49290375,
        "bus_lon": 127.1456767,
        "bus_type": "버스정류장",
        "bus_name": "거여역5번출구",
        "distance": 147.5232272614458,
        "walking_time": "약 3분"
      },
      {
        "bus_lat": 37.49313922,
        "bus_lon": 127.1456918,
        "bus_type": "버스정류장",
        "bus_name": "거여역4번출구",
        "distance": 172.63896630671275,
        "walking_time": "약 3분"
      },
      {
        "bus_lat": 37.49080385,
        "bus_lon": 127.1433758,
        "bus_type": "버스정류장",
        "bus_name": "체육문화회관",
        "distance": 178.1102560569,
        "walking_time": "약 3분"
      },
      {
        "bus_lat": 37.49046389,
        "bus_lon": 127.1435753,
        "bus_type": "버스정류장",
        "bus_name": "거여아파트단지앞",
        "distance": 188.18832576277248,
        "walking_time": "약 3분"
      },
      {
        "bus_lat": 37.49428075,
        "bus_lon": 127.1450942,
        "bus_type": "버스정류장",
        "bus_name": "거여역3번출구.현대2차아파트",
        "distance": 290.86164094004494,
        "walking_time": "약 5분"
      },
      {
        "bus_lat": 37.49431196,
        "bus_lon": 127.1447634,
        "bus_type": "버스정류장",
        "bus_name": "거여역2번출구",
        "distance": 295.63432577850944,
        "walking_time": "약 5분"
      },
      {
        "bus_lat": 37.49381766,
        "bus_lon": 127.1424783,
        "bus_type": "버스정류장",
        "bus_name": "거여역현대아파트",
        "distance": 331.513806910138,
        "walking_time": "약 5분"
      },
      {
        "bus_lat": 37.49405409,
        "bus_lon": 127.1426662,
        "bus_type": "버스정류장",
        "bus_name": "거여역1번출구",
        "distance": 340.365244929645,
        "walking_time": "약 6분"
      }
    ],
    "community_center": [
      {
        "community_center_lat": 37.49354898,
        "community_center_lon": 127.1468223,
        "community_center_type": "주민센터",
        "community_center_name": "거여2동 자치회관",
        "distance": 259.93916573847804,
        "walking_time": "약 4분"
      },
      {
        "community_center_lat": 37.49692999,
        "community_center_lon": 127.1433145,
        "community_center_type": "주민센터",
        "community_center_name": "거여1동 자치회관",
        "distance": 605.7607285117347,
        "walking_time": "약 10분"
      },
      {
        "community_center_lat": 37.49600092,
        "community_center_lon": 127.149952,
        "community_center_type": "주민센터",
        "community_center_name": "마천1동 자치회관",
        "distance": 646.0305292228664,
        "walking_time": "약 10분"
      },
      {
        "community_center_lat": 37.49677988,
        "community_center_lon": 127.1485638,
        "community_center_type": "주민센터",
        "community_center_name": "마천2동 자치회관",
        "distance": 646.5677697841497,
        "walking_time": "약 10분"
      },
      {
        "community_center_lat": 37.48114953,
        "community_center_lon": 127.1439356,
        "community_center_type": "주민센터",
        "community_center_name": "위례동 자치회관",
        "distance": 1173.6035160969743,
        "walking_time": "약 18분"
      },
      {
        "community_center_lat": 37.48696583,
        "community_center_lon": 127.1324383,
        "community_center_type": "주민센터",
        "community_center_name": "장지동 자치회관",
        "distance": 1231.5394522905883,
        "walking_time": "약 19분"
      }
    ],
    "convenience_store": [
      {
        "convenience_store_lat": 37.49195738,
        "convenience_store_lon": 127.1445354,
        "convenience_store_type": "편의점",
        "convenience_store_name": "세븐일레븐 송파거여점",
        "distance": 57.8677629335881,
        "walking_time": "약 1분"
      },
      {
        "convenience_store_lat": 37.49240116,
        "convenience_store_lon": 127.1469163,
        "convenience_store_type": "편의점",
        "convenience_store_name": "세븐일레븐 거여쌍용점",
        "distance": 181.6728602560009,
        "walking_time": "약 3분"
      },
      {
        "convenience_store_lat": 37.48999231,
        "convenience_store_lon": 127.1447303,
        "convenience_store_type": "편의점",
        "convenience_store_name": "CU 송파거여점",
        "distance": 188.5074828959657,
        "walking_time": "약 3분"
      },
      {
        "convenience_store_lat": 37.49320733,
        "convenience_store_lon": 127.1440323,
        "convenience_store_type": "편의점",
        "convenience_store_name": "세븐일레븐 거여역점",
        "distance": 194.73953659556776,
        "walking_time": "약 3분"
      },
      {
        "convenience_store_lat": 37.49248964,
        "convenience_store_lon": 127.1475659,
        "convenience_store_type": "편의점",
        "convenience_store_name": "GS25 거여우리점",
        "distance": 237.88127445913665,
        "walking_time": "약 4분"
      },
      {
        "convenience_store_lat": 37.4941352,
        "convenience_store_lon": 127.1442441,
        "convenience_store_type": "편의점",
        "convenience_store_name": "세븐일레븐 거여센터점",
        "distance": 284.35601551876846,
        "walking_time": "약 5분"
      },
      {
        "convenience_store_lat": 37.49290941,
        "convenience_store_lon": 127.1419818,
        "convenience_store_type": "편의점",
        "convenience_store_name": "미니스톱 송파거여점",
        "distance": 306.2125051019947,
        "walking_time": "약 5분"
      },
      {
        "convenience_store_lat": 37.48846422,
        "convenience_store_lon": 127.1461865,
        "convenience_store_type": "편의점",
        "convenience_store_name": "CU 거여거원점",
        "distance": 369.1035047492596,
        "walking_time": "약 6분"
      },
      {
        "convenience_store_lat": 37.49267886,
        "convenience_store_lon": 127.1490686,
        "convenience_store_type": "편의점",
        "convenience_store_name": "CU 거여청솔점",
        "distance": 369.6840855730372,
        "walking_time": "약 6분"
      },
      {
        "convenience_store_lat": 37.49484088,
        "convenience_store_lon": 127.1428966,
        "convenience_store_type": "편의점",
        "convenience_store_name": "GS25 거여센타점",
        "distance": 402.1784456640067,
        "walking_time": "약 7분"
      }
    ],
    "daycare": [
      {
        "daycare_lat": 37.49091479,
        "daycare_lon": 127.1445653,
        "daycare_type": "어린이집",
        "daycare_name": "거여새싹어린이집",
        "distance": 94.8943680090214,
        "walking_time": "약 2분"
      },
      {
        "daycare_lat": 37.49089535,
        "daycare_lon": 127.1445015,
        "daycare_type": "어린이집",
        "daycare_name": "새싹어린이집",
        "distance": 99.5549017647889,
        "walking_time": "약 2분"
      },
      {
        "daycare_lat": 37.49089535,
        "daycare_lon": 127.1445015,
        "daycare_type": "어린이집",
        "daycare_name": "옥토어린이집",
        "distance": 99.5549017647889,
        "walking_time": "약 2분"
      },
      {
        "daycare_lat": 37.49139743,
        "daycare_lon": 127.1462712,
        "daycare_type": "어린이집",
        "daycare_name": "혜윰어린이집",
        "distance": 109.39590718318352,
        "walking_time": "약 2분"
      },
      {
        "daycare_lat": 37.49139379761029,
        "daycare_lon": 127.1462928675852,
        "daycare_type": "어린이집",
        "daycare_name": "거원어린이집",
        "distance": 111.34544107998556,
        "walking_time": "약 2분"
      },
      {
        "daycare_lat": 37.49161424,
        "daycare_lon": 127.146349,
        "daycare_type": "어린이집",
        "daycare_name": "요엘행복한어린이집",
        "distance": 112.27814894669376,
        "walking_time": "약 2분"
      },
      {
        "daycare_lat": 37.49217183,
        "daycare_lon": 127.143338,
        "daycare_type": "어린이집",
        "daycare_name": "거여열린어린이집",
        "distance": 163.53176661990153,
        "walking_time": "약 3분"
      },
      {
        "daycare_lat": 37.49033961,
        "daycare_lon": 127.1461498,
        "daycare_type": "어린이집",
        "daycare_name": "에코어린이집",
        "distance": 175.10536953447877,
        "walking_time": "약 3분"
      },
      {
        "daycare_lat": 37.49033961,
        "daycare_lon": 127.1461498,
        "daycare_type": "어린이집",
        "daycare_name": "코코어린이집",
        "distance": 175.10536953447877,
        "walking_time": "약 3분"
      },
      {
        "daycare_lat": 37.49276768,
        "daycare_lon": 127.1467339,
        "daycare_type": "어린이집",
        "daycare_name": "안데르센어린이집",
        "distance": 190.7278873547568,
        "walking_time": "약 3분"
      }
    ],
    "education": [
      {
        "education_lat": 37.49354898,
        "education_lon": 127.1468223,
        "education_type": "도서관",
        "education_name": "거마도서관",
        "distance": 259.93916573847804,
        "walking_time": "약 4분"
      },
      {
        "education_lat": 37.49234687,
        "education_lon": 127.1566367,
        "education_type": "도서관",
        "education_name": "소나무언덕3호도서관",
        "distance": 1022.5961817530645,
        "walking_time": "약 16분"
      },
      {
        "education_lat": 37.48114953,
        "education_lon": 127.1439356,
        "education_type": "도서관",
        "education_name": "송파위례도서관",
        "distance": 1173.6035160969743,
        "walking_time": "약 18분"
      },
      {
        "education_lat": 37.49999535,
        "education_lon": 127.1348515,
        "education_type": "도서관",
        "education_name": "서울특별시교육청 송파도서관",
        "distance": 1293.051899433308,
        "walking_time": "약 20분"
      },
      {
        "education_lat": 37.48083422,
        "education_lon": 127.1304779,
        "education_type": "도서관",
        "education_name": "송파글마루도서관",
        "distance": 1763.4897554136323,
        "walking_time": "약 27분"
      }
    ],
    "fitness": [
      {
        "fitness_lat": 37.49213941,
        "fitness_lon": 127.1442945,
        "fitness_type": "운동시설",
        "fitness_name": "탈로스 역도 전문 체육관",
        "distance": 86.95455271319491,
        "walking_time": "약 2분"
      },
      {
        "fitness_lat": 37.49240337,
        "fitness_lon": 127.1443924,
        "fitness_type": "운동시설",
        "fitness_name": "AR휘트니스",
        "distance": 101.97888309146292,
        "walking_time": "약 2분"
      },
      {
        "fitness_lat": 37.49286218,
        "fitness_lon": 127.1450418,
        "fitness_type": "운동시설",
        "fitness_name": "크로스핏거여 앤 탑스포츠클럽",
        "distance": 133.15864886935273,
        "walking_time": "약 2분"
      },
      {
        "fitness_lat": 37.49323439,
        "fitness_lon": 127.1451824,
        "fitness_type": "운동시설",
        "fitness_name": "커브스거여클럽",
        "distance": 174.75111518281545,
        "walking_time": "약 3분"
      },
      {
        "fitness_lat": 37.49009169,
        "fitness_lon": 127.1443682,
        "fitness_type": "운동시설",
        "fitness_name": "엠브이엠 거여역점",
        "distance": 185.81495511847092,
        "walking_time": "약 3분"
      },
      {
        "fitness_lat": 37.49309696,
        "fitness_lon": 127.1465182,
        "fitness_type": "운동시설",
        "fitness_name": "더블짐휘트니스",
        "distance": 203.7108658579018,
        "walking_time": "약 4분"
      },
      {
        "fitness_lat": 37.49357107,
        "fitness_lon": 127.145422,
        "fitness_type": "운동시설",
        "fitness_name": "민스맞춤운동센터",
        "distance": 214.107249742786,
        "walking_time": "약 4분"
      },
      {
        "fitness_lat": 37.49366338,
        "fitness_lon": 127.1451667,
        "fitness_type": "운동시설",
        "fitness_name": "제로짐",
        "distance": 222.3474727646303,
        "walking_time": "약 4분"
      },
      {
        "fitness_lat": 37.48991126,
        "fitness_lon": 127.1435904,
        "fitness_type": "운동시설",
        "fitness_name": "피티인거여",
        "distance": 235.0609677866356,
        "walking_time": "약 4분"
      },
      {
        "fitness_lat": 37.49308098,
        "fitness_lon": 127.1471266,
        "fitness_type": "운동시설",
        "fitness_name": "크로스핏 에이블 거여",
        "distance": 239.70234665377225,
        "walking_time": "약 4분"
      }
    ],
    "gas_station": [
      {
        "gas_station_lat": 37.48781616,
        "gas_station_lon": 127.1426941,
        "gas_station_type": "주유소",
        "gas_station_name": "위례제일주유소(셀프)",
        "distance": 476.8625698965356,
        "walking_time": "약 8분"
      },
      {
        "gas_station_lat": 37.49557765,
        "gas_station_lon": 127.1403238,
        "gas_station_type": "주유소",
        "gas_station_name": "정직한 주유소 (셀프)",
        "distance": 604.326139615155,
        "walking_time": "약 10분"
      },
      {
        "gas_station_lat": 37.49321423,
        "gas_station_lon": 127.1363979,
        "gas_station_type": "주유소",
        "gas_station_name": "서울주유소",
        "distance": 784.9450871732345,
        "walking_time": "약 12분"
      },
      {
        "gas_station_lat": 37.50004786,
        "gas_station_lon": 127.1431357,
        "gas_station_type": "주유소",
        "gas_station_name": "대성주유소",
        "distance": 947.7505118116648,
        "walking_time": "약 15분"
      },
      {
        "gas_station_lat": 37.50012695,
        "gas_station_lon": 127.1478376,
        "gas_station_type": "주유소",
        "gas_station_name": "상아주유소 (셀프)",
        "distance": 971.9118810913968,
        "walking_time": "약 15분"
      },
      {
        "gas_station_lat": 37.5019415,
        "gas_station_lon": 127.1379916,
        "gas_station_type": "주유소",
        "gas_station_name": "(주)남경석유 세영주유소",
        "distance": 1302.530067051185,
        "walking_time": "약 20분"
      },
      {
        "gas_station_lat": 37.50452233,
        "gas_station_lon": 127.1383827,
        "gas_station_type": "주유소",
        "gas_station_name": "(주)유진주유소",
        "distance": 1546.8766718265372,
        "walking_time": "약 24분"
      },
      {
        "gas_station_lat": 37.50973796,
        "gas_station_lon": 127.1318627,
        "gas_station_type": "주유소",
        "gas_station_name": "올림픽셀프주유소 (셀프)",
        "distance": 2323.28889653171,
        "walking_time": "약 35분"
      }
    ],
    "hospital": [
      {
        "hospital_lat": 37.49213941,
        "hospital_lon": 127.1442945,
        "hospital_type": "병원",
        "hospital_name": "서울열린치과의원",
        "distance": 86.95455271319491,
        "walking_time": "약 2분"
      },
      {
        "hospital_lat": 37.49240337,
        "hospital_lon": 127.1443924,
        "hospital_type": "병원",
        "hospital_name": "단단치과의원",
        "distance": 101.97888309146292,
        "walking_time": "약 2분"
      },
      {
        "hospital_lat": 37.49263383,
        "hospital_lon": 127.144484,
        "hospital_type": "병원",
        "hospital_name": "거여경희한의원",
        "distance": 119.79965135089098,
        "walking_time": "약 2분"
      },
      {
        "hospital_lat": 37.49263383,
        "hospital_lon": 127.144484,
        "hospital_type": "병원",
        "hospital_name": "김철우내과의원",
        "distance": 119.79965135089098,
        "walking_time": "약 2분"
      },
      {
        "hospital_lat": 37.49263383,
        "hospital_lon": 127.144484,
        "hospital_type": "병원",
        "hospital_name": "서울안과의원",
        "distance": 119.79965135089098,
        "walking_time": "약 2분"
      },
      {
        "hospital_lat": 37.49263383,
        "hospital_lon": 127.144484,
        "hospital_type": "병원",
        "hospital_name": "성모행복정신건강의학과의원",
        "distance": 119.79965135089098,
        "walking_time": "약 2분"
      },
      {
        "hospital_lat": 37.49263383,
        "hospital_lon": 127.144484,
        "hospital_type": "병원",
        "hospital_name": "코코이비인후과의원",
        "distance": 119.79965135089098,
        "walking_time": "약 2분"
      },
      {
        "hospital_lat": 37.49272965,
        "hospital_lon": 127.1455473,
        "hospital_type": "병원",
        "hospital_name": "경희정한의원",
        "distance": 125.4154220690098,
        "walking_time": "약 2분"
      },
      {
        "hospital_lat": 37.49272965,
        "hospital_lon": 127.1455473,
        "hospital_type": "병원",
        "hospital_name": "나라한의원",
        "distance": 125.4154220690098,
        "walking_time": "약 2분"
      },
      {
        "hospital_lat": 37.49272965,
        "hospital_lon": 127.1455473,
        "hospital_type": "병원",
        "hospital_name": "아산본정형외과의원",
        "distance": 125.4154220690098,
        "walking_time": "약 2분"
      }
    ],
    "music_room": [
      {
        "music_room_lat": 37.4928541,
        "music_room_lon": 127.1446474,
        "music_room_type": "노래방",
        "music_room_name": "텐코인코인노래연습장",
        "distance": 137.57135130909472,
        "walking_time": "약 3분"
      },
      {
        "music_room_lat": 37.49321291,
        "music_room_lon": 127.1448489,
        "music_room_type": "노래방",
        "music_room_name": "Kstar 코인노래연습장",
        "distance": 173.30248384659336,
        "walking_time": "약 3분"
      },
      {
        "music_room_lat": 37.49299045,
        "music_room_lon": 127.14389,
        "music_room_type": "노래방",
        "music_room_name": "스타노래연습장",
        "distance": 180.85209950260244,
        "walking_time": "약 3분"
      },
      {
        "music_room_lat": 37.49311602,
        "music_room_lon": 127.1463342,
        "music_room_type": "노래방",
        "music_room_name": "수",
        "distance": 195.7439400241584,
        "walking_time": "약 3분"
      },
      {
        "music_room_lat": 37.4935447,
        "music_room_lon": 127.1451096,
        "music_room_type": "노래방",
        "music_room_name": "산들",
        "distance": 209.03169623475668,
        "walking_time": "약 4분"
      },
      {
        "music_room_lat": 37.49306279,
        "music_room_lon": 127.1473344,
        "music_room_type": "노래방",
        "music_room_name": "앵콜",
        "distance": 252.5621058250924,
        "walking_time": "약 4분"
      },
      {
        "music_room_lat": 37.49340028,
        "music_room_lon": 127.1431002,
        "music_room_type": "노래방",
        "music_room_name": "모아노래연습장",
        "distance": 260.15207011447694,
        "walking_time": "약 4분"
      },
      {
        "music_room_lat": 37.49372623,
        "music_room_lon": 127.1435048,
        "music_room_type": "노래방",
        "music_room_name": "일번출구 노래연습장",
        "distance": 267.94830819690134,
        "walking_time": "약 4분"
      },
      {
        "music_room_lat": 37.49395542,
        "music_room_lon": 127.1438995,
        "music_room_type": "노래방",
        "music_room_name": "엔젤노래연습장",
        "distance": 275.089040072217,
        "walking_time": "약 5분"
      },
      {
        "music_room_lat": 37.49275511,
        "music_room_lon": 127.1479001,
        "music_room_type": "노래방",
        "music_room_name": "영",
        "distance": 276.9213483642801,
        "walking_time": "약 5분"
      }
    ],
    "park": [
      {
        "park_lat": 37.4957083,
        "park_lon": 127.1387,
        "park_type": "공원",
        "park_name": "장지근린공원",
        "distance": 720.2503316708867,
        "walking_time": "약 11분"
      },
      {
        "park_lat": 37.5005173,
        "park_lon": 127.1586644,
        "park_type": "공원",
        "park_name": "천마근린공원",
        "distance": 1550.9928544708291,
        "walking_time": "약 24분"
      },
      {
        "park_lat": 37.5038715,
        "park_lon": 127.1323957,
        "park_type": "공원",
        "park_name": "오금근린공원",
        "distance": 1758.9876966053762,
        "walking_time": "약 27분"
      }
    ],
    "park_station": [
      {
        "park_station_lat": 37.493986,
        "park_station_lon": 127.146035,
        "park_station_type": "주차장",
        "park_station_name": "거여동 거주자상생주차장",
        "distance": 271.5432894225213,
        "walking_time": "약 5분"
      },
      {
        "park_station_lat": 37.49224535,
        "park_station_lon": 127.150374,
        "park_station_type": "주차장",
        "park_station_name": "거여동",
        "distance": 471.6820963310841,
        "walking_time": "약 8분"
      },
      {
        "park_station_lat": 37.49613731,
        "park_station_lon": 127.1498317,
        "park_station_type": "주차장",
        "park_station_name": "마천동3",
        "distance": 650.5337025999537,
        "walking_time": "약 10분"
      },
      {
        "park_station_lat": 37.49653744,
        "park_station_lon": 127.1501866,
        "park_station_type": "주차장",
        "park_station_name": "송파주차장",
        "distance": 704.7466272365352,
        "walking_time": "약 11분"
      },
      {
        "park_station_lat": 37.49729007,
        "park_station_lon": 127.1409581,
        "park_station_type": "주차장",
        "park_station_name": "송파구 거여동 11-1",
        "distance": 723.4195546185298,
        "walking_time": "약 11분"
      },
      {
        "park_station_lat": 37.491055,
        "park_station_lon": 127.1348718,
        "park_station_type": "주차장",
        "park_station_name": "장지동공영",
        "distance": 903.01420236176,
        "walking_time": "약 14분"
      },
      {
        "park_station_lat": 37.49199658,
        "park_station_lon": 127.1553897,
        "park_station_type": "주차장",
        "park_station_name": "송파구 마천동 376-31",
        "distance": 910.5121825460068,
        "walking_time": "약 14분"
      },
      {
        "park_station_lat": 37.49118682,
        "park_station_lon": 127.134715,
        "park_station_type": "주차장",
        "park_station_name": "문정 공영주차장",
        "distance": 915.8411394540308,
        "walking_time": "약 14분"
      },
      {
        "park_station_lat": 37.49978377,
        "park_station_lon": 127.1429216,
        "park_station_type": "주차장",
        "park_station_name": "06월 28일",
        "distance": 922.5933198664356,
        "walking_time": "약 14분"
      },
      {
        "park_station_lat": 37.50020877,
        "park_station_lon": 127.1433733,
        "park_station_type": "주차장",
        "park_station_name": "송파구 마천동 27-3",
        "distance": 961.8539209235928,
        "walking_time": "약 15분"
      }
    ],
    "pc_room": [
      {
        "pc_room_lat": 37.493062789198,
        "pc_room_lon": 127.147334414767,
        "pc_room_type": "PC방",
        "pc_room_name": "3POP PC방",
        "distance": 252.56307785538647,
        "walking_time": "약 4분"
      },
      {
        "pc_room_lat": 37.4939943343576,
        "pc_room_lon": 127.143012725972,
        "pc_room_type": "PC방",
        "pc_room_name": "아이팝",
        "distance": 316.6805415913138,
        "walking_time": "약 5분"
      },
      {
        "pc_room_lat": 37.4943492306914,
        "pc_room_lon": 127.142349617166,
        "pc_room_type": "PC방",
        "pc_room_name": "유니넷 PC방 거여동점",
        "distance": 383.4426464275034,
        "walking_time": "약 6분"
      },
      {
        "pc_room_lat": 37.4975066077838,
        "pc_room_lon": 127.145982383873,
        "pc_room_type": "PC방",
        "pc_room_name": "PC헤카",
        "distance": 654.439123394407,
        "walking_time": "약 10분"
      },
      {
        "pc_room_lat": 37.493672415267,
        "pc_room_lon": 127.152163901234,
        "pc_room_type": "PC방",
        "pc_room_name": "상상PC방",
        "distance": 663.8120252621018,
        "walking_time": "약 10분"
      },
      {
        "pc_room_lat": 37.4974574670409,
        "pc_room_lon": 127.147534389311,
        "pc_room_type": "PC방",
        "pc_room_name": "물라PC",
        "distance": 679.5728618497402,
        "walking_time": "약 11분"
      },
      {
        "pc_room_lat": 37.4974748895631,
        "pc_room_lon": 127.148371257876,
        "pc_room_type": "PC방",
        "pc_room_name": "스피드",
        "distance": 708.3570701196896,
        "walking_time": "약 11분"
      },
      {
        "pc_room_lat": 37.4969665742871,
        "pc_room_lon": 127.149631601697,
        "pc_room_type": "PC방",
        "pc_room_name": "제노 PC cafe",
        "distance": 713.379931035919,
        "walking_time": "약 11분"
      },
      {
        "pc_room_lat": 37.4928064116194,
        "pc_room_lon": 127.153106464318,
        "pc_room_type": "PC방",
        "pc_room_name": "디프",
        "distance": 719.6006800584126,
        "walking_time": "약 11분"
      },
      {
        "pc_room_lat": 37.4928064116194,
        "pc_room_lon": 127.153106464318,
        "pc_room_type": "PC방",
        "pc_room_name": "올스타",
        "distance": 719.6006800584126,
        "walking_time": "약 11분"
      }
    ],
    "police_office": [
      {
        "police_office_lat": 37.49702675,
        "police_office_lon": 127.1482101,
        "police_office_type": "경찰소",
        "police_office_name": "마천파출소",
        "distance": 657.1219142248066,
        "walking_time": "약 10분"
      }
    ],
    "post_office": [
      {
        "post_office_lat": 37.48956065,
        "post_office_lon": 127.1425721,
        "post_office_type": "우체국",
        "post_office_name": "서울거여동우체국",
        "distance": 321.9219230964142,
        "walking_time": "약 5분"
      },
      {
        "post_office_lat": 37.49649927,
        "post_office_lon": 127.14981,
        "post_office_type": "우체국",
        "post_office_name": "서울마천동우체국",
        "distance": 680.6185740455967,
        "walking_time": "약 11분"
      },
      {
        "post_office_lat": 37.4958025,
        "post_office_lon": 127.1314297,
        "post_office_type": "우체국",
        "post_office_name": "서울가락극동우편취급국",
        "distance": 1289.010276339762,
        "walking_time": "약 20분"
      }
    ],
    "public_health_center": [
      {
        "public_health_center_lat": 37.48977029,
        "public_health_center_lon": 127.142671,
        "public_health_center_type": "보건소",
        "public_health_center_name": "송파구보건지소",
        "distance": 299.1414356272569,
        "walking_time": "약 5분"
      }
    ],
    "school": [
      {
        "school_lat": 37.4916482412209,
        "school_lon": 127.142085431868,
        "school_type": "고등학교",
        "school_name": "서울인공지능고등학교",
        "distance": 264.0310549140205,
        "walking_time": "약 4분"
      },
      {
        "school_lat": 37.4876385082093,
        "school_lon": 127.144815961872,
        "school_type": "초등학교",
        "school_name": "서울거원초등학교",
        "distance": 448.32197459548433,
        "walking_time": "약 7분"
      },
      {
        "school_lat": 37.4876964764281,
        "school_lon": 127.146542554504,
        "school_type": "중학교",
        "school_name": "거원중학교",
        "distance": 459.8093136980164,
        "walking_time": "약 7분"
      },
      {
        "school_lat": 37.4961862376383,
        "school_lon": 127.143214689204,
        "school_type": "초등학교",
        "school_name": "서울영풍초등학교",
        "distance": 528.9327641727195,
        "walking_time": "약 8분"
      },
      {
        "school_lat": 37.4872591125777,
        "school_lon": 127.150354996473,
        "school_type": "중학교",
        "school_name": "위례솔중학교",
        "distance": 675.8581294724272,
        "walking_time": "약 11분"
      },
      {
        "school_lat": 37.4855916213524,
        "school_lon": 127.1470595726,
        "school_type": "고등학교",
        "school_name": "덕수고등학교",
        "distance": 697.593220806322,
        "walking_time": "약 11분"
      },
      {
        "school_lat": 37.486734037842,
        "school_lon": 127.150753871028,
        "school_type": "초등학교",
        "school_name": "서울위례솔초등학교",
        "distance": 742.5707036243248,
        "walking_time": "약 12분"
      },
      {
        "school_lat": 37.4973626123965,
        "school_lon": 127.139888149341,
        "school_type": "초등학교",
        "school_name": "서울개롱초등학교",
        "distance": 781.6785082094507,
        "walking_time": "약 12분"
      },
      {
        "school_lat": 37.495437509372,
        "school_lon": 127.152704624882,
        "school_type": "초등학교",
        "school_name": "서울마천초등학교",
        "distance": 792.9064651822488,
        "walking_time": "약 12분"
      },
      {
        "school_lat": 37.4975692004431,
        "school_lon": 127.139517839227,
        "school_type": "고등학교",
        "school_name": "보인고등학교",
        "distance": 819.5362388047438,
        "walking_time": "약 13분"
      }
    ],
    "self_laundromat": [
      {
        "self_laundromat_lat": 37.49979152,
        "self_laundromat_lon": 127.1372233,
        "self_laundromat_type": "셀프 빨래방",
        "self_laundromat_name": "셀빨래방 오금점",
        "distance": 1138.7414643811576,
        "walking_time": "약 17분"
      },
      {
        "self_laundromat_lat": 37.49979152,
        "self_laundromat_lon": 127.1372233,
        "self_laundromat_type": "셀프 빨래방",
        "self_laundromat_name": "셀빨래방 오금점",
        "distance": 1138.7414643811576,
        "walking_time": "약 17분"
      },
      {
        "self_laundromat_lat": 37.50268585,
        "self_laundromat_lon": 127.1388139,
        "self_laundromat_type": "셀프 빨래방",
        "self_laundromat_name": "워시피플 셀프빨래방 송파오금동점",
        "distance": 1344.3019223314552,
        "walking_time": "약 21분"
      },
      {
        "self_laundromat_lat": 37.50268585,
        "self_laundromat_lon": 127.1388139,
        "self_laundromat_type": "셀프 빨래방",
        "self_laundromat_name": "워시피플 셀프빨래방 송파오금동점",
        "distance": 1344.3019223314552,
        "walking_time": "약 21분"
      },
      {
        "self_laundromat_lat": 37.50523245,
        "self_laundromat_lon": 127.1336582,
        "self_laundromat_type": "셀프 빨래방",
        "self_laundromat_name": "오금동셀프빨래방",
        "distance": 1814.085021867979,
        "walking_time": "약 28분"
      },
      {
        "self_laundromat_lat": 37.50523245,
        "self_laundromat_lon": 127.1336582,
        "self_laundromat_type": "셀프 빨래방",
        "self_laundromat_name": "오금동셀프빨래방",
        "distance": 1814.085021867979,
        "walking_time": "약 28분"
      }
    ],
    "subway": [
      {
        "subway_lat": 37.4932073280335,
        "subway_lon": 127.144032331306,
        "subway_type": "지하철",
        "subway_name": "5호선-거여역",
        "distance": 194.7380355479512,
        "walking_time": "약 3분"
      },
      {
        "subway_lat": 37.4946515873808,
        "subway_lon": 127.151986088287,
        "subway_type": "지하철",
        "subway_name": "5호선-마천역",
        "distance": 694.0709515347288,
        "walking_time": "약 11분"
      },
      {
        "subway_lat": 37.4978146566399,
        "subway_lon": 127.135158595127,
        "subway_type": "지하철",
        "subway_name": "5호선-개롱역",
        "distance": 1110.6001857493527,
        "walking_time": "약 17분"
      }
    ],
    "supermarket": [
      {
        "supermarket_lat": 37.49272965,
        "supermarket_lon": 127.1455473,
        "supermarket_type": "마트",
        "supermarket_name": "홈플러스(주)익스프레스 거여점",
        "distance": 125.4154220690098,
        "walking_time": "약 2분"
      },
      {
        "supermarket_lat": 37.49704548,
        "supermarket_lon": 127.1472821,
        "supermarket_type": "마트",
        "supermarket_name": "GS THE FRESH 송파시그니처점",
        "distance": 629.089506323713,
        "walking_time": "약 10분"
      },
      {
        "supermarket_lat": 37.49500164,
        "supermarket_lon": 127.1510614,
        "supermarket_type": "마트",
        "supermarket_name": "송파쇼핑센타",
        "distance": 645.2250581181581,
        "walking_time": "약 10분"
      },
      {
        "supermarket_lat": 37.4980668,
        "supermarket_lon": 127.1506865,
        "supermarket_type": "마트",
        "supermarket_name": "마천시장",
        "distance": 866.9212714249664,
        "walking_time": "약 13분"
      },
      {
        "supermarket_lat": 37.4953843,
        "supermarket_lon": 127.1345089,
        "supermarket_type": "마트",
        "supermarket_name": "롯데프레시송파가락가맹점",
        "distance": 1020.0528745076662,
        "walking_time": "약 16분"
      },
      {
        "supermarket_lat": 37.4937245,
        "supermarket_lon": 127.1330492,
        "supermarket_type": "마트",
        "supermarket_name": "(주)지에스리테일 송파가락점",
        "distance": 1085.6742622286647,
        "walking_time": "약 17분"
      }
    ]
  }
}