{
  "클러스터_위도": 37.5992518000916,
  "클러스터_경도": 127.05541420024768,
  "클러스터_level": 3.0,
  "facilities": {
    "bus": [
      {
        "bus_lat": 37.59830395,
        "bus_lon": 127.0569625,
        "bus_type": "버스정류장",
        "bus_name": "외대.경희대후문",
        "distance": 172.37963448742155,
        "walking_time": "약 3분"
      },
      {
        "bus_lat": 37.59831287,
        "bus_lon": 127.0571505,
        "bus_type": "버스정류장",
        "bus_name": "외대.경희대후문",
        "distance": 185.2011820914442,
        "walking_time": "약 3분"
      },
      {
        "bus_lat": 37.59991182,
        "bus_lon": 127.0573676,
        "bus_type": "버스정류장",
        "bus_name": "삼성래미안",
        "distance": 187.0885523169308,
        "walking_time": "약 3분"
      },
      {
        "bus_lat": 37.59888267,
        "bus_lon": 127.057755,
        "bus_type": "버스정류장",
        "bus_name": "33번지앞",
        "distance": 210.2687692822489,
        "walking_time": "약 4분"
      },
      {
        "bus_lat": 37.59674067,
        "bus_lon": 127.0567462,
        "bus_type": "버스정류장",
        "bus_name": "미니슈퍼",
        "distance": 302.8823033051688,
        "walking_time": "약 5분"
      },
      {
        "bus_lat": 37.59667122,
        "bus_lon": 127.0568673,
        "bus_type": "버스정류장",
        "bus_name": "미니슈퍼",
        "distance": 314.20983797025445,
        "walking_time": "약 5분"
      },
      {
        "bus_lat": 37.59565568,
        "bus_lon": 127.0569107,
        "bus_type": "버스정류장",
        "bus_name": "딩동슈퍼",
        "distance": 421.0452617126936,
        "walking_time": "약 7분"
      },
      {
        "bus_lat": 37.59561508,
        "bus_lon": 127.0570001,
        "bus_type": "버스정류장",
        "bus_name": "경희맨션",
        "distance": 427.8420991823643,
        "walking_time": "약 7분"
      },
      {
        "bus_lat": 37.59778874,
        "bus_lon": 127.0601637,
        "bus_type": "버스정류장",
        "bus_name": "새마을금고앞",
        "distance": 448.9456093776268,
        "walking_time": "약 7분"
      },
      {
        "bus_lat": 37.59786079,
        "bus_lon": 127.0602362,
        "bus_type": "버스정류장",
        "bus_name": "새마을금고앞",
        "distance": 452.10123353188106,
        "walking_time": "약 7분"
      }
    ],
    "community_center": [
      {
        "community_center_lat": 37.5978135,
        "community_center_lon": 127.065483,
        "community_center_type": "주민센터",
        "community_center_name": "휘경1동 자치회관",
        "distance": 901.3665420441482,
        "walking_time": "약 14분"
      },
      {
        "community_center_lat": 37.5978135,
        "community_center_lon": 127.065483,
        "community_center_type": "주민센터",
        "community_center_name": "이문1동 자치회관",
        "distance": 901.3665420441482,
        "walking_time": "약 14분"
      },
      {
        "community_center_lat": 37.59080616,
        "community_center_lon": 127.0553779,
        "community_center_type": "주민센터",
        "community_center_name": "회기동 자치회관",
        "distance": 939.1177763097348,
        "walking_time": "약 15분"
      },
      {
        "community_center_lat": 37.60339461,
        "community_center_lon": 127.0651361,
        "community_center_type": "주민센터",
        "community_center_name": "이문2동 자치회관",
        "distance": 972.496115372572,
        "walking_time": "약 15분"
      },
      {
        "community_center_lat": 37.60577914,
        "community_center_lon": 127.0478706,
        "community_center_type": "주민센터",
        "community_center_name": "월곡2동 자치회관",
        "distance": 984.09010877304,
        "walking_time": "약 15분"
      },
      {
        "community_center_lat": 37.59013384,
        "community_center_lon": 127.0685918,
        "community_center_type": "주민센터",
        "community_center_name": "휘경2동 자치회관",
        "distance": 1541.3890353810632,
        "walking_time": "약 24분"
      },
      {
        "community_center_lat": 37.58627625,
        "community_center_lon": 127.0472854,
        "community_center_type": "주민센터",
        "community_center_name": "청량리동 자치회관",
        "distance": 1610.7968158516744,
        "walking_time": "약 25분"
      }
    ],
    "convenience_store": [
      {
        "convenience_store_lat": 37.59925972,
        "convenience_store_lon": 127.0574522,
        "convenience_store_type": "편의점",
        "convenience_store_name": "GS25 외대후레쉬점",
        "distance": 179.54885784224595,
        "walking_time": "약 3분"
      },
      {
        "convenience_store_lat": 37.59863824,
        "convenience_store_lon": 127.0573848,
        "convenience_store_type": "편의점",
        "convenience_store_name": "CU 이문1호점",
        "distance": 186.5338687993124,
        "walking_time": "약 3분"
      },
      {
        "convenience_store_lat": 37.59872541,
        "convenience_store_lon": 127.0576811,
        "convenience_store_type": "편의점",
        "convenience_store_name": "세븐일레븐 이문대화점",
        "distance": 208.1139589711768,
        "walking_time": "약 4분"
      },
      {
        "convenience_store_lat": 37.59679267,
        "convenience_store_lon": 127.0566134,
        "convenience_store_type": "편의점",
        "convenience_store_name": "세븐일레븐 외대미니점",
        "distance": 293.14332971531144,
        "walking_time": "약 5분"
      },
      {
        "convenience_store_lat": 37.59490582,
        "convenience_store_lon": 127.0580862,
        "convenience_store_type": "편의점",
        "convenience_store_name": "CU 외대얄개점",
        "distance": 537.539487685494,
        "walking_time": "약 9분"
      },
      {
        "convenience_store_lat": 37.59594226,
        "convenience_store_lon": 127.0610583,
        "convenience_store_type": "편의점",
        "convenience_store_name": "GS25 외대2점",
        "distance": 618.6176690241404,
        "walking_time": "약 10분"
      },
      {
        "convenience_store_lat": 37.59465182,
        "convenience_store_lon": 127.0607873,
        "convenience_store_type": "편의점",
        "convenience_store_name": "CU 외대이문점",
        "distance": 696.9339945521259,
        "walking_time": "약 11분"
      },
      {
        "convenience_store_lat": 37.60245804,
        "convenience_store_lon": 127.0622778,
        "convenience_store_type": "편의점",
        "convenience_store_name": "GS25 이문삼거리점",
        "distance": 701.9447183769691,
        "walking_time": "약 11분"
      },
      {
        "convenience_store_lat": 37.59377621,
        "convenience_store_lon": 127.0507417,
        "convenience_store_type": "편의점",
        "convenience_store_name": "GS25 경희의료원점",
        "distance": 734.9638042089697,
        "walking_time": "약 11분"
      },
      {
        "convenience_store_lat": 37.59377621,
        "convenience_store_lon": 127.0507417,
        "convenience_store_type": "편의점",
        "convenience_store_name": "세븐일레븐 경희의료원점",
        "distance": 734.9638042089697,
        "walking_time": "약 11분"
      }
    ],
    "daycare": [
      {
        "daycare_lat": 37.59891563,
        "daycare_lon": 127.0541343,
        "daycare_type": "어린이집",
        "daycare_name": "내마음의어린이집",
        "distance": 118.79326847446676,
        "walking_time": "약 2분"
      },
      {
        "daycare_lat": 37.59905168,
        "daycare_lon": 127.0570817,
        "daycare_type": "어린이집",
        "daycare_name": "한국외국어대학교어린이집",
        "distance": 148.5818093456958,
        "walking_time": "약 3분"
      },
      {
        "daycare_lat": 37.598485672505454,
        "daycare_lon": 127.05699152673697,
        "daycare_type": "어린이집",
        "daycare_name": "한빛어린이집",
        "distance": 162.99627580562188,
        "walking_time": "약 3분"
      },
      {
        "daycare_lat": 37.59621368,
        "daycare_lon": 127.0548411,
        "daycare_type": "어린이집",
        "daycare_name": "경희대학교직장어린이집",
        "distance": 341.57586532338354,
        "walking_time": "약 6분"
      },
      {
        "daycare_lat": 37.59802536,
        "daycare_lon": 127.0601067,
        "daycare_type": "어린이집",
        "daycare_name": "보인푸른숲어린이집",
        "distance": 435.3226551220572,
        "walking_time": "약 7분"
      },
      {
        "daycare_lat": 37.59550116,
        "daycare_lon": 127.0584738,
        "daycare_type": "어린이집",
        "daycare_name": "리틀짐랜드어린이집",
        "distance": 496.5812041280686,
        "walking_time": "약 8분"
      },
      {
        "daycare_lat": 37.60088158,
        "daycare_lon": 127.0606642,
        "daycare_type": "어린이집",
        "daycare_name": "무지개방과후어린이집",
        "distance": 496.753447158846,
        "walking_time": "약 8분"
      },
      {
        "daycare_lat": 37.60088158,
        "daycare_lon": 127.0606642,
        "daycare_type": "어린이집",
        "daycare_name": "무지개어린이집",
        "distance": 496.753447158846,
        "walking_time": "약 8분"
      },
      {
        "daycare_lat": 37.60053885273083,
        "daycare_lon": 127.06138828290938,
        "daycare_type": "어린이집",
        "daycare_name": "라그란데은하수어린이집",
        "distance": 545.4197402576107,
        "walking_time": "약 9분"
      },
      {
        "daycare_lat": 37.59535226,
        "daycare_lon": 127.0592367,
        "daycare_type": "어린이집",
        "daycare_name": "짐랜드어린이집",
        "distance": 549.0266105597118,
        "walking_time": "약 9분"
      }
    ],
    "education": [
      {
        "education_lat": 37.59889444,
        "education_lon": 127.0538436,
        "education_type": "도서관",
        "education_name": "이문어린이도서관",
        "distance": 143.96210453955032,
        "walking_time": "약 3분"
      },
      {
        "education_lat": 37.59782541765426,
        "education_lon": 127.0552089479752,
        "education_type": "박물관/기념관",
        "education_name": "경희대학교 자연사박물관",
        "distance": 159.63397553379556,
        "walking_time": "약 3분"
      },
      {
        "education_lat": 37.59713729362956,
        "education_lon": 127.05272856110398,
        "education_type": "박물관/기념관",
        "education_name": "경희대학교 중앙박물관",
        "distance": 333.56453281773304,
        "walking_time": "약 5분"
      },
      {
        "education_lat": 37.59583018210771,
        "education_lon": 127.05421667214812,
        "education_type": "박물관/기념관",
        "education_name": "경희대학교한의학역사박물관",
        "distance": 394.8238880365092,
        "walking_time": "약 6분"
      },
      {
        "education_lat": 37.60500291,
        "education_lon": 127.0507422,
        "education_type": "도서관",
        "education_name": "성북정보도서관",
        "distance": 760.4965381909068,
        "walking_time": "약 12분"
      },
      {
        "education_lat": 37.60497289,
        "education_lon": 127.0505855,
        "education_type": "공연장",
        "education_name": "천장산우화극장",
        "distance": 765.2783720719486,
        "walking_time": "약 12분"
      },
      {
        "education_lat": 37.58996951,
        "education_lon": 127.0472897,
        "education_type": "도서관",
        "education_name": "동대문구정보화도서관",
        "distance": 1256.066338922917,
        "walking_time": "약 19분"
      },
      {
        "education_lat": 37.60411979670712,
        "education_lon": 127.04192972112838,
        "education_type": "도서관",
        "education_name": "월곡꿈그림도서관",
        "distance": 1305.4483672318777,
        "walking_time": "약 20분"
      },
      {
        "education_lat": 37.606552160140886,
        "education_lon": 127.04279179203144,
        "education_type": "박물관/기념관",
        "education_name": "동덕여자대학교 박물관",
        "distance": 1376.7509067503693,
        "walking_time": "약 21분"
      },
      {
        "education_lat": 37.59099289,
        "education_lon": 127.0427032,
        "education_type": "박물관/기념관",
        "education_name": "세종대왕기념관",
        "distance": 1448.2847100041438,
        "walking_time": "약 22분"
      }
    ],
    "electric_gas_station": [
      {
        "electric_gas_station_lat": 37.59849172,
        "electric_gas_station_lon": 127.0618858,
        "electric_gas_station_type": "전기차 충전소",
        "electric_gas_station_name": "이마트 이문점",
        "distance": 576.3776952129155,
        "walking_time": "약 9분"
      },
      {
        "electric_gas_station_lat": 37.60939144,
        "electric_gas_station_lon": 127.0532211,
        "electric_gas_station_type": "전기차 충전소",
        "electric_gas_station_name": "성북벤처빌딩 공영주차장",
        "distance": 1143.9093882820391,
        "walking_time": "약 18분"
      },
      {
        "electric_gas_station_lat": 37.60182774,
        "electric_gas_station_lon": 127.0404635,
        "electric_gas_station_type": "전기차 충전소",
        "electric_gas_station_name": "홈플러스 월곡점",
        "distance": 1347.910964564274,
        "walking_time": "약 21분"
      },
      {
        "electric_gas_station_lat": 37.5841974,
        "electric_gas_station_lon": 127.051145,
        "electric_gas_station_type": "전기차 충전소",
        "electric_gas_station_name": "청량리롯데백화점",
        "distance": 1715.7144000106402,
        "walking_time": "약 26분"
      }
    ],
    "fitness": [
      {
        "fitness_lat": 37.59938424,
        "fitness_lon": 127.0574333,
        "fitness_type": "운동시설",
        "fitness_name": "에스라인 휘트니스",
        "distance": 178.49003112207535,
        "walking_time": "약 3분"
      },
      {
        "fitness_lat": 37.59849172,
        "fitness_lon": 127.0618858,
        "fitness_type": "운동시설",
        "fitness_name": "미라클 휘트니스",
        "distance": 576.3776952129155,
        "walking_time": "약 9분"
      },
      {
        "fitness_lat": 37.59637723,
        "fitness_lon": 127.0609451,
        "fitness_type": "운동시설",
        "fitness_name": "팻다운핏",
        "distance": 582.7596478139683,
        "walking_time": "약 9분"
      },
      {
        "fitness_lat": 37.59383905,
        "fitness_lon": 127.0582469,
        "fitness_type": "운동시설",
        "fitness_name": "헬스파크",
        "distance": 651.5614494514372,
        "walking_time": "약 10분"
      },
      {
        "fitness_lat": 37.59601668,
        "fitness_lon": 127.0617436,
        "fitness_type": "운동시설",
        "fitness_name": "짐구공 외대점",
        "distance": 663.592434511756,
        "walking_time": "약 10분"
      },
      {
        "fitness_lat": 37.59590016,
        "fitness_lon": 127.0619628,
        "fitness_type": "운동시설",
        "fitness_name": "TRUST GYM",
        "distance": 686.8446167625257,
        "walking_time": "약 11분"
      },
      {
        "fitness_lat": 37.59326695,
        "fitness_lon": 127.0522213,
        "fitness_type": "운동시설",
        "fitness_name": "101퍼센트짐",
        "distance": 722.4972418904415,
        "walking_time": "약 11분"
      },
      {
        "fitness_lat": 37.6028323,
        "fitness_lon": 127.0622853,
        "fitness_type": "운동시설",
        "fitness_name": "머슬걸",
        "distance": 724.5201462005126,
        "walking_time": "약 11분"
      },
      {
        "fitness_lat": 37.59266973,
        "fitness_lon": 127.0529207,
        "fitness_type": "운동시설",
        "fitness_name": "회기동헬스학교 경희대학교점",
        "distance": 764.1524149983022,
        "walking_time": "약 12분"
      },
      {
        "fitness_lat": 37.59262596,
        "fitness_lon": 127.057882,
        "fitness_type": "운동시설",
        "fitness_name": "동네 운동장",
        "distance": 768.171292185208,
        "walking_time": "약 12분"
      }
    ],
    "gas_station": [
      {
        "gas_station_lat": 37.60364823,
        "gas_station_lon": 127.0618006,
        "gas_station_type": "주유소",
        "gas_station_name": "㈜경동주유소",
        "distance": 745.337587526732,
        "walking_time": "약 12분"
      },
      {
        "gas_station_lat": 37.60690716,
        "gas_station_lon": 127.0500906,
        "gas_station_type": "주유소",
        "gas_station_name": "㈜신용구도일주유소 화랑로",
        "distance": 971.8791581000175,
        "walking_time": "약 15분"
      },
      {
        "gas_station_lat": 37.60786905,
        "gas_station_lon": 127.0507396,
        "gas_station_type": "주유소",
        "gas_station_name": "지에스칼텍스(주)화랑주유소",
        "distance": 1042.9385438102695,
        "walking_time": "약 16분"
      },
      {
        "gas_station_lat": 37.59754374,
        "gas_station_lon": 127.0680386,
        "gas_station_type": "주유소",
        "gas_station_name": "동서울고속주유소",
        "distance": 1128.3157267618828,
        "walking_time": "약 17분"
      },
      {
        "gas_station_lat": 37.60346378,
        "gas_station_lon": 127.043444,
        "gas_station_type": "주유소",
        "gas_station_name": "장위주유소",
        "distance": 1153.8647759403943,
        "walking_time": "약 18분"
      },
      {
        "gas_station_lat": 37.58842532,
        "gas_station_lon": 127.0573955,
        "gas_station_type": "주유소",
        "gas_station_name": "한영주유소",
        "distance": 1216.4401550754014,
        "walking_time": "약 19분"
      },
      {
        "gas_station_lat": 37.59018314,
        "gas_station_lon": 127.0632353,
        "gas_station_type": "주유소",
        "gas_station_name": "㈜안국에너지 삼원주유소",
        "distance": 1221.341538836506,
        "walking_time": "약 19분"
      },
      {
        "gas_station_lat": 37.59122764,
        "gas_station_lon": 127.0670365,
        "gas_station_type": "주유소",
        "gas_station_name": "㈜파랑에너지",
        "distance": 1358.1696859168517,
        "walking_time": "약 21분"
      },
      {
        "gas_station_lat": 37.58646996,
        "gas_station_lon": 127.0516032,
        "gas_station_type": "주유소",
        "gas_station_name": "대성산업㈜청량리주유소",
        "distance": 1460.400736325198,
        "walking_time": "약 22분"
      },
      {
        "gas_station_lat": 37.58800922,
        "gas_station_lon": 127.042553,
        "gas_station_type": "주유소",
        "gas_station_name": "㈜홍릉주유소",
        "distance": 1687.2536634026696,
        "walking_time": "약 26분"
      }
    ],
    "hospital": [
      {
        "hospital_lat": 37.59750288,
        "hospital_lon": 127.0606852,
        "hospital_type": "병원",
        "hospital_name": "보인내과의원",
        "distance": 503.4537679931013,
        "walking_time": "약 8분"
      },
      {
        "hospital_lat": 37.59788505,
        "hospital_lon": 127.0609121,
        "hospital_type": "병원",
        "hospital_name": "NYU이문치과의원",
        "distance": 507.6490328078759,
        "walking_time": "약 8분"
      },
      {
        "hospital_lat": 37.59788505,
        "hospital_lon": 127.0609121,
        "hospital_type": "병원",
        "hospital_name": "밝은성모안과의원",
        "distance": 507.6490328078759,
        "walking_time": "약 8분"
      },
      {
        "hospital_lat": 37.59788505,
        "hospital_lon": 127.0609121,
        "hospital_type": "병원",
        "hospital_name": "수비뇨기과의원",
        "distance": 507.6490328078759,
        "walking_time": "약 8분"
      },
      {
        "hospital_lat": 37.59840758,
        "hospital_lon": 127.0611819,
        "hospital_type": "병원",
        "hospital_name": "유진여성의원",
        "distance": 516.7325274781804,
        "walking_time": "약 8분"
      },
      {
        "hospital_lat": 37.59863601,
        "hospital_lon": 127.0612855,
        "hospital_type": "병원",
        "hospital_name": "신재호내과의원",
        "distance": 521.7729458093934,
        "walking_time": "약 8분"
      },
      {
        "hospital_lat": 37.59673505,
        "hospital_lon": 127.0606824,
        "hospital_type": "병원",
        "hospital_name": "미체로의원",
        "distance": 541.9740046063519,
        "walking_time": "약 9분"
      },
      {
        "hospital_lat": 37.59552679,
        "hospital_lon": 127.0598725,
        "hospital_type": "병원",
        "hospital_name": "서울현정신건강의학과의원",
        "distance": 570.8261695511736,
        "walking_time": "약 9분"
      },
      {
        "hospital_lat": 37.59849172,
        "hospital_lon": 127.0618858,
        "hospital_type": "병원",
        "hospital_name": "닥터김마취통증의학과의원?한의원",
        "distance": 576.3776952129155,
        "walking_time": "약 9분"
      },
      {
        "hospital_lat": 37.59849172,
        "hospital_lon": 127.0618858,
        "hospital_type": "병원",
        "hospital_name": "닥터김마취통증의학과의원?한의원",
        "distance": 576.3776952129155,
        "walking_time": "약 9분"
      }
    ],
    "music_room": [
      {
        "music_room_lat": 37.59712948,
        "music_room_lon": 127.0609188,
        "music_room_type": "노래방",
        "music_room_name": "리코스타 코인노래연습장",
        "distance": 539.3304609352664,
        "walking_time": "약 9분"
      },
      {
        "music_room_lat": 37.59538187,
        "music_room_lon": 127.0592314,
        "music_room_type": "노래방",
        "music_room_name": "고래고래코인노래연습장",
        "distance": 546.1423176312231,
        "walking_time": "약 9분"
      },
      {
        "music_room_lat": 37.59618322,
        "music_room_lon": 127.060295,
        "music_room_type": "노래방",
        "music_room_name": "외대락코인노래연습장",
        "distance": 548.9341728178977,
        "walking_time": "약 9분"
      },
      {
        "music_room_lat": 37.5956973,
        "music_room_lon": 127.0599621,
        "music_room_type": "노래방",
        "music_room_name": "리코스타코인노래연습장(외대2호점)",
        "distance": 562.813214830181,
        "walking_time": "약 9분"
      },
      {
        "music_room_lat": 37.59623476,
        "music_room_lon": 127.0611603,
        "music_room_type": "노래방",
        "music_room_name": "뉴쟁반",
        "distance": 607.308886409662,
        "walking_time": "약 10분"
      },
      {
        "music_room_lat": 37.59555123,
        "music_room_lon": 127.0626107,
        "music_room_type": "노래방",
        "music_room_name": "노래야노래야코인노래연습장",
        "distance": 755.8475611973867,
        "walking_time": "약 12분"
      },
      {
        "music_room_lat": 37.59269055,
        "music_room_lon": 127.0527132,
        "music_room_type": "노래방",
        "music_room_name": "세븐스타코인노래연습장(경희대점)",
        "distance": 767.4060457461911,
        "walking_time": "약 12분"
      },
      {
        "music_room_lat": 37.59232468,
        "music_room_lon": 127.0526451,
        "music_room_type": "노래방",
        "music_room_name": "스위트",
        "distance": 807.9737705985707,
        "walking_time": "약 13분"
      },
      {
        "music_room_lat": 37.59538586,
        "music_room_lon": 127.0633413,
        "music_room_type": "노래방",
        "music_room_name": "둥근달",
        "distance": 820.0861984175956,
        "walking_time": "약 13분"
      },
      {
        "music_room_lat": 37.5921582,
        "music_room_lon": 127.0526049,
        "music_room_type": "노래방",
        "music_room_name": "딩가",
        "distance": 826.6939250913429,
        "walking_time": "약 13분"
      }
    ],
    "park": [
      {
        "park_lat": 37.6020055,
        "park_lon": 127.0511145,
        "park_type": "공원",
        "park_name": "청량공원",
        "distance": 487.07496684708207,
        "walking_time": "약 8분"
      },
      {
        "park_lat": 37.5812324,
        "park_lon": 127.0641623,
        "park_type": "공원",
        "park_name": "배봉산근린공원",
        "distance": 2146.812489232368,
        "walking_time": "약 33분"
      }
    ],
    "park_station": [
      {
        "park_station_lat": 37.59503649,
        "park_station_lon": 127.062614,
        "park_station_type": "주차장",
        "park_station_name": "외대역주차빌딩 공영",
        "distance": 788.7058664641723,
        "walking_time": "약 12분"
      },
      {
        "park_station_lat": 37.59207318,
        "park_station_lon": 127.0554804,
        "park_station_type": "주차장",
        "park_station_name": "회기동 공영주차장",
        "distance": 798.2474423397347,
        "walking_time": "약 12분"
      },
      {
        "park_station_lat": 37.59548055,
        "park_station_lon": 127.0651718,
        "park_station_type": "주차장",
        "park_station_name": "이경시장 공영주차장",
        "distance": 956.4866243880572,
        "walking_time": "약 15분"
      },
      {
        "park_station_lat": 37.5900855,
        "park_station_lon": 127.0566249,
        "park_station_type": "주차장",
        "park_station_name": "회기역주변 공영주차장",
        "distance": 1024.8125340817512,
        "walking_time": "약 16분"
      },
      {
        "park_station_lat": 37.60939144,
        "park_station_lon": 127.0532211,
        "park_station_type": "주차장",
        "park_station_name": "벤처빌딩",
        "distance": 1143.9093882820391,
        "walking_time": "약 18분"
      },
      {
        "park_station_lat": 37.58804584,
        "park_station_lon": 127.0580993,
        "park_station_type": "주차장",
        "park_station_name": "휘경마을 공영주차장",
        "distance": 1268.3049796725134,
        "walking_time": "약 19분"
      },
      {
        "park_station_lat": 37.58690804,
        "park_station_lon": 127.0620476,
        "park_station_type": "주차장",
        "park_station_name": "배봉공영주차장",
        "distance": 1491.8141444872376,
        "walking_time": "약 23분"
      },
      {
        "park_station_lat": 37.58985933,
        "park_station_lon": 127.0693296,
        "park_station_type": "주차장",
        "park_station_name": "휘경유수지",
        "distance": 1610.5521134173175,
        "walking_time": "약 25분"
      },
      {
        "park_station_lat": 37.58909598,
        "park_station_lon": 127.0690624,
        "park_station_type": "주차장",
        "park_station_name": "견인보관소",
        "distance": 1649.6135223336744,
        "walking_time": "약 25분"
      },
      {
        "park_station_lat": 37.58918427,
        "park_station_lon": 127.0696973,
        "park_station_type": "주차장",
        "park_station_name": "휘경유수지 공영주차장",
        "distance": 1684.281587467112,
        "walking_time": "약 26분"
      }
    ],
    "pc_room": [
      {
        "pc_room_lat": 37.5983004756761,
        "pc_room_lon": 127.056800748936,
        "pc_room_type": "PC방",
        "pc_room_name": "3POP PC방",
        "distance": 161.59136275214453,
        "walking_time": "약 3분"
      },
      {
        "pc_room_lat": 37.5986382449798,
        "pc_room_lon": 127.057384751368,
        "pc_room_type": "PC방",
        "pc_room_name": "리얼PC",
        "distance": 186.5296786563489,
        "walking_time": "약 3분"
      },
      {
        "pc_room_lat": 37.5967350539561,
        "pc_room_lon": 127.060682416152,
        "pc_room_type": "PC방",
        "pc_room_name": "VRIZ PC CAFE",
        "distance": 541.9749960826152,
        "walking_time": "약 9분"
      },
      {
        "pc_room_lat": 37.5953818714405,
        "pc_room_lon": 127.05923135853,
        "pc_room_type": "PC방",
        "pc_room_name": "1% PC아레나",
        "distance": 546.1399416376535,
        "walking_time": "약 9분"
      },
      {
        "pc_room_lat": 37.5950014960546,
        "pc_room_lon": 127.059005156761,
        "pc_room_type": "PC방",
        "pc_room_name": "제너스PC 외대점",
        "distance": 568.7289128727598,
        "walking_time": "약 9분"
      },
      {
        "pc_room_lat": 37.5961287575383,
        "pc_room_lon": 127.061416705231,
        "pc_room_type": "PC방",
        "pc_room_name": "아이센스리그PC 외대점",
        "distance": 632.6560975582416,
        "walking_time": "약 10분"
      },
      {
        "pc_room_lat": 37.5957907777139,
        "pc_room_lon": 127.062480944175,
        "pc_room_type": "PC방",
        "pc_room_name": "해리PC방",
        "distance": 731.9340961674209,
        "walking_time": "약 11분"
      },
      {
        "pc_room_lat": 37.5921664231806,
        "pc_room_lon": 127.051733055169,
        "pc_room_type": "PC방",
        "pc_room_name": "에이플 PC CAFE",
        "distance": 852.0006960918189,
        "walking_time": "약 13분"
      },
      {
        "pc_room_lat": 37.5918832479684,
        "pc_room_lon": 127.051923309488,
        "pc_room_type": "PC방",
        "pc_room_name": "GEEK STAR PC CAFE",
        "distance": 875.1690820138494,
        "walking_time": "약 14분"
      },
      {
        "pc_room_lat": 37.5918420916189,
        "pc_room_lon": 127.051674744477,
        "pc_room_type": "PC방",
        "pc_room_name": "EXIT PC CAFE",
        "distance": 887.3509237290015,
        "walking_time": "약 14분"
      }
    ],
    "police_office": [
      {
        "police_office_lat": 37.59108473,
        "police_office_lon": 127.0518493,
        "police_office_type": "경찰소",
        "police_office_name": "회기파출소",
        "distance": 960.9165169028972,
        "walking_time": "약 15분"
      },
      {
        "police_office_lat": 37.60895875,
        "police_office_lon": 127.0552686,
        "police_office_type": "경찰소",
        "police_office_name": "석관파출소",
        "distance": 1079.4397911024807,
        "walking_time": "약 17분"
      },
      {
        "police_office_lat": 37.59648386,
        "police_office_lon": 127.0681153,
        "police_office_type": "경찰소",
        "police_office_name": "이문지구대",
        "distance": 1160.5376440262278,
        "walking_time": "약 18분"
      },
      {
        "police_office_lat": 37.58637309,
        "police_office_lon": 127.0542292,
        "police_office_type": "경찰소",
        "police_office_name": "전농2파출소",
        "distance": 1435.8482020336337,
        "walking_time": "약 22분"
      },
      {
        "police_office_lat": 37.58410673,
        "police_office_lon": 127.0452724,
        "police_office_type": "경찰소",
        "police_office_name": "청량리파출소",
        "distance": 1906.4425234253388,
        "walking_time": "약 29분"
      },
      {
        "police_office_lat": 37.58556267,
        "police_office_lon": 127.0420264,
        "police_office_type": "경찰소",
        "police_office_name": "제기파출소",
        "distance": 1925.7087241942431,
        "walking_time": "약 29분"
      },
      {
        "police_office_lat": 37.58467452,
        "police_office_lon": 127.0680238,
        "police_office_type": "경찰소",
        "police_office_name": "휘경파출소",
        "distance": 1965.125676509481,
        "walking_time": "약 30분"
      }
    ],
    "post_office": [
      {
        "post_office_lat": 37.59829668,
        "post_office_lon": 127.0579424,
        "post_office_type": "우체국",
        "post_office_name": "한국외국어대학교우편취급국",
        "distance": 246.75910323899492,
        "walking_time": "약 4분"
      },
      {
        "post_office_lat": 37.59853967,
        "post_office_lon": 127.0611615,
        "post_office_type": "우체국",
        "post_office_name": "서울이문동우체국",
        "distance": 512.4909443595911,
        "walking_time": "약 8분"
      },
      {
        "post_office_lat": 37.59394914,
        "post_office_lon": 127.054891,
        "post_office_type": "우체국",
        "post_office_name": "경희대학교우편취급국",
        "distance": 591.4279475629187,
        "walking_time": "약 9분"
      },
      {
        "post_office_lat": 37.59032721,
        "post_office_lon": 127.0581584,
        "post_office_type": "우체국",
        "post_office_name": "서울휘경동우체국",
        "distance": 1021.3974033281112,
        "walking_time": "약 16분"
      },
      {
        "post_office_lat": 37.60876795,
        "post_office_lon": 127.0524242,
        "post_office_type": "우체국",
        "post_office_name": "서울석관동우체국",
        "distance": 1090.4385367317475,
        "walking_time": "약 17분"
      },
      {
        "post_office_lat": 37.6061912,
        "post_office_lon": 127.0405704,
        "post_office_type": "우체국",
        "post_office_name": "서울월곡1동우편취급국",
        "distance": 1518.3568903225462,
        "walking_time": "약 23분"
      },
      {
        "post_office_lat": 37.58257758,
        "post_office_lon": 127.0599881,
        "post_office_type": "우체국",
        "post_office_name": "서울시립대학교우편취급국",
        "distance": 1897.3814855114545,
        "walking_time": "약 29분"
      },
      {
        "post_office_lat": 37.58129117,
        "post_office_lon": 127.0451456,
        "post_office_type": "우체국",
        "post_office_name": "서울청량리우체국",
        "distance": 2192.5182249926315,
        "walking_time": "약 33분"
      }
    ],
    "school": [
      {
        "school_lat": 37.5939491407769,
        "school_lon": 127.054890960564,
        "school_type": "고등학교",
        "school_name": "경희고등학교",
        "distance": 591.4281322415413,
        "walking_time": "약 9분"
      },
      {
        "school_lat": 37.5939491407769,
        "school_lon": 127.054890960564,
        "school_type": "고등학교",
        "school_name": "경희여자고등학교",
        "distance": 591.4281322415413,
        "walking_time": "약 9분"
      },
      {
        "school_lat": 37.5939491407769,
        "school_lon": 127.054890960564,
        "school_type": "중학교",
        "school_name": "경희중학교",
        "distance": 591.4281322415413,
        "walking_time": "약 9분"
      },
      {
        "school_lat": 37.5939491407769,
        "school_lon": 127.054890960564,
        "school_type": "중학교",
        "school_name": "경희여자중학교",
        "distance": 591.4281322415413,
        "walking_time": "약 9분"
      },
      {
        "school_lat": 37.5939491407769,
        "school_lon": 127.054890960564,
        "school_type": "초등학교",
        "school_name": "경희초등학교",
        "distance": 591.4281322415413,
        "walking_time": "약 9분"
      },
      {
        "school_lat": 37.5923093987643,
        "school_lon": 127.055908478798,
        "school_type": "초등학교",
        "school_name": "서울청량초등학교",
        "distance": 773.1871350539128,
        "walking_time": "약 12분"
      },
      {
        "school_lat": 37.6018964867149,
        "school_lon": 127.064885003959,
        "school_type": "초등학교",
        "school_name": "서울이문초등학교",
        "distance": 884.6659334017666,
        "walking_time": "약 14분"
      },
      {
        "school_lat": 37.6069816253061,
        "school_lon": 127.048258795639,
        "school_type": "중학교",
        "school_name": "월곡중학교",
        "distance": 1065.887912018201,
        "walking_time": "약 16분"
      },
      {
        "school_lat": 37.5906875196186,
        "school_lon": 127.047705124334,
        "school_type": "초등학교",
        "school_name": "서울홍릉초등학교",
        "distance": 1169.702037046762,
        "walking_time": "약 18분"
      },
      {
        "school_lat": 37.5888860047887,
        "school_lon": 127.051310950177,
        "school_type": "고등학교",
        "school_name": "청량고등학교",
        "distance": 1207.9892299609917,
        "walking_time": "약 19분"
      }
    ],
    "self_laundromat": [
      {
        "self_laundromat_lat": 37.60719853,
        "self_laundromat_lon": 127.051166,
        "self_laundromat_type": "셀프 빨래방",
        "self_laundromat_name": "워시테리아 석관점",
        "distance": 959.620448274313,
        "walking_time": "약 15분"
      },
      {
        "self_laundromat_lat": 37.60719853,
        "self_laundromat_lon": 127.051166,
        "self_laundromat_type": "셀프 빨래방",
        "self_laundromat_name": "워시테리아 석관점",
        "distance": 959.620448274313,
        "walking_time": "약 15분"
      },
      {
        "self_laundromat_lat": 37.60922779,
        "self_laundromat_lon": 127.0563821,
        "self_laundromat_type": "셀프 빨래방",
        "self_laundromat_name": "런드리데이",
        "distance": 1112.5516530406478,
        "walking_time": "약 17분"
      },
      {
        "self_laundromat_lat": 37.60922779,
        "self_laundromat_lon": 127.0563821,
        "self_laundromat_type": "셀프 빨래방",
        "self_laundromat_name": "빨래하는날",
        "distance": 1112.5516530406478,
        "walking_time": "약 17분"
      },
      {
        "self_laundromat_lat": 37.60922779,
        "self_laundromat_lon": 127.0563821,
        "self_laundromat_type": "셀프 빨래방",
        "self_laundromat_name": "런드리데이",
        "distance": 1112.5516530406478,
        "walking_time": "약 17분"
      },
      {
        "self_laundromat_lat": 37.60922779,
        "self_laundromat_lon": 127.0563821,
        "self_laundromat_type": "셀프 빨래방",
        "self_laundromat_name": "빨래하는날",
        "distance": 1112.5516530406478,
        "walking_time": "약 17분"
      },
      {
        "self_laundromat_lat": 37.60577676,
        "self_laundromat_lon": 127.0445272,
        "self_laundromat_type": "셀프 빨래방",
        "self_laundromat_name": "화이트365 동덕여대점",
        "distance": 1202.6133102990404,
        "walking_time": "약 18분"
      },
      {
        "self_laundromat_lat": 37.60577676,
        "self_laundromat_lon": 127.0445272,
        "self_laundromat_type": "셀프 빨래방",
        "self_laundromat_name": "화이트365 동덕여대점",
        "distance": 1202.6133102990404,
        "walking_time": "약 18분"
      },
      {
        "self_laundromat_lat": 37.60551285,
        "self_laundromat_lon": 127.0438348,
        "self_laundromat_type": "셀프 빨래방",
        "self_laundromat_name": "크린업24 동덕여대점",
        "distance": 1235.02485932458,
        "walking_time": "약 19분"
      },
      {
        "self_laundromat_lat": 37.60551285,
        "self_laundromat_lon": 127.0438348,
        "self_laundromat_type": "셀프 빨래방",
        "self_laundromat_name": "크린업24 동덕여대점",
        "distance": 1235.02485932458,
        "walking_time": "약 19분"
      }
    ],
    "subway": [
      {
        "subway_lat": 37.6062641394281,
        "subway_lon": 127.048326622029,
        "subway_type": "지하철",
        "subway_name": "6호선-상월곡(한국과학기술연구원)역",
        "distance": 998.9207148775856,
        "walking_time": "약 15분"
      },
      {
        "subway_lat": 37.6014210523409,
        "subway_lon": 127.041184766468,
        "subway_type": "지하철",
        "subway_name": "6호선-월곡(동덕여대)역",
        "distance": 1276.5827317552648,
        "walking_time": "약 20분"
      },
      {
        "subway_lat": 37.5808935779959,
        "subway_lon": 127.045572642704,
        "subway_type": "지하철",
        "subway_name": "1호선-청량리(서울시립대입구)역",
        "distance": 2217.884285499202,
        "walking_time": "약 34분"
      }
    ],
    "supermarket": [
      {
        "supermarket_lat": 37.59982336,
        "supermarket_lon": 127.0612412,
        "supermarket_type": "마트",
        "supermarket_name": "GS THE FRESH 이문라그란데점",
        "distance": 517.272798149712,
        "walking_time": "약 8분"
      },
      {
        "supermarket_lat": 37.59849172,
        "supermarket_lon": 127.0618858,
        "supermarket_type": "마트",
        "supermarket_name": "이문제일시장",
        "distance": 576.3776952129155,
        "walking_time": "약 9분"
      },
      {
        "supermarket_lat": 37.59849172,
        "supermarket_lon": 127.0618858,
        "supermarket_type": "마트",
        "supermarket_name": "이문동웰츠타워",
        "distance": 576.3776952129155,
        "walking_time": "약 9분"
      },
      {
        "supermarket_lat": 37.59849172,
        "supermarket_lon": 127.0618858,
        "supermarket_type": "마트",
        "supermarket_name": "이마트에브리데이 이문점",
        "distance": 576.3776952129155,
        "walking_time": "약 9분"
      },
      {
        "supermarket_lat": 37.59467108,
        "supermarket_lon": 127.0594083,
        "supermarket_type": "마트",
        "supermarket_name": "롯데쇼핑(주) 롯데마켓 999 이문점",
        "distance": 619.0849079632632,
        "walking_time": "약 10분"
      },
      {
        "supermarket_lat": 37.59336179,
        "supermarket_lon": 127.052916,
        "supermarket_type": "마트",
        "supermarket_name": "홈플러스 익스프레스 서울회기점",
        "distance": 690.933359923098,
        "walking_time": "약 11분"
      },
      {
        "supermarket_lat": 37.59080113,
        "supermarket_lon": 127.0561174,
        "supermarket_type": "마트",
        "supermarket_name": "베라체캠퍼스 에비뉴",
        "distance": 941.7118564559322,
        "walking_time": "약 15분"
      },
      {
        "supermarket_lat": 37.59459717,
        "supermarket_lon": 127.0665577,
        "supermarket_type": "마트",
        "supermarket_name": "이경시장",
        "distance": 1109.8408891888932,
        "walking_time": "약 17분"
      },
      {
        "supermarket_lat": 37.60896519,
        "supermarket_lon": 127.0603166,
        "supermarket_type": "마트",
        "supermarket_name": "석관시장",
        "distance": 1163.2215470491096,
        "walking_time": "약 18분"
      },
      {
        "supermarket_lat": 37.60972998,
        "supermarket_lon": 127.0620067,
        "supermarket_type": "마트",
        "supermarket_name": "석관황금시장",
        "distance": 1301.8378798977135,
        "walking_time": "약 20분"
      }
    ],
    "tax_office": [
      {
        "tax_office_lat": 37.58324212,
        "tax_office_lon": 127.0478161,
        "tax_office_type": "세무서",
        "tax_office_name": "동대문세무서",
        "distance": 1901.912858076016,
        "walking_time": "약 29분"
      }
    ],
    "theater": [
      {
        "theater_lat": 37.584197400389,
        "theater_lon": 127.05114503929,
        "theater_type": "영화관",
        "theater_name": "롯데시네마청량리",
        "distance": 1715.7135988525567,
        "walking_time": "약 26분"
      }
    ],
    "university": [
      {
        "university_lat": 37.5982966771548,
        "university_lon": 127.057942413722,
        "university_type": "대학교",
        "university_name": "한국외국어대학교",
        "distance": 246.7603306177312,
        "walking_time": "약 4분"
      },
      {
        "university_lat": 37.5982966771548,
        "university_lon": 127.057942413722,
        "university_type": "대학교",
        "university_name": "사이버한국외국어대학교",
        "distance": 246.7603306177312,
        "walking_time": "약 4분"
      },
      {
        "university_lat": 37.5939491407769,
        "university_lon": 127.054890960564,
        "university_type": "대학교",
        "university_name": "경희대학교",
        "distance": 591.4281322415413,
        "walking_time": "약 9분"
      },
      {
        "university_lat": 37.6068148327539,
        "university_lon": 127.041176301847,
        "university_type": "대학교",
        "university_name": "동덕여자대학교",
        "distance": 1510.1223135127404,
        "walking_time": "약 23분"
      },
      {
        "university_lat": 37.5901076994928,
        "university_lon": 127.068614843098,
        "university_type": "전문대학교(3년제)",
        "university_name": "삼육보건대학교",
        "distance": 1544.8305453902335,
        "walking_time": "약 24분"
      },
      {
        "university_lat": 37.5825775765293,
        "university_lon": 127.059988126984,
        "university_type": "대학교",
        "university_name": "서울시립대학교",
        "distance": 1897.382367622052,
        "walking_time": "약 29분"
      }
    ]
  }
}