{
  "클러스터_위도": 37.54790499999998,
  "클러스터_경도": 126.843979,
  "클러스터_level": 3.0,
  "facilities": {
    "bus": [
      {
        "bus_lat": 37.54743835,
        "bus_lon": 126.8434782,
        "bus_type": "버스정류장",
        "bus_name": "우장산휴먼빌아파트",
        "distance": 68.13055037788413,
        "walking_time": "약 2분"
      },
      {
        "bus_lat": 37.54691496,
        "bus_lon": 126.8442262,
        "bus_type": "버스정류장",
        "bus_name": "문성유치원",
        "distance": 112.22384567875628,
        "walking_time": "약 2분"
      },
      {
        "bus_lat": 37.54719857,
        "bus_lon": 126.84579,
        "bus_type": "버스정류장",
        "bus_name": "우장산투웨니퍼스트오피스텔",
        "distance": 177.93624593949798,
        "walking_time": "약 3분"
      },
      {
        "bus_lat": 37.54665287,
        "bus_lon": 126.8453329,
        "bus_type": "버스정류장",
        "bus_name": "우장산파크빌",
        "distance": 183.3908865465648,
        "walking_time": "약 3분"
      },
      {
        "bus_lat": 37.54792505,
        "bus_lon": 126.8415761,
        "bus_type": "버스정류장",
        "bus_name": "우장산동주민센터",
        "distance": 211.85194128238945,
        "walking_time": "약 4분"
      },
      {
        "bus_lat": 37.54807574,
        "bus_lon": 126.841406,
        "bus_type": "버스정류장",
        "bus_name": "우장산동주민센터",
        "distance": 227.629157057014,
        "walking_time": "약 4분"
      },
      {
        "bus_lat": 37.54608728,
        "bus_lon": 126.8452748,
        "bus_type": "버스정류장",
        "bus_name": "한국폴리텍1.서울강서대학교",
        "distance": 232.1715831035868,
        "walking_time": "약 4분"
      },
      {
        "bus_lat": 37.54584327,
        "bus_lon": 126.8447321,
        "bus_type": "버스정류장",
        "bus_name": "한국폴리텍1.서울강서대학교",
        "distance": 238.6746187453897,
        "walking_time": "약 4분"
      },
      {
        "bus_lat": 37.54936691,
        "bus_lon": 126.8477783,
        "bus_type": "버스정류장",
        "bus_name": "우장초등학교",
        "distance": 372.30658617712834,
        "walking_time": "약 6분"
      },
      {
        "bus_lat": 37.54580838,
        "bus_lon": 126.8475437,
        "bus_type": "버스정류장",
        "bus_name": "수정빌딩",
        "distance": 391.3008780102832,
        "walking_time": "약 6분"
      }
    ],
    "community_center": [
      {
        "community_center_lat": 37.54828859,
        "community_center_lon": 126.8418363,
        "community_center_type": "주민센터",
        "community_center_name": "우장산동 자치회관",
        "distance": 193.65609684696344,
        "walking_time": "약 3분"
      },
      {
        "community_center_lat": 37.54404823,
        "community_center_lon": 126.8476634,
        "community_center_type": "주민센터",
        "community_center_name": "화곡본동 자치회관",
        "distance": 537.9842362280256,
        "walking_time": "약 9분"
      },
      {
        "community_center_lat": 37.55181666,
        "community_center_lon": 126.8500765,
        "community_center_type": "주민센터",
        "community_center_name": "화곡6동 자치회관",
        "distance": 691.4765339444338,
        "walking_time": "약 11분"
      },
      {
        "community_center_lat": 37.54252631,
        "community_center_lon": 126.8384139,
        "community_center_type": "주민센터",
        "community_center_name": "화곡3동 자치회관",
        "distance": 773.5820651731743,
        "walking_time": "약 12분"
      },
      {
        "community_center_lat": 37.5531163,
        "community_center_lon": 126.8331774,
        "community_center_type": "주민센터",
        "community_center_name": "발산1동 자치회관",
        "distance": 1114.6943493486476,
        "walking_time": "약 17분"
      },
      {
        "community_center_lat": 37.55888771,
        "community_center_lon": 126.8479185,
        "community_center_type": "주민센터",
        "community_center_name": "등촌3동 자치회관",
        "distance": 1269.640435944132,
        "walking_time": "약 19분"
      },
      {
        "community_center_lat": 37.55582869,
        "community_center_lon": 126.8589098,
        "community_center_type": "주민센터",
        "community_center_name": "등촌1동 자치회관",
        "distance": 1583.9067963620664,
        "walking_time": "약 24분"
      },
      {
        "community_center_lat": 37.53269577,
        "community_center_lon": 126.8483304,
        "community_center_type": "주민센터",
        "community_center_name": "화곡8동 자치회관",
        "distance": 1734.161365840695,
        "walking_time": "약 26분"
      },
      {
        "community_center_lat": 37.53050858,
        "community_center_lon": 126.8415925,
        "community_center_type": "주민센터",
        "community_center_name": "화곡1동 자치회관",
        "distance": 1945.8044388668905,
        "walking_time": "약 30분"
      },
      {
        "community_center_lat": 37.53280626,
        "community_center_lon": 126.8315273,
        "community_center_type": "주민센터",
        "community_center_name": "신월1동 자치회관",
        "distance": 2005.992039088385,
        "walking_time": "약 30분"
      }
    ],
    "convenience_store": [
      {
        "convenience_store_lat": 37.54725959,
        "convenience_store_lon": 126.843481,
        "convenience_store_type": "편의점",
        "convenience_store_name": "GS25 우장산점",
        "distance": 84.1306400952702,
        "walking_time": "약 2분"
      },
      {
        "convenience_store_lat": 37.54616734,
        "convenience_store_lon": 126.8458309,
        "convenience_store_type": "편의점",
        "convenience_store_name": "GS25 화곡공원점",
        "distance": 252.96108482497417,
        "walking_time": "약 4분"
      },
      {
        "convenience_store_lat": 37.54920178,
        "convenience_store_lon": 126.8466392,
        "convenience_store_type": "편의점",
        "convenience_store_name": "GS25 화곡드림점",
        "distance": 275.30490138277946,
        "walking_time": "약 5분"
      },
      {
        "convenience_store_lat": 37.54920178,
        "convenience_store_lon": 126.8466392,
        "convenience_store_type": "편의점",
        "convenience_store_name": "CU 강서중앙점",
        "distance": 275.30490138277946,
        "walking_time": "약 5분"
      },
      {
        "convenience_store_lat": 37.54790487,
        "convenience_store_lon": 126.8471837,
        "convenience_store_type": "편의점",
        "convenience_store_name": "GS25 화곡소담점",
        "distance": 282.5271186955208,
        "walking_time": "약 5분"
      },
      {
        "convenience_store_lat": 37.54927915,
        "convenience_store_lon": 126.8469649,
        "convenience_store_type": "편의점",
        "convenience_store_name": "CU SK해바라기주유소점",
        "distance": 304.3684793233167,
        "walking_time": "약 5분"
      },
      {
        "convenience_store_lat": 37.54698307,
        "convenience_store_lon": 126.8472625,
        "convenience_store_type": "편의점",
        "convenience_store_name": "CU 소나무공원점",
        "distance": 307.0918829884569,
        "walking_time": "약 5분"
      },
      {
        "convenience_store_lat": 37.54605334,
        "convenience_store_lon": 126.8469208,
        "convenience_store_type": "편의점",
        "convenience_store_name": "GS25 화곡미소점",
        "distance": 331.1447078927275,
        "walking_time": "약 5분"
      },
      {
        "convenience_store_lat": 37.54598802,
        "convenience_store_lon": 126.8474818,
        "convenience_store_type": "편의점",
        "convenience_store_name": "세븐일레븐 강서화곡예스점",
        "distance": 375.234811769448,
        "walking_time": "약 6분"
      },
      {
        "convenience_store_lat": 37.55043329,
        "convenience_store_lon": 126.8473495,
        "convenience_store_type": "편의점",
        "convenience_store_name": "CU 신월가로공원점",
        "distance": 409.0567055355119,
        "walking_time": "약 7분"
      }
    ],
    "daycare": [
      {
        "daycare_lat": 37.54664447,
        "daycare_lon": 126.8445248,
        "daycare_type": "어린이집",
        "daycare_name": "예나어린이집",
        "distance": 148.19401465035767,
        "walking_time": "약 3분"
      },
      {
        "daycare_lat": 37.54661606,
        "daycare_lon": 126.8446599,
        "daycare_type": "어린이집",
        "daycare_name": "햇살아트키즈어린이집",
        "distance": 155.38697182861662,
        "walking_time": "약 3분"
      },
      {
        "daycare_lat": 37.546491282347965,
        "daycare_lon": 126.84407147917146,
        "daycare_type": "어린이집",
        "daycare_name": "구립 우장숲어린이집",
        "distance": 157.40951733189152,
        "walking_time": "약 3분"
      },
      {
        "daycare_lat": 37.54642986,
        "daycare_lon": 126.8439555,
        "daycare_type": "어린이집",
        "daycare_name": "이솝어린이집",
        "distance": 164.04116759891298,
        "walking_time": "약 3분"
      },
      {
        "daycare_lat": 37.54816795,
        "daycare_lon": 126.8418419,
        "daycare_type": "어린이집",
        "daycare_name": "다해영재어린이집",
        "distance": 190.662181305603,
        "walking_time": "약 3분"
      },
      {
        "daycare_lat": 37.54816795,
        "daycare_lon": 126.8418419,
        "daycare_type": "어린이집",
        "daycare_name": "꿀벌어린이집",
        "distance": 190.662181305603,
        "walking_time": "약 3분"
      },
      {
        "daycare_lat": 37.5482876,
        "daycare_lon": 126.841835,
        "daycare_type": "어린이집",
        "daycare_name": "한울어린이집",
        "distance": 193.74369097081984,
        "walking_time": "약 3분"
      },
      {
        "daycare_lat": 37.54826122401517,
        "daycare_lon": 126.84097959090523,
        "daycare_type": "어린이집",
        "daycare_name": "구립 스마일어린이집",
        "distance": 267.378268604644,
        "walking_time": "약 4분"
      },
      {
        "daycare_lat": 37.54737388,
        "daycare_lon": 126.847801,
        "daycare_type": "어린이집",
        "daycare_name": "아장닷컴 어린이집",
        "distance": 342.0860790364074,
        "walking_time": "약 6분"
      },
      {
        "daycare_lat": 37.54739085926599,
        "daycare_lon": 126.84781636842996,
        "daycare_type": "어린이집",
        "daycare_name": "구립 아장닷컴어린이집",
        "distance": 343.1010276682431,
        "walking_time": "약 6분"
      }
    ],
    "education": [
      {
        "education_lat": 37.55362014,
        "education_lon": 126.8507501,
        "education_type": "박물관/기념관",
        "education_name": "기생충박물관",
        "distance": 871.8747249596191,
        "walking_time": "약 14분"
      },
      {
        "education_lat": 37.55797384,
        "education_lon": 126.8491891,
        "education_type": "공연장",
        "education_name": "스카이아트홀",
        "distance": 1210.149856131723,
        "walking_time": "약 19분"
      },
      {
        "education_lat": 37.53754309,
        "education_lon": 126.8376421,
        "education_type": "문화예술회관",
        "education_name": "강서아트리움",
        "distance": 1280.5050954824617,
        "walking_time": "약 20분"
      },
      {
        "education_lat": 37.53754309,
        "education_lon": 126.8376421,
        "education_type": "문화원",
        "education_name": "강서문화원",
        "distance": 1280.5050954824617,
        "walking_time": "약 20분"
      },
      {
        "education_lat": 37.54790302,
        "education_lon": 126.8599277,
        "education_type": "도서관",
        "education_name": "서울특별시교육청 강서도서관",
        "distance": 1406.041238805674,
        "walking_time": "약 21분"
      }
    ],
    "fitness": [
      {
        "fitness_lat": 37.54864213,
        "fitness_lon": 126.8472304,
        "fitness_type": "운동시설",
        "fitness_name": "백짐 (100GYM)",
        "distance": 298.1314573416279,
        "walking_time": "약 5분"
      },
      {
        "fitness_lat": 37.548838,
        "fitness_lon": 126.8475014,
        "fitness_type": "운동시설",
        "fitness_name": "MH 휘트니스",
        "distance": 327.40520053761185,
        "walking_time": "약 5분"
      },
      {
        "fitness_lat": 37.54370354,
        "fitness_lon": 126.8436205,
        "fitness_type": "운동시설",
        "fitness_name": "헬스와 필라테스 화곡점",
        "distance": 468.2489523341255,
        "walking_time": "약 7분"
      },
      {
        "fitness_lat": 37.55018683,
        "fitness_lon": 126.8487228,
        "fitness_type": "운동시설",
        "fitness_name": "(주) 세이브피트니스 화곡",
        "distance": 489.158364936974,
        "walking_time": "약 8분"
      },
      {
        "fitness_lat": 37.54330157,
        "fitness_lon": 126.8425084,
        "fitness_type": "운동시설",
        "fitness_name": "짐스페이스",
        "distance": 528.0425243122115,
        "walking_time": "약 8분"
      },
      {
        "fitness_lat": 37.54293761,
        "fitness_lon": 126.8422771,
        "fitness_type": "운동시설",
        "fitness_name": "화곡역점 스포애니 주)케이디스포츠",
        "distance": 572.3656297245388,
        "walking_time": "약 9분"
      },
      {
        "fitness_lat": 37.54249364,
        "fitness_lon": 126.8441388,
        "fitness_type": "운동시설",
        "fitness_name": "바디채널 화곡점",
        "distance": 601.8806892692206,
        "walking_time": "약 9분"
      },
      {
        "fitness_lat": 37.5484347,
        "fitness_lon": 126.8367141,
        "fitness_type": "운동시설",
        "fitness_name": "비브짐 PT&헬스",
        "distance": 643.1756568668317,
        "walking_time": "약 10분"
      },
      {
        "fitness_lat": 37.54243558,
        "fitness_lon": 126.8415351,
        "fitness_type": "운동시설",
        "fitness_name": "이든핏",
        "distance": 645.2108684771741,
        "walking_time": "약 10분"
      },
      {
        "fitness_lat": 37.5448063,
        "fitness_lon": 126.8377007,
        "fitness_type": "운동시설",
        "fitness_name": "새로고침 PT",
        "distance": 651.9911287746277,
        "walking_time": "약 10분"
      }
    ],
    "gas_station": [
      {
        "gas_station_lat": 37.54927915,
        "gas_station_lon": 126.8469649,
        "gas_station_type": "주유소",
        "gas_station_name": "현대오일뱅크㈜직영강서제일셀프주유소",
        "distance": 304.3684793233167,
        "walking_time": "약 5분"
      },
      {
        "gas_station_lat": 37.55180276,
        "gas_station_lon": 126.8366813,
        "gas_station_type": "주유소",
        "gas_station_name": "우장산주유소",
        "distance": 775.722009059775,
        "walking_time": "약 12분"
      },
      {
        "gas_station_lat": 37.54076801,
        "gas_station_lon": 126.8414715,
        "gas_station_type": "주유소",
        "gas_station_name": "화곡역주유소",
        "distance": 823.8138882693049,
        "walking_time": "약 13분"
      },
      {
        "gas_station_lat": 37.54024241,
        "gas_station_lon": 126.841164,
        "gas_station_type": "주유소",
        "gas_station_name": "화곡현대주유소",
        "distance": 887.4510152880202,
        "walking_time": "약 14분"
      },
      {
        "gas_station_lat": 37.55784243,
        "gas_station_lon": 126.8423952,
        "gas_station_type": "주유소",
        "gas_station_name": "대성석유㈜관문주유소",
        "distance": 1113.777495274586,
        "walking_time": "약 17분"
      },
      {
        "gas_station_lat": 37.55453989,
        "gas_station_lon": 126.8549516,
        "gas_station_type": "주유소",
        "gas_station_name": "하이웨이주유소",
        "distance": 1216.5425698322088,
        "walking_time": "약 19분"
      },
      {
        "gas_station_lat": 37.53702037,
        "gas_station_lon": 126.8342988,
        "gas_station_type": "주유소",
        "gas_station_name": "에이치지 가로공원주유소",
        "distance": 1480.9715606057853,
        "walking_time": "약 23분"
      },
      {
        "gas_station_lat": 37.5315625,
        "gas_station_lon": 126.8560354,
        "gas_station_type": "주유소",
        "gas_station_name": "뉴신정주유소",
        "distance": 2105.284002255269,
        "walking_time": "약 32분"
      },
      {
        "gas_station_lat": 37.53115948,
        "gas_station_lon": 126.8310115,
        "gas_station_type": "주유소",
        "gas_station_name": "형산석유㈜ 원주유소",
        "distance": 2185.028043539992,
        "walking_time": "약 33분"
      }
    ],
    "hospital": [
      {
        "hospital_lat": 37.54973105,
        "hospital_lon": 126.847488,
        "hospital_type": "병원",
        "hospital_name": "김재철치과의원",
        "distance": 370.0351482307899,
        "walking_time": "약 6분"
      },
      {
        "hospital_lat": 37.54524483,
        "hospital_lon": 126.8469518,
        "hospital_type": "병원",
        "hospital_name": "화곡사랑치과의원",
        "distance": 395.2036566268947,
        "walking_time": "약 6분"
      },
      {
        "hospital_lat": 37.54524483,
        "hospital_lon": 126.8469518,
        "hospital_type": "병원",
        "hospital_name": "윤영혜산부인과의원",
        "distance": 395.2036566268947,
        "walking_time": "약 6분"
      },
      {
        "hospital_lat": 37.54524483,
        "hospital_lon": 126.8469518,
        "hospital_type": "병원",
        "hospital_name": "하나의원",
        "distance": 395.2036566268947,
        "walking_time": "약 6분"
      },
      {
        "hospital_lat": 37.54524099,
        "hospital_lon": 126.8473267,
        "hospital_type": "병원",
        "hospital_name": "김형국치과의원",
        "distance": 418.1579881673803,
        "walking_time": "약 7분"
      },
      {
        "hospital_lat": 37.54409027,
        "hospital_lon": 126.8439072,
        "hospital_type": "병원",
        "hospital_name": "이종현내과의원",
        "distance": 424.2258520528249,
        "walking_time": "약 7분"
      },
      {
        "hospital_lat": 37.54370354,
        "hospital_lon": 126.8436205,
        "hospital_type": "병원",
        "hospital_name": "김대근한의원",
        "distance": 468.2489523341255,
        "walking_time": "약 7분"
      },
      {
        "hospital_lat": 37.54370354,
        "hospital_lon": 126.8436205,
        "hospital_type": "병원",
        "hospital_name": "메디휴제일내과",
        "distance": 468.2489523341255,
        "walking_time": "약 7분"
      },
      {
        "hospital_lat": 37.54373816,
        "hospital_lon": 126.8430936,
        "hospital_type": "병원",
        "hospital_name": "서울이우택치과의원",
        "distance": 469.8609336955847,
        "walking_time": "약 8분"
      },
      {
        "hospital_lat": 37.54373816,
        "hospital_lon": 126.8430936,
        "hospital_type": "병원",
        "hospital_name": "조승호치과의원",
        "distance": 469.8609336955847,
        "walking_time": "약 8분"
      }
    ],
    "music_room": [
      {
        "music_room_lat": 37.54656746,
        "music_room_lon": 126.8447871,
        "music_room_type": "노래방",
        "music_room_name": "찬찬찬노래연습장",
        "distance": 164.9104979625033,
        "walking_time": "약 3분"
      },
      {
        "music_room_lat": 37.54668606,
        "music_room_lon": 126.8451533,
        "music_room_type": "노래방",
        "music_room_name": "꼭지노래연습장",
        "distance": 170.55498257685375,
        "walking_time": "약 3분"
      },
      {
        "music_room_lat": 37.5464691,
        "music_room_lon": 126.8457026,
        "music_room_type": "노래방",
        "music_room_name": "락휴노래연습장",
        "distance": 220.41552161358413,
        "walking_time": "약 4분"
      },
      {
        "music_room_lat": 37.54616734,
        "music_room_lon": 126.8458309,
        "music_room_type": "노래방",
        "music_room_name": "아싸노래방",
        "distance": 252.96108482497417,
        "walking_time": "약 4분"
      },
      {
        "music_room_lat": 37.54524195,
        "music_room_lon": 126.8448198,
        "music_room_type": "노래방",
        "music_room_name": "스타노래연습장",
        "distance": 305.2546368685842,
        "walking_time": "약 5분"
      },
      {
        "music_room_lat": 37.54503142,
        "music_room_lon": 126.8447741,
        "music_room_type": "노래방",
        "music_room_name": "고고노래연습장",
        "distance": 327.126125270385,
        "walking_time": "약 5분"
      },
      {
        "music_room_lat": 37.54492316,
        "music_room_lon": 126.8449418,
        "music_room_type": "노래방",
        "music_room_name": "은하수노래연습장",
        "distance": 342.25821436347525,
        "walking_time": "약 6분"
      },
      {
        "music_room_lat": 37.54608995,
        "music_room_lon": 126.8475686,
        "music_room_type": "노래방",
        "music_room_name": "플러스노래연습장",
        "distance": 375.3430901133223,
        "walking_time": "약 6분"
      },
      {
        "music_room_lat": 37.54984888,
        "music_room_lon": 126.8476158,
        "music_room_type": "노래방",
        "music_room_name": "로또노래연습장",
        "distance": 386.67284971621257,
        "walking_time": "약 6분"
      },
      {
        "music_room_lat": 37.54402795,
        "music_room_lon": 126.8427802,
        "music_room_type": "노래방",
        "music_room_name": "굿타임노래연습장(2호점)",
        "distance": 443.8745026327842,
        "walking_time": "약 7분"
      }
    ],
    "park": [
      {
        "park_lat": 37.5541932,
        "park_lon": 126.844932,
        "park_type": "공원",
        "park_name": "우장산근린공원",
        "distance": 704.2450846533548,
        "walking_time": "약 11분"
      },
      {
        "park_lat": 37.5421979,
        "park_lon": 126.8517836,
        "park_type": "공원",
        "park_name": "봉제산공원",
        "distance": 936.0418575815048,
        "walking_time": "약 14분"
      }
    ],
    "park_station": [
      {
        "park_station_lat": 37.54423711,
        "park_station_lon": 126.8407241,
        "park_station_type": "주차장",
        "park_station_name": "화곡5-2 공영주차장",
        "distance": 498.686455956401,
        "walking_time": "약 8분"
      },
      {
        "park_station_lat": 37.5433714,
        "park_station_lon": 126.8423121,
        "park_station_type": "주차장",
        "park_station_name": "화곡5-3 공영주차장",
        "distance": 525.0972474338122,
        "walking_time": "약 8분"
      },
      {
        "park_station_lat": 37.54430565,
        "park_station_lon": 126.8484402,
        "park_station_type": "주차장",
        "park_station_name": "화곡본-2 공영주차장",
        "distance": 561.1384319070546,
        "walking_time": "약 9분"
      },
      {
        "park_station_lat": 37.54390312,
        "park_station_lon": 126.8397335,
        "park_station_type": "주차장",
        "park_station_name": "화곡5-1 공영주차장",
        "distance": 581.4733394635014,
        "walking_time": "약 9분"
      },
      {
        "park_station_lat": 37.5530332,
        "park_station_lon": 126.8484633,
        "park_station_type": "주차장",
        "park_station_name": "화곡6-1 공영주차장",
        "distance": 693.8606559115108,
        "walking_time": "약 11분"
      },
      {
        "park_station_lat": 37.54147809,
        "park_station_lon": 126.8443887,
        "park_station_type": "주차장",
        "park_station_name": "볏골공원 지하공영주차장",
        "distance": 715.552050116954,
        "walking_time": "약 11분"
      },
      {
        "park_station_lat": 37.5491283,
        "park_station_lon": 126.8346491,
        "park_station_type": "주차장",
        "park_station_name": "송화골목 전통시장 고객주차장",
        "distance": 833.6911917553512,
        "walking_time": "약 13분"
      },
      {
        "park_station_lat": 37.55415488,
        "park_station_lon": 126.8524742,
        "park_station_type": "주차장",
        "park_station_name": "화곡6동 방죽길",
        "distance": 1021.677428381302,
        "walking_time": "약 16분"
      },
      {
        "park_station_lat": 37.53974453,
        "park_station_lon": 126.8497811,
        "park_station_type": "주차장",
        "park_station_name": "화곡본-1 공영주차장",
        "distance": 1041.6600720452068,
        "walking_time": "약 16분"
      },
      {
        "park_station_lat": 37.54176673,
        "park_station_lon": 126.8347427,
        "park_station_type": "주차장",
        "park_station_name": "화곡3-1 공영주차장",
        "distance": 1062.5273607757945,
        "walking_time": "약 16분"
      }
    ],
    "pc_room": [
      {
        "pc_room_lat": 37.5459847632984,
        "pc_room_lon": 126.847050651331,
        "pc_room_type": "PC방",
        "pc_room_name": "블루PC",
        "distance": 344.8539129253432,
        "walking_time": "약 6분"
      },
      {
        "pc_room_lat": 37.5467856553943,
        "pc_room_lon": 126.84816364255,
        "pc_room_type": "PC방",
        "pc_room_name": "공원PC방",
        "distance": 389.3520039695013,
        "walking_time": "약 6분"
      },
      {
        "pc_room_lat": 37.5474583358704,
        "pc_room_lon": 126.848580974482,
        "pc_room_type": "PC방",
        "pc_room_name": "피시베네 season 2 (PC클럽)",
        "distance": 408.74115240576674,
        "walking_time": "약 7분"
      },
      {
        "pc_room_lat": 37.5474583358704,
        "pc_room_lon": 126.848580974482,
        "pc_room_type": "PC방",
        "pc_room_name": "피시베네 season 2 (PC방)",
        "distance": 408.74115240576674,
        "walking_time": "약 7분"
      },
      {
        "pc_room_lat": 37.5480467233076,
        "pc_room_lon": 126.849101574578,
        "pc_room_type": "PC방",
        "pc_room_name": "골목PC",
        "distance": 451.8818414923683,
        "walking_time": "약 7분"
      },
      {
        "pc_room_lat": 37.5420501337519,
        "pc_room_lon": 126.843362773067,
        "pc_room_type": "PC방",
        "pc_room_name": "well PC",
        "distance": 653.294372643754,
        "walking_time": "약 10분"
      },
      {
        "pc_room_lat": 37.5441393622812,
        "pc_room_lon": 126.837621158964,
        "pc_room_type": "PC방",
        "pc_room_name": "PC-TAG",
        "distance": 699.6515194587068,
        "walking_time": "약 11분"
      },
      {
        "pc_room_lat": 37.541842878658,
        "pc_room_lon": 126.841722040176,
        "pc_room_type": "PC방",
        "pc_room_name": "쿡몬스터PC",
        "distance": 702.8327731420644,
        "walking_time": "약 11분"
      },
      {
        "pc_room_lat": 37.5432641044882,
        "pc_room_lon": 126.838520714498,
        "pc_room_type": "PC방",
        "pc_room_name": "라이또PC방 화곡점",
        "distance": 705.6011032057224,
        "walking_time": "약 11분"
      },
      {
        "pc_room_lat": 37.5486867604595,
        "pc_room_lon": 126.836035160372,
        "pc_room_type": "PC방",
        "pc_room_name": "제로백PC 우장산점",
        "distance": 705.701443929781,
        "walking_time": "약 11분"
      }
    ],
    "police_office": [
      {
        "police_office_lat": 37.55155817,
        "police_office_lon": 126.8496564,
        "police_office_type": "경찰소",
        "police_office_name": "화곡지구대",
        "distance": 644.6074183799745,
        "walking_time": "약 10분"
      },
      {
        "police_office_lat": 37.54465666,
        "police_office_lon": 126.8351713,
        "police_office_type": "경찰소",
        "police_office_name": "화곡3파출소",
        "distance": 856.4029480961128,
        "walking_time": "약 13분"
      },
      {
        "police_office_lat": 37.55924913,
        "police_office_lon": 126.8501226,
        "police_office_type": "경찰소",
        "police_office_name": "가양지구대",
        "distance": 1372.757576235587,
        "walking_time": "약 21분"
      },
      {
        "police_office_lat": 37.53656792,
        "police_office_lon": 126.8345774,
        "police_office_type": "경찰소",
        "police_office_name": "곰달래지구대",
        "distance": 1508.7311503155524,
        "walking_time": "약 23분"
      },
      {
        "police_office_lat": 37.53907383,
        "police_office_lon": 126.8306735,
        "police_office_type": "경찰소",
        "police_office_name": "신월5파출소",
        "distance": 1529.842134912955,
        "walking_time": "약 23분"
      },
      {
        "police_office_lat": 37.53205459,
        "police_office_lon": 126.8322518,
        "police_office_type": "경찰소",
        "police_office_name": "신월1파출소",
        "distance": 2043.3976944637827,
        "walking_time": "약 31분"
      }
    ],
    "post_office": [
      {
        "post_office_lat": 37.55081092,
        "post_office_lon": 126.8473658,
        "post_office_type": "우체국",
        "post_office_name": "서울화곡본동우편취급국",
        "distance": 439.9500336354672,
        "walking_time": "약 7분"
      },
      {
        "post_office_lat": 37.54400643,
        "post_office_lon": 126.8456597,
        "post_office_type": "우체국",
        "post_office_name": "화곡우체국",
        "distance": 458.1255971852224,
        "walking_time": "약 7분"
      },
      {
        "post_office_lat": 37.54304361,
        "post_office_lon": 126.840025,
        "post_office_type": "우체국",
        "post_office_name": "서울화곡5동우편취급국",
        "distance": 643.2161434931726,
        "walking_time": "약 10분"
      },
      {
        "post_office_lat": 37.55106853,
        "post_office_lon": 126.8360254,
        "post_office_type": "우체국",
        "post_office_name": "서울발산동우체국",
        "distance": 784.4675951400643,
        "walking_time": "약 12분"
      },
      {
        "post_office_lat": 37.5412067,
        "post_office_lon": 126.8334816,
        "post_office_type": "우체국",
        "post_office_name": "서울화곡3동우편취급국",
        "distance": 1187.9785714279442,
        "walking_time": "약 18분"
      },
      {
        "post_office_lat": 37.55883564,
        "post_office_lon": 126.8482043,
        "post_office_type": "우체국",
        "post_office_name": "서울등촌동우체국",
        "distance": 1271.224891892779,
        "walking_time": "약 19분"
      },
      {
        "post_office_lat": 37.53342495,
        "post_office_lon": 126.8452011,
        "post_office_type": "우체국",
        "post_office_name": "서울화곡1동우편취급국",
        "distance": 1613.7095102537496,
        "walking_time": "약 25분"
      },
      {
        "post_office_lat": 37.55882481,
        "post_office_lon": 126.8310076,
        "post_office_type": "우체국",
        "post_office_name": "서울마곡역우편취급국",
        "distance": 1667.899930154079,
        "walking_time": "약 25분"
      }
    ],
    "public_health_center": [
      {
        "public_health_center_lat": 37.53133706,
        "public_health_center_lon": 126.8318233,
        "public_health_center_type": "보건소",
        "public_health_center_name": "신월보건지소",
        "distance": 2131.3492606619743,
        "walking_time": "약 32분"
      }
    ],
    "school": [
      {
        "school_lat": 37.5496381852817,
        "school_lon": 126.845984193202,
        "school_type": "초등학교",
        "school_name": "서울우장초등학교",
        "distance": 261.5174696656114,
        "walking_time": "약 4분"
      },
      {
        "school_lat": 37.5436696173457,
        "school_lon": 126.846471725362,
        "school_type": "초등학교",
        "school_name": "서울화곡초등학교",
        "distance": 519.7053646898819,
        "walking_time": "약 8분"
      },
      {
        "school_lat": 37.5508825455676,
        "school_lon": 126.838164214765,
        "school_type": "초등학교",
        "school_name": "서울내발산초등학교",
        "distance": 610.2468235238512,
        "walking_time": "약 10분"
      },
      {
        "school_lat": 37.5407120318703,
        "school_lon": 126.847470802939,
        "school_type": "초등학교",
        "school_name": "서울화일초등학교",
        "distance": 857.022767338169,
        "walking_time": "약 13분"
      },
      {
        "school_lat": 37.5403655143855,
        "school_lon": 126.839455478388,
        "school_type": "초등학교",
        "school_name": "서울신월초등학교",
        "distance": 928.3794121614104,
        "walking_time": "약 14분"
      },
      {
        "school_lat": 37.5484125649861,
        "school_lon": 126.832679697779,
        "school_type": "고등학교",
        "school_name": "화곡보건경영고등학교",
        "distance": 997.7433346591882,
        "walking_time": "약 15분"
      },
      {
        "school_lat": 37.5484125649861,
        "school_lon": 126.832679697779,
        "school_type": "중학교",
        "school_name": "화곡중학교",
        "distance": 997.7433346591882,
        "walking_time": "약 15분"
      },
      {
        "school_lat": 37.5518843920056,
        "school_lon": 126.855038093326,
        "school_type": "초등학교",
        "school_name": "서울등서초등학교",
        "distance": 1070.6615091720937,
        "walking_time": "약 16분"
      },
      {
        "school_lat": 37.547936112544,
        "school_lon": 126.831535677751,
        "school_type": "고등학교",
        "school_name": "화곡고등학교",
        "distance": 1097.0114894180035,
        "walking_time": "약 17분"
      },
      {
        "school_lat": 37.5538694849081,
        "school_lon": 126.8339773378,
        "school_type": "고등학교",
        "school_name": "명덕외국어고등학교",
        "distance": 1103.3042835540175,
        "walking_time": "약 17분"
      }
    ],
    "self_laundromat": [
      {
        "self_laundromat_lat": 37.5322742,
        "self_laundromat_lon": 126.8326576,
        "self_laundromat_type": "셀프 빨래방",
        "self_laundromat_name": "24시 셀프빨래방",
        "distance": 2004.315192401297,
        "walking_time": "약 30분"
      },
      {
        "self_laundromat_lat": 37.5322742,
        "self_laundromat_lon": 126.8326576,
        "self_laundromat_type": "셀프 빨래방",
        "self_laundromat_name": "24시 셀프빨래방",
        "distance": 2004.315192401297,
        "walking_time": "약 30분"
      },
      {
        "self_laundromat_lat": 37.53165576,
        "self_laundromat_lon": 126.8338744,
        "self_laundromat_type": "셀프 빨래방",
        "self_laundromat_name": "워시팡팡무인셀프빨래방 신월점",
        "distance": 2014.543609024925,
        "walking_time": "약 31분"
      },
      {
        "self_laundromat_lat": 37.53165576,
        "self_laundromat_lon": 126.8338744,
        "self_laundromat_type": "셀프 빨래방",
        "self_laundromat_name": "워시팡팡무인셀프빨래방 신월점",
        "distance": 2014.543609024925,
        "walking_time": "약 31분"
      }
    ],
    "subway": [
      {
        "subway_lat": 37.5490001953873,
        "subway_lon": 126.836408931785,
        "subway_type": "지하철",
        "subway_name": "5호선-우장산역",
        "distance": 678.3941528568733,
        "walking_time": "약 11분"
      },
      {
        "subway_lat": 37.5414336176977,
        "subway_lon": 126.840496450153,
        "subway_type": "지하철",
        "subway_name": "5호선-화곡역",
        "distance": 782.3511705223283,
        "walking_time": "약 12분"
      },
      {
        "subway_lat": 37.5590292668195,
        "subway_lon": 126.837310771961,
        "subway_type": "지하철",
        "subway_name": "5호선-발산역",
        "distance": 1369.5319121884045,
        "walking_time": "약 21분"
      },
      {
        "subway_lat": 37.5319560847746,
        "subway_lon": 126.846611592059,
        "subway_type": "지하철",
        "subway_name": "5호선-까치산역",
        "distance": 1788.5640141944953,
        "walking_time": "약 27분"
      }
    ],
    "supermarket": [
      {
        "supermarket_lat": 37.548838,
        "supermarket_lon": 126.8475014,
        "supermarket_type": "마트",
        "supermarket_name": "(주)이마트에브리데이 화곡동점",
        "distance": 327.40520053761185,
        "walking_time": "약 5분"
      },
      {
        "supermarket_lat": 37.54754447,
        "supermarket_lon": 126.8492819,
        "supermarket_type": "마트",
        "supermarket_name": "홈플러스익스프레스 화곡2점",
        "distance": 469.2217542757031,
        "walking_time": "약 8분"
      },
      {
        "supermarket_lat": 37.54960006,
        "supermarket_lon": 126.8359413,
        "supermarket_type": "마트",
        "supermarket_name": "롯데쇼핑(주)롯데슈퍼 우장산점",
        "distance": 733.2365942510975,
        "walking_time": "약 11분"
      },
      {
        "supermarket_lat": 37.54960006,
        "supermarket_lon": 126.8359413,
        "supermarket_type": "마트",
        "supermarket_name": "송화시장",
        "distance": 733.2365942510975,
        "walking_time": "약 11분"
      },
      {
        "supermarket_lat": 37.54236276,
        "supermarket_lon": 126.8393222,
        "supermarket_type": "마트",
        "supermarket_name": "롯데쇼핑(주)롯데슈퍼화곡3동점",
        "distance": 740.5044527728251,
        "walking_time": "약 12분"
      },
      {
        "supermarket_lat": 37.54149459,
        "supermarket_lon": 126.8387504,
        "supermarket_type": "마트",
        "supermarket_name": "홈플러스(주) 익스프레스 화곡점",
        "distance": 848.8748474816203,
        "walking_time": "약 13분"
      },
      {
        "supermarket_lat": 37.54094233,
        "supermarket_lon": 126.8331448,
        "supermarket_type": "마트",
        "supermarket_name": "롯데쇼핑(주)롯데슈퍼 신월점",
        "distance": 1229.5507773166653,
        "walking_time": "약 19분"
      },
      {
        "supermarket_lat": 37.53906639,
        "supermarket_lon": 126.835419,
        "supermarket_type": "마트",
        "supermarket_name": "강서 뉴타워",
        "distance": 1239.1446067686325,
        "walking_time": "약 19분"
      },
      {
        "supermarket_lat": 37.55993353,
        "supermarket_lon": 126.8404988,
        "supermarket_type": "마트",
        "supermarket_name": "(주) 이랜드리테일 강서점",
        "distance": 1372.2454066987382,
        "walking_time": "약 21분"
      },
      {
        "supermarket_lat": 37.55846996,
        "supermarket_lon": 126.854819,
        "supermarket_type": "마트",
        "supermarket_name": "홈플러스(주) 강서점",
        "distance": 1514.3431812056422,
        "walking_time": "약 23분"
      }
    ],
    "theater": [
      {
        "theater_lat": 37.5593135416408,
        "theater_lon": 126.83523920295,
        "theater_type": "영화관",
        "theater_name": "메가박스중앙(주) 마곡지점",
        "distance": 1484.2028754161445,
        "walking_time": "약 23분"
      },
      {
        "theater_lat": 37.5578690013942,
        "theater_lon": 126.856001180153,
        "theater_type": "영화관",
        "theater_name": "CGV 등촌",
        "distance": 1533.2113427707116,
        "walking_time": "약 23분"
      }
    ],
    "university": [
      {
        "university_lat": 37.5504023690235,
        "university_lon": 126.843553181181,
        "university_type": "대학교",
        "university_name": "한국폴리텍 I 대학 서울강서캠퍼스",
        "distance": 280.22064304628026,
        "walking_time": "약 5분"
      },
      {
        "university_lat": 37.5486692406973,
        "university_lon": 126.854134828868,
        "university_type": "대학교",
        "university_name": "강서대학교",
        "distance": 899.3595398134457,
        "walking_time": "약 14분"
      }
    ]
  }
}