{
  "클러스터_위도": 37.588107,
  "클러스터_경도": 127.030372,
  "클러스터_level": 3.0,
  "facilities": {
    "bus": [
      {
        "bus_lat": 37.58636448,
        "bus_lon": 127.030276,
        "bus_type": "버스정류장",
        "bus_name": "안암전철역",
        "distance": 193.94394028126868,
        "walking_time": "약 3분"
      },
      {
        "bus_lat": 37.58622925,
        "bus_lon": 127.0305239,
        "bus_type": "버스정류장",
        "bus_name": "안암역",
        "distance": 209.22482697878092,
        "walking_time": "약 4분"
      },
      {
        "bus_lat": 37.58627744,
        "bus_lon": 127.0322869,
        "bus_type": "버스정류장",
        "bus_name": "고대사거리",
        "distance": 264.3036476503074,
        "walking_time": "약 4분"
      },
      {
        "bus_lat": 37.58583034,
        "bus_lon": 127.0294582,
        "bus_type": "버스정류장",
        "bus_name": "개운사입구",
        "distance": 265.649591887826,
        "walking_time": "약 4분"
      },
      {
        "bus_lat": 37.5857223,
        "bus_lon": 127.0323863,
        "bus_type": "버스정류장",
        "bus_name": "우신향병원",
        "distance": 319.0851823608548,
        "walking_time": "약 5분"
      },
      {
        "bus_lat": 37.58513594,
        "bus_lon": 127.0316105,
        "bus_type": "버스정류장",
        "bus_name": "우신향병원",
        "distance": 347.9245857071652,
        "walking_time": "약 6분"
      },
      {
        "bus_lat": 37.59125821,
        "bus_lon": 127.0305848,
        "bus_type": "버스정류장",
        "bus_name": "고려대안암학사",
        "distance": 350.8998659543098,
        "walking_time": "약 6분"
      },
      {
        "bus_lat": 37.59125386,
        "bus_lon": 127.0299756,
        "bus_type": "버스정류장",
        "bus_name": "고려대안암학사",
        "distance": 351.65369048520034,
        "walking_time": "약 6분"
      },
      {
        "bus_lat": 37.58611383,
        "bus_lon": 127.0271631,
        "bus_type": "버스정류장",
        "bus_name": "고대병원",
        "distance": 359.258628972996,
        "walking_time": "약 6분"
      },
      {
        "bus_lat": 37.58813631,
        "bus_lon": 127.0346802,
        "bus_type": "버스정류장",
        "bus_name": "고려대학교앞",
        "distance": 379.6209188102039,
        "walking_time": "약 6분"
      }
    ],
    "community_center": [
      {
        "community_center_lat": 37.58582076,
        "community_center_lon": 127.0213756,
        "community_center_type": "주민센터",
        "community_center_name": "안암동 자치회관",
        "distance": 832.4749175481661,
        "walking_time": "약 13분"
      },
      {
        "community_center_lat": 37.58311006,
        "community_center_lon": 127.037822,
        "community_center_type": "주민센터",
        "community_center_name": "제기동 자치회관",
        "distance": 860.0413706282106,
        "walking_time": "약 13분"
      },
      {
        "community_center_lat": 37.58037354,
        "community_center_lon": 127.0228035,
        "community_center_type": "주민센터",
        "community_center_name": "보문동 자치회관",
        "distance": 1088.2284418827169,
        "walking_time": "약 17분"
      },
      {
        "community_center_lat": 37.59398014,
        "community_center_lon": 127.0204087,
        "community_center_type": "주민센터",
        "community_center_name": "동선동 자치회관",
        "distance": 1094.132991144266,
        "walking_time": "약 17분"
      },
      {
        "community_center_lat": 37.59903437,
        "community_center_lon": 127.0352236,
        "community_center_type": "주민센터",
        "community_center_name": "종암동 자치회관",
        "distance": 1288.0641175924825,
        "walking_time": "약 20분"
      },
      {
        "community_center_lat": 37.57580011,
        "community_center_lon": 127.0372752,
        "community_center_type": "주민센터",
        "community_center_name": "용신동 자치회관",
        "distance": 1497.5759162202548,
        "walking_time": "약 23분"
      },
      {
        "community_center_lat": 37.58627625,
        "community_center_lon": 127.0472854,
        "community_center_type": "주민센터",
        "community_center_name": "청량리동 자치회관",
        "distance": 1504.1423715347062,
        "walking_time": "약 23분"
      },
      {
        "community_center_lat": 37.57797071,
        "community_center_lon": 127.0477271,
        "community_center_type": "주민센터",
        "community_center_name": "전농1동 자치회관",
        "distance": 1899.7756093523908,
        "walking_time": "약 29분"
      }
    ],
    "convenience_store": [
      {
        "convenience_store_lat": 37.58884314,
        "convenience_store_lon": 127.0293434,
        "convenience_store_type": "편의점",
        "convenience_store_name": "GS25 고대개운점",
        "distance": 122.12473168030677,
        "walking_time": "약 2분"
      },
      {
        "convenience_store_lat": 37.58870342,
        "convenience_store_lon": 127.0316983,
        "convenience_store_type": "편의점",
        "convenience_store_name": "세븐일레븐 S고려대역점",
        "distance": 134.36978749582562,
        "walking_time": "약 3분"
      },
      {
        "convenience_store_lat": 37.58870342,
        "convenience_store_lon": 127.0316983,
        "convenience_store_type": "편의점",
        "convenience_store_name": "CU 고대중앙광장점",
        "distance": 134.36978749582562,
        "walking_time": "약 3분"
      },
      {
        "convenience_store_lat": 37.58952692,
        "convenience_store_lon": 127.0292936,
        "convenience_store_type": "편의점",
        "convenience_store_name": "세븐일레븐 안암학사점",
        "distance": 184.2752039178654,
        "walking_time": "약 3분"
      },
      {
        "convenience_store_lat": 37.59007684,
        "convenience_store_lon": 127.0298287,
        "convenience_store_type": "편의점",
        "convenience_store_name": "미니스톱 안암역점",
        "distance": 224.2063645278725,
        "walking_time": "약 4분"
      },
      {
        "convenience_store_lat": 37.58454931,
        "convenience_store_lon": 127.0310005,
        "convenience_store_type": "편의점",
        "convenience_store_name": "GS25 고대우신향점",
        "distance": 399.4546383154258,
        "walking_time": "약 6분"
      },
      {
        "convenience_store_lat": 37.58820427,
        "convenience_store_lon": 127.0349167,
        "convenience_store_type": "편의점",
        "convenience_store_name": "GS25 고대으뜸점",
        "distance": 400.5914290417833,
        "walking_time": "약 6분"
      },
      {
        "convenience_store_lat": 37.58571441,
        "convenience_store_lon": 127.0338612,
        "convenience_store_type": "편의점",
        "convenience_store_name": "세븐일레븐 고대원룸점",
        "distance": 406.5752194349116,
        "walking_time": "약 7분"
      },
      {
        "convenience_store_lat": 37.58620693,
        "convenience_store_lon": 127.0343616,
        "convenience_store_type": "편의점",
        "convenience_store_name": "CU 제기원룸점",
        "distance": 410.1438498298251,
        "walking_time": "약 7분"
      },
      {
        "convenience_store_lat": 37.58814714,
        "convenience_store_lon": 127.0355137,
        "convenience_store_type": "편의점",
        "convenience_store_name": "세븐일레븐 고대로데오점",
        "distance": 453.0707767508855,
        "walking_time": "약 7분"
      }
    ],
    "daycare": [
      {
        "daycare_lat": 37.5873679,
        "daycare_lon": 127.0302559,
        "daycare_type": "어린이집",
        "daycare_name": "한울타리어린이집",
        "distance": 82.81841189216956,
        "walking_time": "약 2분"
      },
      {
        "daycare_lat": 37.58550662,
        "daycare_lon": 127.0303978,
        "daycare_type": "어린이집",
        "daycare_name": "예찬어린이집",
        "distance": 289.15799995832026,
        "walking_time": "약 5분"
      },
      {
        "daycare_lat": 37.59107924874474,
        "daycare_lon": 127.03032792993572,
        "daycare_type": "어린이집",
        "daycare_name": "고려대학교의료원 안암병원 어린이집",
        "distance": 330.5217914743456,
        "walking_time": "약 5분"
      },
      {
        "daycare_lat": 37.59112201233908,
        "daycare_lon": 127.03045815874472,
        "daycare_type": "어린이집",
        "daycare_name": "고려대학교 서울캠퍼스 어린이집",
        "distance": 335.34001642619654,
        "walking_time": "약 6분"
      },
      {
        "daycare_lat": 37.59108943512823,
        "daycare_lon": 127.0310016365266,
        "daycare_type": "어린이집",
        "daycare_name": "연화어린이집",
        "distance": 336.24001240685226,
        "walking_time": "약 6분"
      },
      {
        "daycare_lat": 37.58404256,
        "daycare_lon": 127.0322793,
        "daycare_type": "어린이집",
        "daycare_name": "언덕위에 하얀 어린이집",
        "distance": 482.18168448290817,
        "walking_time": "약 8분"
      },
      {
        "daycare_lat": 37.58357773,
        "daycare_lon": 127.0314135,
        "daycare_type": "어린이집",
        "daycare_name": "아이나무킨더어린이집",
        "distance": 511.924956321919,
        "walking_time": "약 8분"
      },
      {
        "daycare_lat": 37.58325483446309,
        "daycare_lon": 127.02930921305362,
        "daycare_type": "어린이집",
        "daycare_name": "안암동 하나금융그룹 직장어린이집",
        "distance": 547.6031940078276,
        "walking_time": "약 9분"
      },
      {
        "daycare_lat": 37.58396475,
        "daycare_lon": 127.0342209,
        "daycare_type": "어린이집",
        "daycare_name": "사랑아이방과후어린이집",
        "distance": 571.9877384848454,
        "walking_time": "약 9분"
      },
      {
        "daycare_lat": 37.58396475,
        "daycare_lon": 127.0342209,
        "daycare_type": "어린이집",
        "daycare_name": "해오름어린이집",
        "distance": 571.9877384848454,
        "walking_time": "약 9분"
      }
    ],
    "education": [
      {
        "education_lat": 37.589530692665726,
        "education_lon": 127.03434961764154,
        "education_type": "박물관/기념관",
        "education_name": "고려대학교 박물관",
        "distance": 384.56997951114863,
        "walking_time": "약 6분"
      },
      {
        "education_lat": 37.58732488,
        "education_lon": 127.0352799,
        "education_type": "미술관/갤러리",
        "education_name": "고갤러리",
        "distance": 441.1085805661719,
        "walking_time": "약 7분"
      },
      {
        "education_lat": 37.58509731,
        "education_lon": 127.0351202,
        "education_type": "도서관",
        "education_name": "제기동감초마을현진건기념도서관",
        "distance": 535.7656818998491,
        "walking_time": "약 8분"
      },
      {
        "education_lat": 37.59165248,
        "education_lon": 127.0221456,
        "education_type": "박물관/기념관",
        "education_name": "성신여자대학교 박물관",
        "distance": 825.1104680101861,
        "walking_time": "약 13분"
      },
      {
        "education_lat": 37.59262641,
        "education_lon": 127.0208992,
        "education_type": "미술관/갤러리",
        "education_name": "스페이스 아텔",
        "distance": 974.2585736998748,
        "walking_time": "약 15분"
      },
      {
        "education_lat": 37.58060041,
        "education_lon": 127.0375866,
        "education_type": "박물관/기념관",
        "education_name": "서울한방진흥센터",
        "distance": 1049.222358930968,
        "walking_time": "약 16분"
      },
      {
        "education_lat": 37.58060041,
        "education_lon": 127.0375866,
        "education_type": "박물관/기념관",
        "education_name": "서울약령시한의약박물관",
        "distance": 1049.222358930968,
        "walking_time": "약 16분"
      },
      {
        "education_lat": 37.59099289,
        "education_lon": 127.0427032,
        "education_type": "박물관/기념관",
        "education_name": "세종대왕기념관",
        "distance": 1132.9107987413454,
        "walking_time": "약 17분"
      },
      {
        "education_lat": 37.59070597134996,
        "education_lon": 127.04281951646152,
        "education_type": "박물관/기념관",
        "education_name": "김희수아트센터",
        "distance": 1134.1999616808775,
        "walking_time": "약 17분"
      },
      {
        "education_lat": 37.57610447,
        "education_lon": 127.0303279,
        "education_type": "도서관",
        "education_name": "용두어린이영어도서관",
        "distance": 1334.6261005381632,
        "walking_time": "약 20분"
      }
    ],
    "fitness": [
      {
        "fitness_lat": 37.58712925,
        "fitness_lon": 127.0294635,
        "fitness_type": "운동시설",
        "fitness_name": "플러스 휘트니스클럽",
        "distance": 135.01246355153006,
        "walking_time": "약 3분"
      },
      {
        "fitness_lat": 37.58615067,
        "fitness_lon": 127.030553,
        "fitness_type": "운동시설",
        "fitness_name": "거츠 트레이닝 센터",
        "distance": 218.1178268759516,
        "walking_time": "약 4분"
      },
      {
        "fitness_lat": 37.5859197,
        "fitness_lon": 127.0289681,
        "fitness_type": "운동시설",
        "fitness_name": "닥터스트렝스",
        "distance": 272.867780232905,
        "walking_time": "약 5분"
      },
      {
        "fitness_lat": 37.5855540150335,
        "fitness_lon": 127.030625718323,
        "fitness_type": "운동시설",
        "fitness_name": "에너메카 휘트니스",
        "distance": 284.7579181295525,
        "walking_time": "약 5분"
      },
      {
        "fitness_lat": 37.58548923,
        "fitness_lon": 127.0292141,
        "fitness_type": "운동시설",
        "fitness_name": "스마일 보이짐",
        "distance": 308.445724164169,
        "walking_time": "약 5분"
      },
      {
        "fitness_lat": 37.58622404,
        "fitness_lon": 127.0334556,
        "fitness_type": "운동시설",
        "fitness_name": "셀리핏",
        "distance": 343.0206940221954,
        "walking_time": "약 6분"
      },
      {
        "fitness_lat": 37.5844055,
        "fitness_lon": 127.0292636,
        "fitness_type": "운동시설",
        "fitness_name": "조인성퍼스널트레이닝No.4",
        "distance": 423.0170758267564,
        "walking_time": "약 7분"
      },
      {
        "fitness_lat": 37.58399324,
        "fitness_lon": 127.0302157,
        "fitness_type": "운동시설",
        "fitness_name": "샤크짐2호점",
        "distance": 457.63652571379913,
        "walking_time": "약 7분"
      },
      {
        "fitness_lat": 37.5839294883991,
        "fitness_lon": 127.029709018435,
        "fitness_type": "운동시설",
        "fitness_name": "안암헬스",
        "distance": 468.1771115443268,
        "walking_time": "약 7분"
      },
      {
        "fitness_lat": 37.58402099,
        "fitness_lon": 127.034197,
        "fitness_type": "운동시설",
        "fitness_name": "동대문종합사회복지관(체력단련장업)",
        "distance": 565.706810062666,
        "walking_time": "약 9분"
      }
    ],
    "gas_station": [
      {
        "gas_station_lat": 37.58557027,
        "gas_station_lon": 127.0318581,
        "gas_station_type": "주유소",
        "gas_station_name": "신방주유소",
        "distance": 310.9844249318806,
        "walking_time": "약 5분"
      },
      {
        "gas_station_lat": 37.58921404,
        "gas_station_lon": 127.036004,
        "gas_station_type": "주유소",
        "gas_station_name": "풍한주유소",
        "distance": 511.286494208448,
        "walking_time": "약 8분"
      },
      {
        "gas_station_lat": 37.5914409,
        "gas_station_lon": 127.0366979,
        "gas_station_type": "주유소",
        "gas_station_name": "현대오일뱅크(주)직영고대셀프주유소",
        "distance": 669.4025765171664,
        "walking_time": "약 10분"
      },
      {
        "gas_station_lat": 37.59577164,
        "gas_station_lon": 127.0360077,
        "gas_station_type": "주유소",
        "gas_station_name": "(주)중앙에너비스 종암지점",
        "distance": 986.3698530872476,
        "walking_time": "약 15분"
      },
      {
        "gas_station_lat": 37.58295795,
        "gas_station_lon": 127.0203742,
        "gas_station_type": "주유소",
        "gas_station_name": "동일주유소",
        "distance": 1050.6701903807664,
        "walking_time": "약 16분"
      },
      {
        "gas_station_lat": 37.58800922,
        "gas_station_lon": 127.042553,
        "gas_station_type": "주유소",
        "gas_station_name": "㈜홍릉주유소",
        "distance": 1073.3562017501004,
        "walking_time": "약 17분"
      },
      {
        "gas_station_lat": 37.57794807,
        "gas_station_lon": 127.0228008,
        "gas_station_type": "주유소",
        "gas_station_name": "이케이에너지 주식회사",
        "distance": 1311.92709497185,
        "walking_time": "약 20분"
      },
      {
        "gas_station_lat": 37.57586502,
        "gas_station_lon": 127.0377188,
        "gas_station_type": "주유소",
        "gas_station_name": "대성산업㈜동마장 주유소",
        "distance": 1507.354247236642,
        "walking_time": "약 23분"
      },
      {
        "gas_station_lat": 37.57004131,
        "gas_station_lon": 127.0273918,
        "gas_station_type": "주유소",
        "gas_station_name": "청계로주유소",
        "distance": 2025.9076938195296,
        "walking_time": "약 31분"
      },
      {
        "gas_station_lat": 37.57052365,
        "gas_station_lon": 127.0380038,
        "gas_station_type": "주유소",
        "gas_station_name": "경진주유소",
        "distance": 2067.6153137146707,
        "walking_time": "약 31분"
      }
    ],
    "hospital": [
      {
        "hospital_lat": 37.58729349,
        "hospital_lon": 127.0291389,
        "hospital_type": "병원",
        "hospital_name": "크림슨내과의원",
        "distance": 141.37896335095124,
        "walking_time": "약 3분"
      },
      {
        "hospital_lat": 37.58699209,
        "hospital_lon": 127.0295761,
        "hospital_type": "병원",
        "hospital_name": "위드치과의원",
        "distance": 142.43339709800549,
        "walking_time": "약 3분"
      },
      {
        "hospital_lat": 37.58665936,
        "hospital_lon": 127.029167,
        "hospital_type": "병원",
        "hospital_name": "닥터민치과의원",
        "distance": 192.83393273520244,
        "walking_time": "약 3분"
      },
      {
        "hospital_lat": 37.58646961,
        "hospital_lon": 127.0291829,
        "hospital_type": "병원",
        "hospital_name": "에이치엔비의원",
        "distance": 210.06495105984703,
        "walking_time": "약 4분"
      },
      {
        "hospital_lat": 37.58568765,
        "hospital_lon": 127.0295086,
        "hospital_type": "병원",
        "hospital_name": "휴앤힐정신건강의학과의원",
        "distance": 279.5698141305261,
        "walking_time": "약 5분"
      },
      {
        "hospital_lat": 37.58673662,
        "hospital_lon": 127.0334396,
        "hospital_type": "병원",
        "hospital_name": "고려한의원",
        "distance": 310.28998305157904,
        "walking_time": "약 5분"
      },
      {
        "hospital_lat": 37.58510934,
        "hospital_lon": 127.031435,
        "hospital_type": "병원",
        "hospital_name": "동성제일한의원",
        "distance": 346.23479443256747,
        "walking_time": "약 6분"
      },
      {
        "hospital_lat": 37.58487973,
        "hospital_lon": 127.0312355,
        "hospital_type": "병원",
        "hospital_name": "의료법인 우신향병원",
        "distance": 366.8335966863784,
        "walking_time": "약 6분"
      },
      {
        "hospital_lat": 37.58737715,
        "hospital_lon": 127.0262489,
        "hospital_type": "병원",
        "hospital_name": "학교법인고려중앙학원고려대학교의과대학부속병원(안암병원)",
        "distance": 372.2532625483738,
        "walking_time": "약 6분"
      },
      {
        "hospital_lat": 37.58459967,
        "hospital_lon": 127.0292578,
        "hospital_type": "병원",
        "hospital_name": "안암부부한의원",
        "distance": 402.1650248366113,
        "walking_time": "약 7분"
      }
    ],
    "music_room": [
      {
        "music_room_lat": 37.58711235,
        "music_room_lon": 127.0296707,
        "music_room_type": "노래방",
        "music_room_name": "판타스틱 코인 노래연습장",
        "distance": 126.69192816220848,
        "walking_time": "약 2분"
      },
      {
        "music_room_lat": 37.58687572,
        "music_room_lon": 127.0297554,
        "music_room_type": "노래방",
        "music_room_name": "리코퀸 노래연습장(고려대점)",
        "distance": 147.29815845405156,
        "walking_time": "약 3분"
      },
      {
        "music_room_lat": 37.58615437,
        "music_room_lon": 127.0298209,
        "music_room_type": "노래방",
        "music_room_name": "夜宴 KTV 노래연습장",
        "distance": 222.48647019873115,
        "walking_time": "약 4분"
      },
      {
        "music_room_lat": 37.58820427,
        "music_room_lon": 127.0349167,
        "music_room_type": "노래방",
        "music_room_name": "GF노래연습장",
        "distance": 400.5914290417833,
        "walking_time": "약 6분"
      },
      {
        "music_room_lat": 37.58620693,
        "music_room_lon": 127.0343616,
        "music_room_type": "노래방",
        "music_room_name": "윤",
        "distance": 410.1438498298251,
        "walking_time": "약 7분"
      },
      {
        "music_room_lat": 37.58821783,
        "music_room_lon": 127.0353638,
        "music_room_type": "노래방",
        "music_room_name": "Name-ez 코인노래연습장",
        "distance": 440.0131099120691,
        "walking_time": "약 7분"
      },
      {
        "music_room_lat": 37.58392949,
        "music_room_lon": 127.029709,
        "music_room_type": "노래방",
        "music_room_name": "닥터브이 코인노래연습장",
        "distance": 468.1771376171692,
        "walking_time": "약 7분"
      },
      {
        "music_room_lat": 37.58369334,
        "music_room_lon": 127.0300507,
        "music_room_type": "노래방",
        "music_room_name": "HUE 노래연습장",
        "distance": 491.5925230124076,
        "walking_time": "약 8분"
      },
      {
        "music_room_lat": 37.58048083,
        "music_room_lon": 127.0356168,
        "music_room_type": "노래방",
        "music_room_name": "현대",
        "distance": 965.7528319602744,
        "walking_time": "약 15분"
      },
      {
        "music_room_lat": 37.5906173,
        "music_room_lon": 127.0410787,
        "music_room_type": "노래방",
        "music_room_name": "홍능",
        "distance": 983.8093645074962,
        "walking_time": "약 15분"
      }
    ],
    "park": [
      {
        "park_lat": 37.5965837,
        "park_lon": 127.0252858,
        "park_type": "공원",
        "park_name": "개운산근린공원",
        "distance": 1043.673339473003,
        "walking_time": "약 16분"
      },
      {
        "park_lat": 37.5732791,
        "park_lon": 127.0390042,
        "park_type": "공원",
        "park_name": "용두근린공원",
        "distance": 1815.8018648336213,
        "walking_time": "약 28분"
      },
      {
        "park_lat": 37.5732438,
        "park_lon": 127.0488644,
        "park_type": "공원",
        "park_name": "간데메근린공원",
        "distance": 2320.987043945199,
        "walking_time": "약 35분"
      }
    ],
    "park_station": [
      {
        "park_station_lat": 37.58556009,
        "park_station_lon": 127.0365012,
        "park_station_type": "주차장",
        "park_station_name": "정릉천변 공영주차장",
        "distance": 609.8189713340362,
        "walking_time": "약 10분"
      },
      {
        "park_station_lat": 37.5799979,
        "park_station_lon": 127.0350262,
        "park_station_type": "주차장",
        "park_station_name": "정릉천복개 공영주차장",
        "distance": 990.576428812932,
        "walking_time": "약 15분"
      },
      {
        "park_station_lat": 37.5968653,
        "park_station_lon": 127.0263303,
        "park_station_type": "주차장",
        "park_station_name": "개운산",
        "distance": 1036.9423601299357,
        "walking_time": "약 16분"
      },
      {
        "park_station_lat": 37.58065617,
        "park_station_lon": 127.0376267,
        "park_station_type": "주차장",
        "park_station_name": "서울약령시공영주차장",
        "distance": 1046.4512797467448,
        "walking_time": "약 16분"
      },
      {
        "park_station_lat": 37.58297511,
        "park_station_lon": 127.0404868,
        "park_station_type": "주차장",
        "park_station_name": "동서시장 식품 공영주차장",
        "distance": 1058.299239446538,
        "walking_time": "약 16분"
      },
      {
        "park_station_lat": 37.58066476,
        "park_station_lon": 127.0405498,
        "park_station_type": "주차장",
        "park_station_name": "동서시장 과일채소부 공영주차장",
        "distance": 1220.303104955235,
        "walking_time": "약 19분"
      },
      {
        "park_station_lat": 37.58544083,
        "park_station_lon": 127.0445474,
        "park_station_type": "주차장",
        "park_station_name": "청량리동 공영주차장",
        "distance": 1283.755779886755,
        "walking_time": "약 20분"
      },
      {
        "park_station_lat": 37.57733166,
        "park_station_lon": 127.0368424,
        "park_station_type": "주차장",
        "park_station_name": "공유) 용신동 B 98구간",
        "distance": 1326.907527655156,
        "walking_time": "약 20분"
      },
      {
        "park_station_lat": 37.57720534,
        "park_station_lon": 127.0368674,
        "park_station_type": "주차장",
        "park_station_name": "공유) 용신동 B 98구간",
        "distance": 1340.5437530644788,
        "walking_time": "약 21분"
      },
      {
        "park_station_lat": 37.57522988,
        "park_station_lon": 127.0211962,
        "park_station_type": "주차장",
        "park_station_name": "힐스테이트옆 이륜차 주차장",
        "distance": 1644.398083259468,
        "walking_time": "약 25분"
      }
    ],
    "pc_room": [
      {
        "pc_room_lat": 37.5875251423782,
        "pc_room_lon": 127.02910131363,
        "pc_room_type": "PC방",
        "pc_room_name": "Maps PC방",
        "distance": 129.31349070055788,
        "walking_time": "약 2분"
      },
      {
        "pc_room_lat": 37.5869920871665,
        "pc_room_lon": 127.029576068606,
        "pc_room_type": "PC방",
        "pc_room_name": "NINE PC방",
        "distance": 142.43503334889056,
        "walking_time": "약 3분"
      },
      {
        "pc_room_lat": 37.5848050119051,
        "pc_room_lon": 127.029234304551,
        "pc_room_type": "PC방",
        "pc_room_name": "나인티 PC카페",
        "distance": 380.6037617557025,
        "walking_time": "약 6분"
      },
      {
        "pc_room_lat": 37.5839294883991,
        "pc_room_lon": 127.029709018435,
        "pc_room_type": "PC방",
        "pc_room_name": "레벨업 PC카페(고대점)",
        "distance": 468.1771115443268,
        "walking_time": "약 7분"
      },
      {
        "pc_room_lat": 37.5822567123651,
        "pc_room_lon": 127.028206118118,
        "pc_room_type": "PC방",
        "pc_room_name": "코리아PC2 (청소년PC방)",
        "distance": 677.9400125051018,
        "walking_time": "약 11분"
      },
      {
        "pc_room_lat": 37.5926435114545,
        "pc_room_lon": 127.035629411133,
        "pc_room_type": "PC방",
        "pc_room_name": "애니락PC방",
        "distance": 684.8643375626785,
        "walking_time": "약 11분"
      },
      {
        "pc_room_lat": 37.5826101307154,
        "pc_room_lon": 127.038824069558,
        "pc_room_type": "PC방",
        "pc_room_name": "모두의게임 PC방",
        "distance": 963.465127963334,
        "walking_time": "약 15분"
      },
      {
        "pc_room_lat": 37.583713478664,
        "pc_room_lon": 127.020603298681,
        "pc_room_type": "PC방",
        "pc_room_name": "앤유PC",
        "distance": 989.7457698858192,
        "walking_time": "약 15분"
      },
      {
        "pc_room_lat": 37.5981646164402,
        "pc_room_lon": 127.033758520559,
        "pc_room_type": "PC방",
        "pc_room_name": "샹떼PC방 종암점",
        "distance": 1157.4747218118252,
        "walking_time": "약 18분"
      },
      {
        "pc_room_lat": 37.5826974951196,
        "pc_room_lon": 127.041819093686,
        "pc_room_type": "PC방",
        "pc_room_name": "잭팟PC",
        "distance": 1174.406285484782,
        "walking_time": "약 18분"
      }
    ],
    "police_office": [
      {
        "police_office_lat": 37.58556267,
        "police_office_lon": 127.0420264,
        "police_office_type": "경찰소",
        "police_office_name": "제기파출소",
        "distance": 1065.1770087495556,
        "walking_time": "약 16분"
      },
      {
        "police_office_lat": 37.58410673,
        "police_office_lon": 127.0452724,
        "police_office_type": "경찰소",
        "police_office_name": "청량리파출소",
        "distance": 1386.2509005573374,
        "walking_time": "약 21분"
      },
      {
        "police_office_lat": 37.57284342,
        "police_office_lon": 127.037209,
        "police_office_type": "경찰소",
        "police_office_name": "용신지구대",
        "distance": 1800.9971083270436,
        "walking_time": "약 27분"
      },
      {
        "police_office_lat": 37.57612945,
        "police_office_lon": 127.0479381,
        "police_office_type": "경찰소",
        "police_office_name": "전농1파출소",
        "distance": 2042.0242520810043,
        "walking_time": "약 31분"
      }
    ],
    "post_office": [
      {
        "post_office_lat": 37.58870342,
        "post_office_lon": 127.0316983,
        "post_office_type": "우체국",
        "post_office_name": "고려대학교우체국",
        "distance": 134.36978749582562,
        "walking_time": "약 3분"
      },
      {
        "post_office_lat": 37.58351147,
        "post_office_lon": 127.0305819,
        "post_office_type": "우체국",
        "post_office_name": "서울제기2동우편취급국",
        "distance": 511.3342287401776,
        "walking_time": "약 8분"
      },
      {
        "post_office_lat": 37.5818354,
        "post_office_lon": 127.0246137,
        "post_office_type": "우체국",
        "post_office_name": "서울삼익아파트우편취급국",
        "distance": 862.4270328373525,
        "walking_time": "약 13분"
      },
      {
        "post_office_lat": 37.5821361,
        "post_office_lon": 127.0388933,
        "post_office_type": "우체국",
        "post_office_name": "서울제기동우체국",
        "distance": 1002.3002191805892,
        "walking_time": "약 15분"
      },
      {
        "post_office_lat": 37.59603532,
        "post_office_lon": 127.0358462,
        "post_office_type": "우체국",
        "post_office_name": "서울종암동우체국",
        "distance": 1004.904143948416,
        "walking_time": "약 15분"
      },
      {
        "post_office_lat": 37.57718679,
        "post_office_lon": 127.0362385,
        "post_office_type": "우체국",
        "post_office_name": "서울용두1동우편취급국",
        "distance": 1319.732772872619,
        "walking_time": "약 20분"
      },
      {
        "post_office_lat": 37.58129117,
        "post_office_lon": 127.0451456,
        "post_office_type": "우체국",
        "post_office_name": "서울청량리우체국",
        "distance": 1506.3453865780048,
        "walking_time": "약 23분"
      },
      {
        "post_office_lat": 37.57477534,
        "post_office_lon": 127.0235321,
        "post_office_type": "우체국",
        "post_office_name": "동대문우체국",
        "distance": 1600.2620515317344,
        "walking_time": "약 24분"
      },
      {
        "post_office_lat": 37.570893,
        "post_office_lon": 127.0381863,
        "post_office_type": "우체국",
        "post_office_name": "서울마장동우체국",
        "distance": 2034.2100202940264,
        "walking_time": "약 31분"
      }
    ],
    "public_health_center": [
      {
        "public_health_center_lat": 37.57439172,
        "public_health_center_lon": 127.0398966,
        "public_health_center_type": "보건소",
        "public_health_center_name": "동대문구청",
        "distance": 1740.7720181706622,
        "walking_time": "약 26분"
      }
    ],
    "school": [
      {
        "school_lat": 37.5886903262008,
        "school_lon": 127.024660795253,
        "school_type": "고등학교",
        "school_name": "용문고등학교",
        "distance": 507.3905196996048,
        "walking_time": "약 8분"
      },
      {
        "school_lat": 37.5886903262008,
        "school_lon": 127.024660795253,
        "school_type": "중학교",
        "school_name": "용문중학교",
        "distance": 507.3905196996048,
        "walking_time": "약 8분"
      },
      {
        "school_lat": 37.5929705982625,
        "school_lon": 127.031747584508,
        "school_type": "중학교",
        "school_name": "종암중학교",
        "distance": 554.2226422871536,
        "walking_time": "약 9분"
      },
      {
        "school_lat": 37.5823074106355,
        "school_lon": 127.031856383108,
        "school_type": "초등학교",
        "school_name": "서울종암초등학교",
        "distance": 658.0157164316265,
        "walking_time": "약 10분"
      },
      {
        "school_lat": 37.5871586956296,
        "school_lon": 127.022098883314,
        "school_type": "초등학교",
        "school_name": "서울안암초등학교",
        "distance": 736.55805668601,
        "walking_time": "약 11분"
      },
      {
        "school_lat": 37.5818502321361,
        "school_lon": 127.033850440748,
        "school_type": "중학교",
        "school_name": "성일중학교",
        "distance": 760.2462691812713,
        "walking_time": "약 12분"
      },
      {
        "school_lat": 37.586120384461,
        "school_lon": 127.039414975087,
        "school_type": "초등학교",
        "school_name": "서울홍파초등학교",
        "distance": 826.8650224930533,
        "walking_time": "약 13분"
      },
      {
        "school_lat": 37.594521188017,
        "school_lon": 127.035297176327,
        "school_type": "초등학교",
        "school_name": "서울숭례초등학교",
        "distance": 834.8678010571873,
        "walking_time": "약 13분"
      },
      {
        "school_lat": 37.5946266547149,
        "school_lon": 127.024842114657,
        "school_type": "중학교",
        "school_name": "개운중학교",
        "distance": 873.4705592919801,
        "walking_time": "약 14분"
      },
      {
        "school_lat": 37.5946226781717,
        "school_lon": 127.023128563512,
        "school_type": "중학교",
        "school_name": "성신여자중학교",
        "distance": 965.5195554551456,
        "walking_time": "약 15분"
      }
    ],
    "self_laundromat": [
      {
        "self_laundromat_lat": 37.58612089,
        "self_laundromat_lon": 127.0300528,
        "self_laundromat_type": "셀프 빨래방",
        "self_laundromat_name": "화이트365 안암점",
        "distance": 222.6291526859716,
        "walking_time": "약 4분"
      },
      {
        "self_laundromat_lat": 37.58612089,
        "self_laundromat_lon": 127.0300528,
        "self_laundromat_type": "셀프 빨래방",
        "self_laundromat_name": "화이트365 안암점",
        "distance": 222.6291526859716,
        "walking_time": "약 4분"
      },
      {
        "self_laundromat_lat": 37.59371199,
        "self_laundromat_lon": 127.0344549,
        "self_laundromat_type": "셀프 빨래방",
        "self_laundromat_name": "덱스터 종암점",
        "distance": 719.6181006049716,
        "walking_time": "약 11분"
      },
      {
        "self_laundromat_lat": 37.59371199,
        "self_laundromat_lon": 127.0344549,
        "self_laundromat_type": "셀프 빨래방",
        "self_laundromat_name": "덱스터 종암점",
        "distance": 719.6181006049716,
        "walking_time": "약 11분"
      },
      {
        "self_laundromat_lat": 37.59410634,
        "self_laundromat_lon": 127.0338568,
        "self_laundromat_type": "셀프 빨래방",
        "self_laundromat_name": "크린업24 종암고대점",
        "distance": 734.3653682250057,
        "walking_time": "약 11분"
      },
      {
        "self_laundromat_lat": 37.59410634,
        "self_laundromat_lon": 127.0338568,
        "self_laundromat_type": "셀프 빨래방",
        "self_laundromat_name": "크린업24 종암고대점",
        "distance": 734.3653682250057,
        "walking_time": "약 11분"
      },
      {
        "self_laundromat_lat": 37.59408883,
        "self_laundromat_lon": 127.0342803,
        "self_laundromat_type": "셀프 빨래방",
        "self_laundromat_name": "위니아24크린샵 종암점",
        "distance": 749.0027163494022,
        "walking_time": "약 12분"
      },
      {
        "self_laundromat_lat": 37.59408883,
        "self_laundromat_lon": 127.0342803,
        "self_laundromat_type": "셀프 빨래방",
        "self_laundromat_name": "위니아24크린샵 종암점",
        "distance": 749.0027163494022,
        "walking_time": "약 12분"
      },
      {
        "self_laundromat_lat": 37.58488107,
        "self_laundromat_lon": 127.0216545,
        "self_laundromat_type": "셀프 빨래방",
        "self_laundromat_name": "워시팡팡 셀프빨래방24시 안암점",
        "distance": 847.7664937576554,
        "walking_time": "약 13분"
      },
      {
        "self_laundromat_lat": 37.58488107,
        "self_laundromat_lon": 127.0216545,
        "self_laundromat_type": "셀프 빨래방",
        "self_laundromat_name": "워시팡팡 셀프빨래방24시 안암점",
        "distance": 847.7664937576554,
        "walking_time": "약 13분"
      }
    ],
    "subway": [
      {
        "subway_lat": 37.5864696091911,
        "subway_lon": 127.0291828742,
        "subway_type": "지하철",
        "subway_name": "6호선-안암(고대병원앞)역",
        "distance": 210.0661629161886,
        "walking_time": "약 4분"
      },
      {
        "subway_lat": 37.590649686622,
        "subway_lon": 127.036284948669,
        "subway_type": "지하철",
        "subway_name": "6호선-고려대(종암)역",
        "distance": 592.7698454594836,
        "walking_time": "약 9분"
      },
      {
        "subway_lat": 37.5781967284885,
        "subway_lon": 127.034690599752,
        "subway_type": "지하철",
        "subway_name": "1호선-제기동역",
        "distance": 1165.829918408484,
        "walking_time": "약 18분"
      },
      {
        "subway_lat": 37.5747187974165,
        "subway_lon": 127.025093714935,
        "subway_type": "지하철",
        "subway_name": "1호선-신설동역",
        "distance": 1559.6698787043624,
        "walking_time": "약 24분"
      },
      {
        "subway_lat": 37.5747187974165,
        "subway_lon": 127.025093714935,
        "subway_type": "지하철",
        "subway_name": "2호선-신설동역",
        "distance": 1559.6698787043624,
        "walking_time": "약 24분"
      },
      {
        "subway_lat": 37.5808935779959,
        "subway_lon": 127.045572642704,
        "subway_type": "지하철",
        "subway_name": "1호선-청량리(서울시립대입구)역",
        "distance": 1561.2307958427773,
        "walking_time": "약 24분"
      },
      {
        "subway_lat": 37.5743674429059,
        "subway_lon": 127.037817612866,
        "subway_type": "지하철",
        "subway_name": "2호선-용두(동대문구청)역",
        "distance": 1662.697507492393,
        "walking_time": "약 25분"
      }
    ],
    "supermarket": [
      {
        "supermarket_lat": 37.57840049,
        "supermarket_lon": 127.0295518,
        "supermarket_type": "마트",
        "supermarket_name": "용두시장",
        "distance": 1081.7318461428006,
        "walking_time": "약 17분"
      },
      {
        "supermarket_lat": 37.58077519,
        "supermarket_lon": 127.0214395,
        "supermarket_type": "마트",
        "supermarket_name": "홈플러스익스프레스 보문점",
        "distance": 1133.2182305302786,
        "walking_time": "약 17분"
      },
      {
        "supermarket_lat": 37.57860789,
        "supermarket_lon": 127.0360639,
        "supermarket_type": "마트",
        "supermarket_name": "한솔동의보감",
        "distance": 1169.2873898283224,
        "walking_time": "약 18분"
      },
      {
        "supermarket_lat": 37.57849586,
        "supermarket_lon": 127.0364929,
        "supermarket_type": "마트",
        "supermarket_name": "불로장생타워",
        "distance": 1197.10243235074,
        "walking_time": "약 18분"
      },
      {
        "supermarket_lat": 37.57903777,
        "supermarket_lon": 127.0391429,
        "supermarket_type": "마트",
        "supermarket_name": "경동시장",
        "distance": 1270.5554500688463,
        "walking_time": "약 19분"
      },
      {
        "supermarket_lat": 37.57903777,
        "supermarket_lon": 127.0391429,
        "supermarket_type": "마트",
        "supermarket_name": "노브랜드 경동시장점",
        "distance": 1270.5554500688463,
        "walking_time": "약 19분"
      },
      {
        "supermarket_lat": 37.58144427,
        "supermarket_lon": 127.044387,
        "supermarket_type": "마트",
        "supermarket_name": "청량리현대코아",
        "distance": 1440.1348425190615,
        "walking_time": "약 22분"
      },
      {
        "supermarket_lat": 37.57758804,
        "supermarket_lon": 127.0428414,
        "supermarket_type": "마트",
        "supermarket_name": "청량리역 한양수자인 그라시엘 판매시설",
        "distance": 1604.8151602475807,
        "walking_time": "약 24분"
      },
      {
        "supermarket_lat": 37.57454832,
        "supermarket_lon": 127.0387678,
        "supermarket_type": "마트",
        "supermarket_name": "홈플러스(주) 동대문점",
        "distance": 1679.4036549008722,
        "walking_time": "약 26분"
      },
      {
        "supermarket_lat": 37.57271319,
        "supermarket_lon": 127.0255029,
        "supermarket_type": "마트",
        "supermarket_name": "서울풍물시장",
        "distance": 1764.6721077172913,
        "walking_time": "약 27분"
      }
    ],
    "tax_office": [
      {
        "tax_office_lat": 37.58324212,
        "tax_office_lon": 127.0478161,
        "tax_office_type": "세무서",
        "tax_office_name": "동대문세무서",
        "distance": 1629.5067838610505,
        "walking_time": "약 25분"
      }
    ],
    "university": [
      {
        "university_lat": 37.5887034223667,
        "university_lon": 127.031698331241,
        "university_type": "대학교",
        "university_name": "고려대학교",
        "distance": 134.3723114640135,
        "walking_time": "약 3분"
      }
    ]
  }
}