{
  "클러스터_위도": 37.47151233345719,
  "클러스터_경도": 126.8955030000766,
  "클러스터_level": 3.0,
  "facilities": {
    "bus": [
      {
        "bus_lat": 37.47201507,
        "bus_lon": 126.8959625,
        "bus_type": "버스정류장",
        "bus_name": "독산사거리",
        "distance": 69.06074803129528,
        "walking_time": "약 2분"
      },
      {
        "bus_lat": 37.47237927,
        "bus_lon": 126.8955994,
        "bus_type": "버스정류장",
        "bus_name": "서울디자인직업전문학교.청년취업사관학교",
        "distance": 96.77360533750532,
        "walking_time": "약 2분"
      },
      {
        "bus_lat": 37.4723732,
        "bus_lon": 126.8958617,
        "bus_type": "버스정류장",
        "bus_name": "서울디자인직업전문학교.청년취업사관학교",
        "distance": 100.8223127582171,
        "walking_time": "약 2분"
      },
      {
        "bus_lat": 37.47178362,
        "bus_lon": 126.8965997,
        "bus_type": "버스정류장",
        "bus_name": "독산사거리",
        "distance": 101.37623560380104,
        "walking_time": "약 2분"
      },
      {
        "bus_lat": 37.47202091,
        "bus_lon": 126.8938893,
        "bus_type": "버스정류장",
        "bus_name": "길상마트",
        "distance": 153.2268255138199,
        "walking_time": "약 3분"
      },
      {
        "bus_lat": 37.47206677,
        "bus_lon": 126.893783,
        "bus_type": "버스정류장",
        "bus_name": "길상마트",
        "distance": 163.8325073372281,
        "walking_time": "약 3분"
      },
      {
        "bus_lat": 37.47002992,
        "bus_lon": 126.8954116,
        "bus_type": "버스정류장",
        "bus_name": "빅마켓",
        "distance": 165.03409432768754,
        "walking_time": "약 3분"
      },
      {
        "bus_lat": 37.46990409,
        "bus_lon": 126.8955443,
        "bus_type": "버스정류장",
        "bus_name": "현대지식산업센터",
        "distance": 178.86565226935787,
        "walking_time": "약 3분"
      },
      {
        "bus_lat": 37.47051862,
        "bus_lon": 126.8937185,
        "bus_type": "버스정류장",
        "bus_name": "빅마켓.청광아파트",
        "distance": 192.38134535937647,
        "walking_time": "약 3분"
      },
      {
        "bus_lat": 37.47050951,
        "bus_lon": 126.8936133,
        "bus_type": "버스정류장",
        "bus_name": "빅마켓.청광아파트",
        "distance": 200.6136475403993,
        "walking_time": "약 3분"
      }
    ],
    "community_center": [
      {
        "community_center_lat": 37.47021905,
        "community_center_lon": 126.8970437,
        "community_center_type": "주민센터",
        "community_center_name": "독산1동 자치회관",
        "distance": 197.90862246449,
        "walking_time": "약 3분"
      },
      {
        "community_center_lat": 37.47689182,
        "community_center_lon": 126.8917817,
        "community_center_type": "주민센터",
        "community_center_name": "가산동 자치회관",
        "distance": 682.387304548051,
        "walking_time": "약 11분"
      },
      {
        "community_center_lat": 37.46607783,
        "community_center_lon": 126.8997789,
        "community_center_type": "주민센터",
        "community_center_name": "독산2동 자치회관",
        "distance": 712.4388377702652,
        "walking_time": "약 11분"
      },
      {
        "community_center_lat": 37.46755353,
        "community_center_lon": 126.9021682,
        "community_center_type": "주민센터",
        "community_center_name": "독산4동 자치회관",
        "distance": 734.6980290633098,
        "walking_time": "약 11분"
      },
      {
        "community_center_lat": 37.47516041,
        "community_center_lon": 126.9031745,
        "community_center_type": "주민센터",
        "community_center_name": "독산3동 자치회관",
        "distance": 789.2244838477142,
        "walking_time": "약 12분"
      },
      {
        "community_center_lat": 37.48254989,
        "community_center_lon": 126.8896421,
        "community_center_type": "주민센터",
        "community_center_name": "가리봉동 자치회관",
        "distance": 1331.840757296492,
        "walking_time": "약 20분"
      },
      {
        "community_center_lat": 37.48256328,
        "community_center_lon": 126.9077947,
        "community_center_type": "주민센터",
        "community_center_name": "조원동 자치회관",
        "distance": 1639.0479012876474,
        "walking_time": "약 25분"
      },
      {
        "community_center_lat": 37.48565541,
        "community_center_lon": 126.8866217,
        "community_center_type": "주민센터",
        "community_center_name": "구로4동 자치회관",
        "distance": 1757.0956474532877,
        "walking_time": "약 27분"
      },
      {
        "community_center_lat": 37.48734704,
        "community_center_lon": 126.89033,
        "community_center_type": "주민센터",
        "community_center_name": "구로3동 자치회관",
        "distance": 1818.9470051339256,
        "walking_time": "약 28분"
      }
    ],
    "convenience_store": [
      {
        "convenience_store_lat": 37.47049161,
        "convenience_store_lon": 126.8972654,
        "convenience_store_type": "편의점",
        "convenience_store_name": "CU 금천코스모점",
        "distance": 192.54307035223172,
        "walking_time": "약 3분"
      },
      {
        "convenience_store_lat": 37.47164905,
        "convenience_store_lon": 126.8977791,
        "convenience_store_type": "편의점",
        "convenience_store_name": "세븐일레븐 금천독산점",
        "distance": 201.44125108460392,
        "walking_time": "약 4분"
      },
      {
        "convenience_store_lat": 37.47018733,
        "convenience_store_lon": 126.8934864,
        "convenience_store_type": "편의점",
        "convenience_store_name": "CU 독산마차길점",
        "distance": 231.04039191346817,
        "walking_time": "약 4분"
      },
      {
        "convenience_store_lat": 37.46918012,
        "convenience_store_lon": 126.8948279,
        "convenience_store_type": "편의점",
        "convenience_store_name": "세븐일레븐 금천리온점",
        "distance": 266.0861644241762,
        "walking_time": "약 4분"
      },
      {
        "convenience_store_lat": 37.46896278,
        "convenience_store_lon": 126.8956207,
        "convenience_store_type": "편의점",
        "convenience_store_name": "미니스톱 독산지식센터점",
        "distance": 283.68763871095194,
        "walking_time": "약 5분"
      },
      {
        "convenience_store_lat": 37.47394214,
        "convenience_store_lon": 126.8943226,
        "convenience_store_type": "편의점",
        "convenience_store_name": "세븐일레븐 가산광진점",
        "distance": 289.56799834806543,
        "walking_time": "약 5분"
      },
      {
        "convenience_store_lat": 37.47024357,
        "convenience_store_lon": 126.891916,
        "convenience_store_type": "편의점",
        "convenience_store_name": "미니스톱 독산진도점",
        "distance": 346.5719180195696,
        "walking_time": "약 6분"
      },
      {
        "convenience_store_lat": 37.47292468,
        "convenience_store_lon": 126.8993347,
        "convenience_store_type": "편의점",
        "convenience_store_name": "CU 독산시장점",
        "distance": 372.8354648681411,
        "walking_time": "약 6분"
      },
      {
        "convenience_store_lat": 37.4749811,
        "convenience_store_lon": 126.894731,
        "convenience_store_type": "편의점",
        "convenience_store_name": "CU 가산세일점",
        "distance": 391.6797400953125,
        "walking_time": "약 6분"
      },
      {
        "convenience_store_lat": 37.47243279,
        "convenience_store_lon": 126.8909707,
        "convenience_store_type": "편의점",
        "convenience_store_name": "CU 금천서울점",
        "distance": 412.86294849047096,
        "walking_time": "약 7분"
      }
    ],
    "daycare": [
      {
        "daycare_lat": 37.47234021,
        "daycare_lon": 126.895443,
        "daycare_type": "어린이집",
        "daycare_name": "백합어린이집",
        "distance": 92.20782915265718,
        "walking_time": "약 2분"
      },
      {
        "daycare_lat": 37.47006942,
        "daycare_lon": 126.8967765,
        "daycare_type": "어린이집",
        "daycare_name": "LG전자 어린이집",
        "distance": 195.89173989903827,
        "walking_time": "약 3분"
      },
      {
        "daycare_lat": 37.47234171,
        "daycare_lon": 126.8930045,
        "daycare_type": "어린이집",
        "daycare_name": "샛별어린이집",
        "distance": 239.00210881017523,
        "walking_time": "약 4분"
      },
      {
        "daycare_lat": 37.46928681692853,
        "daycare_lon": 126.89545471126831,
        "daycare_type": "어린이집",
        "daycare_name": "구립G밸리어린이집",
        "distance": 247.50283839070025,
        "walking_time": "약 4분"
      },
      {
        "daycare_lat": 37.4704162,
        "daycare_lon": 126.8920672,
        "daycare_type": "어린이집",
        "daycare_name": "금천G밸리어린이집",
        "distance": 326.7937500131615,
        "walking_time": "약 5분"
      },
      {
        "daycare_lat": 37.47263141,
        "daycare_lon": 126.8990327,
        "daycare_type": "어린이집",
        "daycare_name": "꾸러기어린이집",
        "distance": 335.43057293999726,
        "walking_time": "약 6분"
      },
      {
        "daycare_lat": 37.47475549,
        "daycare_lon": 126.8961695,
        "daycare_type": "어린이집",
        "daycare_name": "새터어린이집",
        "distance": 365.3876656825744,
        "walking_time": "약 6분"
      },
      {
        "daycare_lat": 37.4705383,
        "daycare_lon": 126.900195,
        "daycare_type": "어린이집",
        "daycare_name": "푸른솔어린이집",
        "distance": 428.0045396311095,
        "walking_time": "약 7분"
      },
      {
        "daycare_lat": 37.47296915,
        "daycare_lon": 126.9000802,
        "daycare_type": "어린이집",
        "daycare_name": "이레어린이집",
        "distance": 435.2074119781177,
        "walking_time": "약 7분"
      },
      {
        "daycare_lat": 37.46865939,
        "daycare_lon": 126.8989123,
        "daycare_type": "어린이집",
        "daycare_name": "친구어린이집",
        "distance": 437.22347612317856,
        "walking_time": "약 7분"
      }
    ],
    "education": [
      {
        "education_lat": 37.4718013,
        "education_lon": 126.896009,
        "education_type": "공연장",
        "education_name": "문화정원아트홀",
        "distance": 55.01345087599892,
        "walking_time": "약 1분"
      },
      {
        "education_lat": 37.46877706,
        "education_lon": 126.8944749,
        "education_type": "공연장",
        "education_name": "금천뮤지컬센터",
        "distance": 317.39349122142653,
        "walking_time": "약 5분"
      },
      {
        "education_lat": 37.47349155,
        "education_lon": 126.8921298,
        "education_type": "도서관",
        "education_name": "금천구립가산도서관",
        "distance": 370.20221529859015,
        "walking_time": "약 6분"
      },
      {
        "education_lat": 37.4798477,
        "education_lon": 126.8953185,
        "education_type": "박물관/기념관",
        "education_name": "G밸리산업박물관",
        "distance": 926.9934613802632,
        "walking_time": "약 14분"
      },
      {
        "education_lat": 37.46758019,
        "education_lon": 126.9081059,
        "education_type": "도서관",
        "education_name": "금천구립독산도서관",
        "distance": 1195.0963765282097,
        "walking_time": "약 18분"
      },
      {
        "education_lat": 37.48714316,
        "education_lon": 126.8901547,
        "education_type": "도서관",
        "education_name": "꿈마을도서관",
        "distance": 1801.0026849493463,
        "walking_time": "약 27분"
      },
      {
        "education_lat": 37.48606517,
        "education_lon": 126.9058854,
        "education_type": "도서관",
        "education_name": "신대방누리도서관",
        "distance": 1859.5512486880405,
        "walking_time": "약 28분"
      },
      {
        "education_lat": 37.48737738,
        "education_lon": 126.8813503,
        "education_type": "도서관",
        "education_name": "하늘도서관",
        "distance": 2161.4164390444384,
        "walking_time": "약 33분"
      },
      {
        "education_lat": 37.489562316814336,
        "education_lon": 126.88629292183346,
        "education_type": "공연장",
        "education_name": "구로 꿈나무극장",
        "distance": 2165.3616241967893,
        "walking_time": "약 33분"
      },
      {
        "education_lat": 37.48989397,
        "education_lon": 126.8865649,
        "education_type": "도서관",
        "education_name": "구로구립꿈나무어린이도서관",
        "distance": 2190.8331035409165,
        "walking_time": "약 33분"
      }
    ],
    "electric_gas_station": [
      {
        "electric_gas_station_lat": 37.46494122,
        "electric_gas_station_lon": 126.8948157,
        "electric_gas_station_type": "전기차 충전소",
        "electric_gas_station_name": "독산1동 공영주차장",
        "distance": 733.1878994882915,
        "walking_time": "약 11분"
      },
      {
        "electric_gas_station_lat": 37.474417,
        "electric_gas_station_lon": 126.8867632,
        "electric_gas_station_type": "전기차 충전소",
        "electric_gas_station_name": "제일모직아울렛 건너편(공중전화부스)",
        "distance": 836.1738764026969,
        "walking_time": "약 13분"
      },
      {
        "electric_gas_station_lat": 37.48105867,
        "electric_gas_station_lon": 126.9057171,
        "electric_gas_station_type": "전기차 충전소",
        "electric_gas_station_name": "조원동 제1공영주차장",
        "distance": 1392.5546705583367,
        "walking_time": "약 21분"
      }
    ],
    "fitness": [
      {
        "fitness_lat": 37.47139321,
        "fitness_lon": 126.8955722,
        "fitness_type": "운동시설",
        "fitness_name": "엔짐 독산점",
        "distance": 14.585922732443516,
        "walking_time": "약 1분"
      },
      {
        "fitness_lat": 37.47361934,
        "fitness_lon": 126.8945564,
        "fitness_type": "운동시설",
        "fitness_name": "그린헬스",
        "distance": 248.7357293990936,
        "walking_time": "약 4분"
      },
      {
        "fitness_lat": 37.46935918,
        "fitness_lon": 126.8970019,
        "fitness_type": "운동시설",
        "fitness_name": "1981골프앤휘트니스",
        "distance": 273.53238732173014,
        "walking_time": "약 5분"
      },
      {
        "fitness_lat": 37.46896278,
        "fitness_lon": 126.8956207,
        "fitness_type": "운동시설",
        "fitness_name": "팩토리짐",
        "distance": 283.68763871095194,
        "walking_time": "약 5분"
      },
      {
        "fitness_lat": 37.47156899,
        "fitness_lon": 126.8987722,
        "fitness_type": "운동시설",
        "fitness_name": "크로스핏 모브",
        "distance": 288.5772321554378,
        "walking_time": "약 5분"
      },
      {
        "fitness_lat": 37.47453555,
        "fitness_lon": 126.8943229,
        "fitness_type": "운동시설",
        "fitness_name": "비기닝PT스튜디오",
        "distance": 351.92816612815284,
        "walking_time": "약 6분"
      },
      {
        "fitness_lat": 37.47466582,
        "fitness_lon": 126.8947195,
        "fitness_type": "운동시설",
        "fitness_name": "VIP GYM",
        "distance": 357.40362087893385,
        "walking_time": "약 6분"
      },
      {
        "fitness_lat": 37.46790837,
        "fitness_lon": 126.8969045,
        "fitness_type": "운동시설",
        "fitness_name": "바디다짐",
        "distance": 419.3957036861142,
        "walking_time": "약 7분"
      },
      {
        "fitness_lat": 37.46845624,
        "fitness_lon": 126.898315,
        "fitness_type": "운동시설",
        "fitness_name": "바디채널핏 독산점",
        "distance": 420.7911233928878,
        "walking_time": "약 7분"
      },
      {
        "fitness_lat": 37.47494553,
        "fitness_lon": 126.8975186,
        "fitness_type": "운동시설",
        "fitness_name": "에이치 짐 2호점",
        "distance": 421.15932499962713,
        "walking_time": "약 7분"
      }
    ],
    "gas_station": [
      {
        "gas_station_lat": 37.47315113,
        "gas_station_lon": 126.8978961,
        "gas_station_type": "주유소",
        "gas_station_name": "SK에너지㈜ 이가주유소",
        "distance": 278.9399063324356,
        "walking_time": "약 5분"
      },
      {
        "gas_station_lat": 37.46984519,
        "gas_station_lon": 126.9024301,
        "gas_station_type": "주유소",
        "gas_station_name": "남서울(경복에너지)",
        "distance": 638.8157641751282,
        "walking_time": "약 10분"
      },
      {
        "gas_station_lat": 37.47682775,
        "gas_station_lon": 126.8991106,
        "gas_station_type": "주유소",
        "gas_station_name": "㈜화동유업",
        "distance": 671.3351165633679,
        "walking_time": "약 11분"
      },
      {
        "gas_station_lat": 37.48094907,
        "gas_station_lon": 126.899232,
        "gas_station_type": "주유소",
        "gas_station_name": "현대오일뱅크(주)직영 구로셀프주유소",
        "distance": 1099.7048085973613,
        "walking_time": "약 17분"
      },
      {
        "gas_station_lat": 37.48153123,
        "gas_station_lon": 126.8997835,
        "gas_station_type": "주유소",
        "gas_station_name": "JHC에너지",
        "distance": 1176.3456726309553,
        "walking_time": "약 18분"
      },
      {
        "gas_station_lat": 37.48020575,
        "gas_station_lon": 126.9075034,
        "gas_station_type": "주유소",
        "gas_station_name": "현대오일뱅크(주)직영 금천제일주유소",
        "distance": 1433.8330581604728,
        "walking_time": "약 22분"
      },
      {
        "gas_station_lat": 37.46050444,
        "gas_station_lon": 126.9044471,
        "gas_station_type": "주유소",
        "gas_station_name": "현대오일뱅크(주)직영 금천현대셀프주유소",
        "distance": 1456.485371490395,
        "walking_time": "약 22분"
      },
      {
        "gas_station_lat": 37.48370727,
        "gas_station_lon": 126.8870144,
        "gas_station_type": "주유소",
        "gas_station_name": "영진주유소",
        "distance": 1549.1517150091274,
        "walking_time": "약 24분"
      },
      {
        "gas_station_lat": 37.48708383,
        "gas_station_lon": 126.9056392,
        "gas_station_type": "주유소",
        "gas_station_name": "현대오일뱅크㈜직영신대방셀프주유소",
        "distance": 1948.8461256675084,
        "walking_time": "약 30분"
      }
    ],
    "hospital": [
      {
        "hospital_lat": 37.47068103,
        "hospital_lon": 126.8956481,
        "hospital_type": "병원",
        "hospital_name": "연세이안치과의원",
        "distance": 93.3194619897746,
        "walking_time": "약 2분"
      },
      {
        "hospital_lat": 37.47116193,
        "hospital_lon": 126.8977407,
        "hospital_type": "병원",
        "hospital_name": "서울바른세상병원",
        "distance": 201.28569263567243,
        "walking_time": "약 4분"
      },
      {
        "hospital_lat": 37.4706645,
        "hospital_lon": 126.8976622,
        "hospital_type": "병원",
        "hospital_name": "예쁜브이라인의원",
        "distance": 212.5973618955479,
        "walking_time": "약 4분"
      },
      {
        "hospital_lat": 37.46992251,
        "hospital_lon": 126.8970325,
        "hospital_type": "병원",
        "hospital_name": "엠제이산부인과의원",
        "distance": 222.4208492475737,
        "walking_time": "약 4분"
      },
      {
        "hospital_lat": 37.46992251,
        "hospital_lon": 126.8970325,
        "hospital_type": "병원",
        "hospital_name": "엠제이소아청소년과의원",
        "distance": 222.4208492475737,
        "walking_time": "약 4분"
      },
      {
        "hospital_lat": 37.46995109,
        "hospital_lon": 126.897565,
        "hospital_type": "병원",
        "hospital_name": "늘봄치과의원",
        "distance": 251.50045059870484,
        "walking_time": "약 4분"
      },
      {
        "hospital_lat": 37.47305289,
        "hospital_lon": 126.8976554,
        "hospital_type": "병원",
        "hospital_name": "새움병원",
        "distance": 255.7827372741937,
        "walking_time": "약 4분"
      },
      {
        "hospital_lat": 37.46980866,
        "hospital_lon": 126.8974893,
        "hospital_type": "병원",
        "hospital_name": "모세안과의원",
        "distance": 258.0996614756365,
        "walking_time": "약 4분"
      },
      {
        "hospital_lat": 37.46980866,
        "hospital_lon": 126.8974893,
        "hospital_type": "병원",
        "hospital_name": "아이비소아청소년과의원",
        "distance": 258.0996614756365,
        "walking_time": "약 4분"
      },
      {
        "hospital_lat": 37.46980866,
        "hospital_lon": 126.8974893,
        "hospital_type": "병원",
        "hospital_name": "금천키다리정신건강의학과의원",
        "distance": 258.0996614756365,
        "walking_time": "약 4분"
      }
    ],
    "music_room": [
      {
        "music_room_lat": 37.47205682,
        "music_room_lon": 126.8950781,
        "music_room_type": "노래방",
        "music_room_name": "산울림",
        "distance": 71.21556353033846,
        "walking_time": "약 2분"
      },
      {
        "music_room_lat": 37.47219367,
        "music_room_lon": 126.894863,
        "music_room_type": "노래방",
        "music_room_name": "다모아 노래연습장",
        "distance": 94.49737298195706,
        "walking_time": "약 2분"
      },
      {
        "music_room_lat": 37.47242062,
        "music_room_lon": 126.8954531,
        "music_room_type": "노래방",
        "music_room_name": "비엔나",
        "distance": 101.09281489409165,
        "walking_time": "약 2분"
      },
      {
        "music_room_lat": 37.47259948,
        "music_room_lon": 126.8951608,
        "music_room_type": "노래방",
        "music_room_name": "디엠헨68",
        "distance": 124.60021326921104,
        "walking_time": "약 2분"
      },
      {
        "music_room_lat": 37.47087224,
        "music_room_lon": 126.8966897,
        "music_room_type": "노래방",
        "music_room_name": "하하",
        "distance": 126.6243012965006,
        "walking_time": "약 2분"
      },
      {
        "music_room_lat": 37.4720935,
        "music_room_lon": 126.8936781,
        "music_room_type": "노래방",
        "music_room_name": "웰빙",
        "distance": 173.52947020660048,
        "walking_time": "약 3분"
      },
      {
        "music_room_lat": 37.47034793,
        "music_room_lon": 126.8968776,
        "music_room_type": "노래방",
        "music_room_name": "오디션노래연습장",
        "distance": 177.42635093609314,
        "walking_time": "약 3분"
      },
      {
        "music_room_lat": 37.47019065,
        "music_room_lon": 126.897655,
        "music_room_type": "노래방",
        "music_room_name": "21세기",
        "distance": 240.1394257289097,
        "walking_time": "약 4분"
      },
      {
        "music_room_lat": 37.47361934,
        "music_room_lon": 126.8945564,
        "music_room_type": "노래방",
        "music_room_name": "스타",
        "distance": 248.7357293990936,
        "walking_time": "약 4분"
      },
      {
        "music_room_lat": 37.46995109,
        "music_room_lon": 126.897565,
        "music_room_type": "노래방",
        "music_room_name": "샤넬",
        "distance": 251.50045059870484,
        "walking_time": "약 4분"
      }
    ],
    "outdoor_sports": [
      {
        "outdoor_sports_lat": 37.4822615957791,
        "outdoor_sports_lon": 126.889580999202,
        "outdoor_sports_type": "야외 체육시설",
        "outdoor_sports_name": "가리봉동 주민센터 맞은편",
        "distance": 1304.510119840398,
        "walking_time": "약 20분"
      },
      {
        "outdoor_sports_lat": 37.4831569081842,
        "outdoor_sports_lon": 126.885583202317,
        "outdoor_sports_type": "야외 체육시설",
        "outdoor_sports_name": "가리봉",
        "distance": 1562.9478985212436,
        "walking_time": "약 24분"
      },
      {
        "outdoor_sports_lat": 37.4854463023684,
        "outdoor_sports_lon": 126.900861931696,
        "outdoor_sports_type": "야외 체육시설",
        "outdoor_sports_name": "구로디지털단지역 하부",
        "distance": 1619.9440182433827,
        "walking_time": "약 25분"
      },
      {
        "outdoor_sports_lat": 37.4889297964454,
        "outdoor_sports_lon": 126.887502629607,
        "outdoor_sports_type": "야외 체육시설",
        "outdoor_sports_name": "혜원주택 앞",
        "distance": 2061.385092214674,
        "walking_time": "약 31분"
      },
      {
        "outdoor_sports_lat": 37.489293618839,
        "outdoor_sports_lon": 126.880612294475,
        "outdoor_sports_type": "야외 체육시설",
        "outdoor_sports_name": "솔길어린이공원",
        "distance": 2373.9746753833206,
        "walking_time": "약 36분"
      }
    ],
    "park": [
      {
        "park_lat": 37.469625,
        "park_lon": 126.9079509,
        "park_type": "공원",
        "park_name": "감로천생태공원(관악산)",
        "distance": 1118.4133522246957,
        "walking_time": "약 17분"
      },
      {
        "park_lat": 37.4734274,
        "park_lon": 126.9090028,
        "park_type": "공원",
        "park_name": "만수천공원(관악산)",
        "distance": 1210.230672425095,
        "walking_time": "약 19분"
      },
      {
        "park_lat": 37.468164,
        "park_lon": 126.908681,
        "park_type": "공원",
        "park_name": "금천체육공원(관악산)",
        "distance": 1221.134387889853,
        "walking_time": "약 19분"
      }
    ],
    "park_station": [
      {
        "park_station_lat": 37.47050904,
        "park_station_lon": 126.8969932,
        "park_station_type": "주차장",
        "park_station_name": "공유) 02-08구역",
        "distance": 172.45648447251153,
        "walking_time": "약 3분"
      },
      {
        "park_station_lat": 37.47125046,
        "park_station_lon": 126.8935137,
        "park_station_type": "주차장",
        "park_station_name": "공유) 02-09구역",
        "distance": 177.95560291448328,
        "walking_time": "약 3분"
      },
      {
        "park_station_lat": 37.47286079,
        "park_station_lon": 126.8971257,
        "park_station_type": "주차장",
        "park_station_name": "공유) 02-06구역",
        "distance": 207.3391069899537,
        "walking_time": "약 4분"
      },
      {
        "park_station_lat": 37.47308694,
        "park_station_lon": 126.894168,
        "park_station_type": "주차장",
        "park_station_name": "두산공원A~B",
        "distance": 211.0351827063248,
        "walking_time": "약 4분"
      },
      {
        "park_station_lat": 37.47262285,
        "park_station_lon": 126.8976694,
        "park_station_type": "주차장",
        "park_station_name": "신천지",
        "distance": 227.59559824626228,
        "walking_time": "약 4분"
      },
      {
        "park_station_lat": 37.46977014,
        "park_station_lon": 126.8936655,
        "park_station_type": "주차장",
        "park_station_name": "공유) 02-12구역",
        "distance": 252.6365221206028,
        "walking_time": "약 4분"
      },
      {
        "park_station_lat": 37.46917549,
        "park_station_lon": 126.8947816,
        "park_station_type": "주차장",
        "park_station_name": "가산중앞",
        "distance": 267.5307782461708,
        "walking_time": "약 4분"
      },
      {
        "park_station_lat": 37.47380783,
        "park_station_lon": 126.8975268,
        "park_station_type": "주차장",
        "park_station_name": "공유) 02-07구역",
        "distance": 311.5265555835295,
        "walking_time": "약 5분"
      },
      {
        "park_station_lat": 37.47064036,
        "park_station_lon": 126.8991301,
        "park_station_type": "주차장",
        "park_station_name": "공유) 05-04구역",
        "distance": 334.45784238379656,
        "walking_time": "약 5분"
      },
      {
        "park_station_lat": 37.46846211,
        "park_station_lon": 126.8944319,
        "park_station_type": "주차장",
        "park_station_name": "가산중뒤",
        "distance": 352.0954824814692,
        "walking_time": "약 6분"
      }
    ],
    "pc_room": [
      {
        "pc_room_lat": 37.4715465324496,
        "pc_room_lon": 126.896560213006,
        "pc_room_type": "PC방",
        "pc_room_name": "황금게임랜드",
        "distance": 93.37702604151004,
        "walking_time": "약 2분"
      },
      {
        "pc_room_lat": 37.4721508392802,
        "pc_room_lon": 126.894218729672,
        "pc_room_type": "PC방",
        "pc_room_name": "놀토PC방",
        "distance": 133.73887318898042,
        "walking_time": "약 2분"
      },
      {
        "pc_room_lat": 37.4716490468666,
        "pc_room_lon": 126.897779055882,
        "pc_room_type": "PC방",
        "pc_room_name": "뉴스타PC방",
        "distance": 201.43734246661828,
        "walking_time": "약 4분"
      },
      {
        "pc_room_lat": 37.4701019566204,
        "pc_room_lon": 126.897299140809,
        "pc_room_type": "PC방",
        "pc_room_name": "스위티PC방",
        "distance": 222.9812342667712,
        "walking_time": "약 4분"
      },
      {
        "pc_room_lat": 37.4715689911066,
        "pc_room_lon": 126.89877216735,
        "pc_room_type": "PC방",
        "pc_room_name": "제닉스아레나pc",
        "distance": 288.57435414848374,
        "walking_time": "약 5분"
      },
      {
        "pc_room_lat": 37.4711901107752,
        "pc_room_lon": 126.899187218548,
        "pc_room_type": "PC방",
        "pc_room_name": "188PC",
        "distance": 327.10309781308104,
        "walking_time": "약 5분"
      },
      {
        "pc_room_lat": 37.4696788834165,
        "pc_room_lon": 126.898493915166,
        "pc_room_type": "PC방",
        "pc_room_name": "OX PC",
        "distance": 333.51808936092345,
        "walking_time": "약 5분"
      },
      {
        "pc_room_lat": 37.473464244273,
        "pc_room_lon": 126.890951102537,
        "pc_room_type": "PC방",
        "pc_room_name": "아이센스PC방(가산점)",
        "distance": 456.5873548231461,
        "walking_time": "약 7분"
      },
      {
        "pc_room_lat": 37.4721729709167,
        "pc_room_lon": 126.890327938174,
        "pc_room_type": "PC방",
        "pc_room_name": "돼지PC",
        "distance": 462.5700489599354,
        "walking_time": "약 7분"
      },
      {
        "pc_room_lat": 37.475482276062,
        "pc_room_lon": 126.898165336518,
        "pc_room_type": "PC방",
        "pc_room_name": "다크써클PC방",
        "distance": 500.06681186110194,
        "walking_time": "약 8분"
      }
    ],
    "police_office": [
      {
        "police_office_lat": 37.46953537,
        "police_office_lon": 126.9034616,
        "police_office_type": "경찰소",
        "police_office_name": "문성지구대",
        "distance": 735.9577296444378,
        "walking_time": "약 11분"
      },
      {
        "police_office_lat": 37.46464482,
        "police_office_lon": 126.8947575,
        "police_office_type": "경찰소",
        "police_office_name": "독산파출소",
        "distance": 766.4617760516979,
        "walking_time": "약 12분"
      },
      {
        "police_office_lat": 37.47920893,
        "police_office_lon": 126.8926603,
        "police_office_type": "경찰소",
        "police_office_name": "가리봉파출소",
        "distance": 891.8302949400328,
        "walking_time": "약 14분"
      },
      {
        "police_office_lat": 37.47993673,
        "police_office_lon": 126.8880557,
        "police_office_type": "경찰소",
        "police_office_name": "가산파출소",
        "distance": 1144.290552597572,
        "walking_time": "약 18분"
      },
      {
        "police_office_lat": 37.48666065,
        "police_office_lon": 126.8913999,
        "police_office_type": "경찰소",
        "police_office_name": "구로3파출소",
        "distance": 1722.8892622505284,
        "walking_time": "약 26분"
      },
      {
        "police_office_lat": 37.48664583,
        "police_office_lon": 126.9059471,
        "police_office_type": "경찰소",
        "police_office_name": "신대방지구대",
        "distance": 1918.609369389588,
        "walking_time": "약 29분"
      },
      {
        "police_office_lat": 37.48925211,
        "police_office_lon": 126.8907002,
        "police_office_type": "경찰소",
        "police_office_name": "구일지구대",
        "distance": 2017.585351115959,
        "walking_time": "약 31분"
      }
    ],
    "post_office": [
      {
        "post_office_lat": 37.47019149,
        "post_office_lon": 126.8985251,
        "post_office_type": "우체국",
        "post_office_name": "서울금천우체국",
        "distance": 304.4704571372137,
        "walking_time": "약 5분"
      },
      {
        "post_office_lat": 37.47844469,
        "post_office_lon": 126.8937442,
        "post_office_type": "우체국",
        "post_office_name": "서울가산동우체국",
        "distance": 786.3130453648645,
        "walking_time": "약 12분"
      },
      {
        "post_office_lat": 37.48329888,
        "post_office_lon": 126.8984697,
        "post_office_type": "우체국",
        "post_office_name": "서울구로디지털단지우체국",
        "distance": 1336.4948325722426,
        "walking_time": "약 20분"
      },
      {
        "post_office_lat": 37.47789556,
        "post_office_lon": 126.8806648,
        "post_office_type": "우체국",
        "post_office_name": "서울가산디지털우체국",
        "distance": 1489.4224453793452,
        "walking_time": "약 23분"
      },
      {
        "post_office_lat": 37.48967148,
        "post_office_lon": 126.9045668,
        "post_office_type": "우체국",
        "post_office_name": "서울대림동우체국",
        "distance": 2171.8308465532664,
        "walking_time": "약 33분"
      }
    ],
    "public_health_center": [
      {
        "public_health_center_lat": 37.48199214,
        "public_health_center_lon": 126.8923489,
        "public_health_center_type": "보건소",
        "public_health_center_name": "G밸리보건지소",
        "distance": 1198.0799436140662,
        "walking_time": "약 18분"
      }
    ],
    "school": [
      {
        "school_lat": 37.468777055274,
        "school_lon": 126.894474890365,
        "school_type": "중학교",
        "school_name": "가산중학교",
        "distance": 317.3942378748034,
        "walking_time": "약 5분"
      },
      {
        "school_lat": 37.4745944107703,
        "school_lon": 126.895368861106,
        "school_type": "중학교",
        "school_name": "세일중학교",
        "distance": 342.91574080333174,
        "walking_time": "약 6분"
      },
      {
        "school_lat": 37.4748818804257,
        "school_lon": 126.899471333222,
        "school_type": "초등학교",
        "school_name": "서울문성초등학교",
        "distance": 512.8569163148893,
        "walking_time": "약 8분"
      },
      {
        "school_lat": 37.467546675265,
        "school_lon": 126.890946472913,
        "school_type": "초등학교",
        "school_name": "서울두산초등학교",
        "distance": 596.7850583240117,
        "walking_time": "약 9분"
      },
      {
        "school_lat": 37.4781477195501,
        "school_lon": 126.896184019972,
        "school_type": "초등학교",
        "school_name": "서울가산초등학교",
        "distance": 740.2647892378046,
        "walking_time": "약 12분"
      },
      {
        "school_lat": 37.4656561906645,
        "school_lon": 126.899712928109,
        "school_type": "초등학교",
        "school_name": "서울독산초등학교",
        "distance": 749.7138454311072,
        "walking_time": "약 12분"
      },
      {
        "school_lat": 37.4719826762833,
        "school_lon": 126.908186532287,
        "school_type": "초등학교",
        "school_name": "서울정심초등학교",
        "distance": 1120.5458571709212,
        "walking_time": "약 17분"
      },
      {
        "school_lat": 37.4754682009333,
        "school_lon": 126.908493841535,
        "school_type": "중학교",
        "school_name": "문성중학교",
        "distance": 1227.9096511189657,
        "walking_time": "약 19분"
      },
      {
        "school_lat": 37.4667696443557,
        "school_lon": 126.90892992546,
        "school_type": "초등학교",
        "school_name": "서울문교초등학교",
        "distance": 1297.022392334835,
        "walking_time": "약 20분"
      },
      {
        "school_lat": 37.4792685652716,
        "school_lon": 126.907219449459,
        "school_type": "고등학교",
        "school_name": "금천문화예술정보학교",
        "distance": 1346.4157765750067,
        "walking_time": "약 21분"
      }
    ],
    "subway": [
      {
        "subway_lat": 37.4815957375443,
        "subway_lon": 126.882559483336,
        "subway_type": "지하철",
        "subway_name": "7호선-가산디지털단지역",
        "distance": 1600.5471253956855,
        "walking_time": "약 24분"
      },
      {
        "subway_lat": 37.4853149237865,
        "subway_lon": 126.901494378412,
        "subway_type": "지하철",
        "subway_name": "2호선-구로디지털단지역",
        "distance": 1623.2868683543836,
        "walking_time": "약 25분"
      },
      {
        "subway_lat": 37.4853205005175,
        "subway_lon": 126.886331688209,
        "subway_type": "지하철",
        "subway_name": "7호선-남구로역",
        "distance": 1735.629847378911,
        "walking_time": "약 26분"
      }
    ],
    "supermarket": [
      {
        "supermarket_lat": 37.47068103,
        "supermarket_lon": 126.8956481,
        "supermarket_type": "마트",
        "supermarket_name": "롯데쇼핑(주) 롯데마트맥스 금천점",
        "distance": 93.3194619897746,
        "walking_time": "약 2분"
      },
      {
        "supermarket_lat": 37.46935918,
        "supermarket_lon": 126.8970019,
        "supermarket_type": "마트",
        "supermarket_name": "시티렉스",
        "distance": 273.53238732173014,
        "walking_time": "약 5분"
      },
      {
        "supermarket_lat": 37.46866385,
        "supermarket_lon": 126.8968853,
        "supermarket_type": "마트",
        "supermarket_name": "홈플러스(주) 금천점",
        "distance": 339.4172560174882,
        "walking_time": "약 6분"
      },
      {
        "supermarket_lat": 37.46866385,
        "supermarket_lon": 126.8968853,
        "supermarket_type": "마트",
        "supermarket_name": "삼성테스코(주)홈플러스 금천점",
        "distance": 339.4172560174882,
        "walking_time": "약 6분"
      },
      {
        "supermarket_lat": 37.46866385,
        "supermarket_lon": 126.8968853,
        "supermarket_type": "마트",
        "supermarket_name": "삼성테스코(주)홈플러스 금천점",
        "distance": 339.4172560174882,
        "walking_time": "약 6분"
      },
      {
        "supermarket_lat": 37.47544481,
        "supermarket_lon": 126.8936809,
        "supermarket_type": "마트",
        "supermarket_name": "홈플러스(주)익스프레스 가산점",
        "distance": 465.8991297452741,
        "walking_time": "약 7분"
      },
      {
        "supermarket_lat": 37.46682635,
        "supermarket_lon": 126.8962825,
        "supermarket_type": "마트",
        "supermarket_name": "유창상가",
        "distance": 525.5792460252602,
        "walking_time": "약 8분"
      },
      {
        "supermarket_lat": 37.47761902,
        "supermarket_lon": 126.8890553,
        "supermarket_type": "마트",
        "supermarket_name": "현대아울렛",
        "distance": 885.9087820758057,
        "walking_time": "약 14분"
      },
      {
        "supermarket_lat": 37.47806807,
        "supermarket_lon": 126.9014441,
        "supermarket_type": "마트",
        "supermarket_name": "푸른터시장",
        "distance": 897.920479970543,
        "walking_time": "약 14분"
      },
      {
        "supermarket_lat": 37.47643941,
        "supermarket_lon": 126.8873317,
        "supermarket_type": "마트",
        "supermarket_name": "가산퍼블릭 상업시설",
        "distance": 905.6151915347168,
        "walking_time": "약 14분"
      }
    ],
    "tax_office": [
      {
        "tax_office_lat": 37.47801956,
        "tax_office_lon": 126.8997992,
        "tax_office_type": "세무서",
        "tax_office_name": "금천세무서",
        "distance": 816.8784505900421,
        "walking_time": "약 13분"
      }
    ],
    "theater": [
      {
        "theater_lat": 37.4693591753013,
        "theater_lon": 126.897001948519,
        "theater_type": "영화관",
        "theater_name": "롯데시네마 독산",
        "distance": 273.5349153862936,
        "walking_time": "약 5분"
      },
      {
        "theater_lat": 37.4776190161713,
        "theater_lon": 126.88905533739,
        "theater_type": "영화관",
        "theater_name": "롯데시네마 가산디지털",
        "distance": 885.9063365801618,
        "walking_time": "약 14분"
      },
      {
        "theater_lat": 37.4864917793931,
        "theater_lon": 126.905526238207,
        "theater_type": "영화관",
        "theater_name": "롯데시네마 신대방",
        "distance": 1885.9039113615224,
        "walking_time": "약 29분"
      }
    ]
  }
}