{
  "클러스터_위도": 37.55237,
  "클러스터_경도": 127.131961,
  "클러스터_level": 3.0,
  "facilities": {
    "bus": [
      {
        "bus_lat": 37.55461384,
        "bus_lon": 127.1313205,
        "bus_type": "버스정류장",
        "bus_name": "신암중학교",
        "distance": 255.8125508388934,
        "walking_time": "약 4분"
      },
      {
        "bus_lat": 37.55483907,
        "bus_lon": 127.1313639,
        "bus_type": "버스정류장",
        "bus_name": "신암중학교",
        "distance": 279.5482643907085,
        "walking_time": "약 5분"
      },
      {
        "bus_lat": 37.5532319,
        "bus_lon": 127.1288157,
        "bus_type": "버스정류장",
        "bus_name": "삼성광나루아파트.암사동유적",
        "distance": 293.3683029951746,
        "walking_time": "약 5분"
      },
      {
        "bus_lat": 37.55352016,
        "bus_lon": 127.12887,
        "bus_type": "버스정류장",
        "bus_name": "암사삼성.현대아파트",
        "distance": 301.0055784931141,
        "walking_time": "약 5분"
      },
      {
        "bus_lat": 37.55338,
        "bus_lon": 127.128557,
        "bus_type": "버스정류장",
        "bus_name": "삼성광나루아파트.암사동유적",
        "distance": 320.4049101425674,
        "walking_time": "약 5분"
      },
      {
        "bus_lat": 37.55359654,
        "bus_lon": 127.1286195,
        "bus_type": "버스정류장",
        "bus_name": "암사삼성.현대아파트",
        "distance": 324.60870198596666,
        "walking_time": "약 5분"
      },
      {
        "bus_lat": 37.55510202,
        "bus_lon": 127.1294698,
        "bus_type": "버스정류장",
        "bus_name": "고덕주유소.선사초등학교",
        "distance": 374.8518350350062,
        "walking_time": "약 6분"
      },
      {
        "bus_lat": 37.55505949,
        "bus_lon": 127.1291908,
        "bus_type": "버스정류장",
        "bus_name": "선사초등학교",
        "distance": 386.0962502877997,
        "walking_time": "약 6분"
      },
      {
        "bus_lat": 37.54908071,
        "bus_lon": 127.1300716,
        "bus_type": "버스정류장",
        "bus_name": "브라운스톤",
        "distance": 401.89331858005016,
        "walking_time": "약 6분"
      },
      {
        "bus_lat": 37.55095578,
        "bus_lon": 127.1277594,
        "bus_type": "버스정류장",
        "bus_name": "암사역",
        "distance": 402.39481864929786,
        "walking_time": "약 7분"
      }
    ],
    "community_center": [
      {
        "community_center_lat": 37.55237984,
        "community_center_lon": 127.1357214,
        "community_center_type": "주민센터",
        "community_center_name": "암사1동 자치회관",
        "distance": 331.4996876278665,
        "walking_time": "약 5분"
      },
      {
        "community_center_lat": 37.5517063,
        "community_center_lon": 127.1272709,
        "community_center_type": "주민센터",
        "community_center_name": "암사2동 자치회관",
        "distance": 419.99223793292674,
        "walking_time": "약 7분"
      },
      {
        "community_center_lat": 37.55499636,
        "community_center_lon": 127.1407841,
        "community_center_type": "주민센터",
        "community_center_name": "암사3동 자치회관",
        "distance": 830.8054369120117,
        "walking_time": "약 13분"
      },
      {
        "community_center_lat": 37.54500381,
        "community_center_lon": 127.1368198,
        "community_center_type": "주민센터",
        "community_center_name": "천호1동 자치회관",
        "distance": 924.3264067715262,
        "walking_time": "약 14분"
      },
      {
        "community_center_lat": 37.55126175,
        "community_center_lon": 127.1443451,
        "community_center_type": "주민센터",
        "community_center_name": "명일1동 자치회관",
        "distance": 1098.6609785300875,
        "walking_time": "약 17분"
      },
      {
        "community_center_lat": 37.54345134,
        "community_center_lon": 127.1254311,
        "community_center_type": "주민센터",
        "community_center_name": "천호2동 자치회관",
        "distance": 1146.6877520380674,
        "walking_time": "약 18분"
      }
    ],
    "convenience_store": [
      {
        "convenience_store_lat": 37.55219886,
        "convenience_store_lon": 127.1320396,
        "convenience_store_type": "편의점",
        "convenience_store_name": "GS25 강동암사점",
        "distance": 20.25210987075006,
        "walking_time": "약 1분"
      },
      {
        "convenience_store_lat": 37.55366768,
        "convenience_store_lon": 127.1314589,
        "convenience_store_type": "편의점",
        "convenience_store_name": "CU 암사소망점",
        "distance": 150.9314938856999,
        "walking_time": "약 3분"
      },
      {
        "convenience_store_lat": 37.55173129,
        "convenience_store_lon": 127.1337573,
        "convenience_store_type": "편의점",
        "convenience_store_name": "CU 강동어울림점",
        "distance": 173.5506707816324,
        "walking_time": "약 3분"
      },
      {
        "convenience_store_lat": 37.55343515,
        "convenience_store_lon": 127.1301493,
        "convenience_store_type": "편의점",
        "convenience_store_name": "GS25 암사스타점",
        "distance": 198.8338236102728,
        "walking_time": "약 3분"
      },
      {
        "convenience_store_lat": 37.55456208,
        "convenience_store_lon": 127.1311524,
        "convenience_store_type": "편의점",
        "convenience_store_name": "세븐일레븐 암사베네스트점",
        "distance": 253.9570060081676,
        "walking_time": "약 4분"
      },
      {
        "convenience_store_lat": 37.55409211,
        "convenience_store_lon": 127.1340573,
        "convenience_store_type": "편의점",
        "convenience_store_name": "CU 암사승리점",
        "distance": 266.1171721075247,
        "walking_time": "약 4분"
      },
      {
        "convenience_store_lat": 37.55339175,
        "convenience_store_lon": 127.1354077,
        "convenience_store_type": "편의점",
        "convenience_store_name": "세븐일레븐 암사중앙점",
        "distance": 324.3882438554143,
        "walking_time": "약 5분"
      },
      {
        "convenience_store_lat": 37.54996591,
        "convenience_store_lon": 127.1296104,
        "convenience_store_type": "편의점",
        "convenience_store_name": "GS25 암사시장점",
        "distance": 338.2331546519848,
        "walking_time": "약 6분"
      },
      {
        "convenience_store_lat": 37.55506025,
        "convenience_store_lon": 127.1298437,
        "convenience_store_type": "편의점",
        "convenience_store_name": "GS25 G고덕점",
        "distance": 352.5949169823559,
        "walking_time": "약 6분"
      },
      {
        "convenience_store_lat": 37.54931872,
        "convenience_store_lon": 127.1298551,
        "convenience_store_type": "편의점",
        "convenience_store_name": "CU 암사행복점",
        "distance": 386.7573435244476,
        "walking_time": "약 6분"
      }
    ],
    "daycare": [
      {
        "daycare_lat": 37.55237114,
        "daycare_lon": 127.13154727519506,
        "daycare_type": "어린이집",
        "daycare_name": "또래또래어린이집",
        "distance": 36.4721127845442,
        "walking_time": "약 1분"
      },
      {
        "daycare_lat": 37.55329241760021,
        "daycare_lon": 127.13274849672617,
        "daycare_type": "어린이집",
        "daycare_name": "아기사랑어린이집",
        "distance": 123.85291822681516,
        "walking_time": "약 2분"
      },
      {
        "daycare_lat": 37.55328721938008,
        "daycare_lon": 127.13276404838274,
        "daycare_type": "어린이집",
        "daycare_name": "지혜로운어린이집",
        "distance": 124.15125124725397,
        "walking_time": "약 2분"
      },
      {
        "daycare_lat": 37.55078658,
        "daycare_lon": 127.1321516,
        "daycare_type": "어린이집",
        "daycare_name": "새순어린이집",
        "distance": 176.86820071222178,
        "walking_time": "약 3분"
      },
      {
        "daycare_lat": 37.55370576,
        "daycare_lon": 127.1305175,
        "daycare_type": "어린이집",
        "daycare_name": "암사무지개어린이집",
        "distance": 195.58574214493763,
        "walking_time": "약 3분"
      },
      {
        "daycare_lat": 37.55407898,
        "daycare_lon": 127.1311333,
        "daycare_type": "어린이집",
        "daycare_name": "다기쁨어린이집",
        "distance": 203.5565266031847,
        "walking_time": "약 4분"
      },
      {
        "daycare_lat": 37.55407663,
        "daycare_lon": 127.1299881,
        "daycare_type": "어린이집",
        "daycare_name": "수피아어린이집",
        "distance": 257.41000987444664,
        "walking_time": "약 4분"
      },
      {
        "daycare_lat": 37.55450633,
        "daycare_lon": 127.1305896,
        "daycare_type": "어린이집",
        "daycare_name": "리틀엔젤스어린이집",
        "distance": 266.542507586973,
        "walking_time": "약 4분"
      },
      {
        "daycare_lat": 37.5538235,
        "daycare_lon": 127.1293888,
        "daycare_type": "어린이집",
        "daycare_name": "동제어린이집",
        "distance": 278.4549590689431,
        "walking_time": "약 5분"
      },
      {
        "daycare_lat": 37.55452772743437,
        "daycare_lon": 127.13028354068544,
        "daycare_type": "어린이집",
        "daycare_name": "고우리어린이집",
        "distance": 281.83753032274404,
        "walking_time": "약 5분"
      }
    ],
    "education": [
      {
        "education_lat": 37.55283302,
        "education_lon": 127.1333655,
        "education_type": "도서관",
        "education_name": "강동구립암사도서관",
        "distance": 134.09129706387745,
        "walking_time": "약 3분"
      },
      {
        "education_lat": 37.55073399,
        "education_lon": 127.1248583,
        "education_type": "도서관",
        "education_name": "한국점자도서관",
        "distance": 652.036127380448,
        "walking_time": "약 10분"
      },
      {
        "education_lat": 37.55985381,
        "education_lon": 127.1308316,
        "education_type": "박물관/기념관",
        "education_name": "암사동선사유적박물관",
        "distance": 838.0959012386138,
        "walking_time": "약 13분"
      },
      {
        "education_lat": 37.54394767,
        "education_lon": 127.1255384,
        "education_type": "도서관",
        "education_name": "강동구립해공도서관",
        "distance": 1094.3815514192472,
        "walking_time": "약 17분"
      },
      {
        "education_lat": 37.54052322,
        "education_lon": 127.1340815,
        "education_type": "도서관",
        "education_name": "강동구립천호도서관",
        "distance": 1330.5012085890746,
        "walking_time": "약 20분"
      }
    ],
    "fitness": [
      {
        "fitness_lat": 37.55178928,
        "fitness_lon": 127.1320273,
        "fitness_type": "운동시설",
        "fitness_name": "J Class Gym",
        "distance": 64.8370883025595,
        "walking_time": "약 1분"
      },
      {
        "fitness_lat": 37.55200429,
        "fitness_lon": 127.1347886,
        "fitness_type": "운동시설",
        "fitness_name": "고고 피트니스(암사)",
        "distance": 252.56280773046052,
        "walking_time": "약 4분"
      },
      {
        "fitness_lat": 37.55292798,
        "fitness_lon": 127.1288303,
        "fitness_type": "운동시설",
        "fitness_name": "크로스핏 쓰리박스",
        "distance": 282.87387417190894,
        "walking_time": "약 5분"
      },
      {
        "fitness_lat": 37.55309678,
        "fitness_lon": 127.1288704,
        "fitness_type": "운동시설",
        "fitness_name": "휘트니스J",
        "distance": 284.1833120351147,
        "walking_time": "약 5분"
      },
      {
        "fitness_lat": 37.55207425,
        "fitness_lon": 127.1285347,
        "fitness_type": "운동시설",
        "fitness_name": "암사 라이크짐",
        "distance": 303.83091880650096,
        "walking_time": "약 5분"
      },
      {
        "fitness_lat": 37.55455369,
        "fitness_lon": 127.1294512,
        "fitness_type": "운동시설",
        "fitness_name": "얼티밋 포텐셜짐",
        "distance": 328.49650634756193,
        "walking_time": "약 5분"
      },
      {
        "fitness_lat": 37.55366839,
        "fitness_lon": 127.1285288,
        "fitness_type": "운동시설",
        "fitness_name": "봄PT Studio",
        "distance": 335.2435181146155,
        "walking_time": "약 6분"
      },
      {
        "fitness_lat": 37.55220582,
        "fitness_lon": 127.1279238,
        "fitness_type": "운동시설",
        "fitness_name": "운동하는날 암사점",
        "distance": 356.36750380698385,
        "walking_time": "약 6분"
      },
      {
        "fitness_lat": 37.55111181,
        "fitness_lon": 127.1281958,
        "fitness_type": "운동시설",
        "fitness_name": "주식회사 라이언짐",
        "distance": 360.2036471601816,
        "walking_time": "약 6분"
      },
      {
        "fitness_lat": 37.55111181,
        "fitness_lon": 127.1281958,
        "fitness_type": "운동시설",
        "fitness_name": "라이언 컴퍼니",
        "distance": 360.2036471601816,
        "walking_time": "약 6분"
      }
    ],
    "gas_station": [
      {
        "gas_station_lat": 37.55506025,
        "gas_station_lon": 127.1298437,
        "gas_station_type": "주유소",
        "gas_station_name": "㈜삼표에너지 고덕주유소",
        "distance": 352.5949169823559,
        "walking_time": "약 6분"
      },
      {
        "gas_station_lat": 37.5504579,
        "gas_station_lon": 127.1382269,
        "gas_station_type": "주유소",
        "gas_station_name": "구천면주유소",
        "distance": 591.8835172585489,
        "walking_time": "약 9분"
      },
      {
        "gas_station_lat": 37.54517786,
        "gas_station_lon": 127.1294966,
        "gas_station_type": "주유소",
        "gas_station_name": "천호 현대주유소",
        "distance": 828.7152449138441,
        "walking_time": "약 13분"
      },
      {
        "gas_station_lat": 37.55447863,
        "gas_station_lon": 127.1440113,
        "gas_station_type": "주유소",
        "gas_station_name": "현대오일뱅크㈜직영 명일셀프주유소",
        "distance": 1087.8472528270192,
        "walking_time": "약 17분"
      },
      {
        "gas_station_lat": 37.5415768,
        "gas_station_lon": 127.124242,
        "gas_station_type": "주유소",
        "gas_station_name": "광성주유소",
        "distance": 1379.660006618883,
        "walking_time": "약 21분"
      }
    ],
    "hospital": [
      {
        "hospital_lat": 37.55181476,
        "hospital_lon": 127.1308319,
        "hospital_type": "병원",
        "hospital_name": "일월한의원",
        "distance": 117.12921756263646,
        "walking_time": "약 2분"
      },
      {
        "hospital_lat": 37.55190996,
        "hospital_lon": 127.1335997,
        "hospital_type": "병원",
        "hospital_name": "경희아침한의원",
        "distance": 153.24956079073465,
        "walking_time": "약 3분"
      },
      {
        "hospital_lat": 37.55230857,
        "hospital_lon": 127.1296316,
        "hospital_type": "병원",
        "hospital_name": "경희정성한의원",
        "distance": 205.46182051103028,
        "walking_time": "약 4분"
      },
      {
        "hospital_lat": 37.5512722,
        "hospital_lon": 127.1293411,
        "hospital_type": "병원",
        "hospital_name": "거북이한의원",
        "distance": 261.2336804670076,
        "walking_time": "약 4분"
      },
      {
        "hospital_lat": 37.55202366,
        "hospital_lon": 127.1350273,
        "hospital_type": "병원",
        "hospital_name": "밝은미소치과의원",
        "distance": 273.0397543758061,
        "walking_time": "약 5분"
      },
      {
        "hospital_lat": 37.55140499,
        "hospital_lon": 127.1290278,
        "hospital_type": "병원",
        "hospital_name": "서울배치과의원",
        "distance": 279.9583392645066,
        "walking_time": "약 5분"
      },
      {
        "hospital_lat": 37.55140499,
        "hospital_lon": 127.1290278,
        "hospital_type": "병원",
        "hospital_name": "암사본정형외과의원",
        "distance": 279.9583392645066,
        "walking_time": "약 5분"
      },
      {
        "hospital_lat": 37.55140499,
        "hospital_lon": 127.1290278,
        "hospital_type": "병원",
        "hospital_name": "조은삼성내과의원",
        "distance": 279.9583392645066,
        "walking_time": "약 5분"
      },
      {
        "hospital_lat": 37.55292798,
        "hospital_lon": 127.1288303,
        "hospital_type": "병원",
        "hospital_name": "강동성모내과의원",
        "distance": 282.87387417190894,
        "walking_time": "약 5분"
      },
      {
        "hospital_lat": 37.55272083,
        "hospital_lon": 127.1287525,
        "hospital_type": "병원",
        "hospital_name": "한솔정형외과의원",
        "distance": 285.5220500233132,
        "walking_time": "약 5분"
      }
    ],
    "music_room": [
      {
        "music_room_lat": 37.55187386,
        "music_room_lon": 127.1324494,
        "music_room_type": "노래방",
        "music_room_name": "신바람노래연습장",
        "distance": 69.98050489696213,
        "walking_time": "약 2분"
      },
      {
        "music_room_lat": 37.55173129,
        "music_room_lon": 127.1337573,
        "music_room_type": "노래방",
        "music_room_name": "엣지노래연습장",
        "distance": 173.5506707816324,
        "walking_time": "약 3분"
      },
      {
        "music_room_lat": 37.55297962,
        "music_room_lon": 127.1298844,
        "music_room_type": "노래방",
        "music_room_name": "스타노래연습장",
        "distance": 195.20928825873847,
        "walking_time": "약 3분"
      },
      {
        "music_room_lat": 37.55254653,
        "music_room_lon": 127.1297093,
        "music_room_type": "노래방",
        "music_room_name": "수 노래연습장",
        "distance": 199.4664776560258,
        "walking_time": "약 3분"
      },
      {
        "music_room_lat": 37.55380588,
        "music_room_lon": 127.1301731,
        "music_room_type": "노래방",
        "music_room_name": "팡팡노래연습장",
        "distance": 224.35079491824217,
        "walking_time": "약 4분"
      },
      {
        "music_room_lat": 37.55228391,
        "music_room_lon": 127.1288628,
        "music_room_type": "노래방",
        "music_room_name": "가시노래연습장",
        "distance": 273.28955711676315,
        "walking_time": "약 5분"
      },
      {
        "music_room_lat": 37.55272083,
        "music_room_lon": 127.1287525,
        "music_room_type": "노래방",
        "music_room_name": "VIP노래연습장",
        "distance": 285.5220500233132,
        "walking_time": "약 5분"
      },
      {
        "music_room_lat": 37.55352783,
        "music_room_lon": 127.1290262,
        "music_room_type": "노래방",
        "music_room_name": "아지트 노래연습장",
        "distance": 288.97882904105404,
        "walking_time": "약 5분"
      },
      {
        "music_room_lat": 37.55231052,
        "music_room_lon": 127.1285866,
        "music_room_type": "노래방",
        "music_room_name": "엠제이노래연습장",
        "distance": 297.5437252313953,
        "walking_time": "약 5분"
      },
      {
        "music_room_lat": 37.55109939,
        "music_room_lon": 127.1351349,
        "music_room_type": "노래방",
        "music_room_name": "방울노래연습장",
        "distance": 313.44560714989734,
        "walking_time": "약 5분"
      }
    ],
    "park": [
      {
        "park_lat": 37.5444741,
        "park_lon": 127.1263451,
        "park_type": "공원",
        "park_name": "천호근린공원",
        "distance": 1007.9561723271844,
        "walking_time": "약 16분"
      },
      {
        "park_lat": 37.5504807,
        "park_lon": 127.1471618,
        "park_type": "공원",
        "park_name": "샛마을근린공원",
        "distance": 1356.4102385575611,
        "walking_time": "약 21분"
      }
    ],
    "park_station": [
      {
        "park_station_lat": 37.55237587,
        "park_station_lon": 127.1350983,
        "park_station_type": "주차장",
        "park_station_name": "볕우물 공영주차장",
        "distance": 276.56930884566145,
        "walking_time": "약 5분"
      },
      {
        "park_station_lat": 37.55289,
        "park_station_lon": 127.1377215,
        "park_station_type": "주차장",
        "park_station_name": "암사1동 주차장",
        "distance": 511.0961215891604,
        "walking_time": "약 8분"
      },
      {
        "park_station_lat": 37.55503725,
        "park_station_lon": 127.1233953,
        "park_station_type": "주차장",
        "park_station_name": "광나루1,2주차장",
        "distance": 811.2530703871316,
        "walking_time": "약 13분"
      },
      {
        "park_station_lat": 37.54459923,
        "park_station_lon": 127.1366199,
        "park_station_type": "주차장",
        "park_station_name": "천호1동 주차장",
        "distance": 956.7202328100076,
        "walking_time": "약 15분"
      },
      {
        "park_station_lat": 37.55088357,
        "park_station_lon": 127.1428872,
        "park_station_type": "주차장",
        "park_station_name": "명일동 주차장",
        "distance": 977.286481928988,
        "walking_time": "약 15분"
      },
      {
        "park_station_lat": 37.56127024,
        "park_station_lon": 127.1308624,
        "park_station_type": "주차장",
        "park_station_name": "서울암사동유적 주차장",
        "distance": 994.3883447045354,
        "walking_time": "약 15분"
      },
      {
        "park_station_lat": 37.54307844,
        "park_station_lon": 127.1321772,
        "park_station_type": "주차장",
        "park_station_name": "고분다리 전통시장 공영주차장",
        "distance": 1033.350132443681,
        "walking_time": "약 16분"
      },
      {
        "park_station_lat": 37.54478899,
        "park_station_lon": 127.1218776,
        "park_station_type": "주차장",
        "park_station_name": "천호유수지 주차장",
        "distance": 1225.0815381521154,
        "walking_time": "약 19분"
      },
      {
        "park_station_lat": 37.54071205,
        "park_station_lon": 127.1341864,
        "park_station_type": "주차장",
        "park_station_name": "천호3동 제2공영주차장",
        "distance": 1311.0678892026006,
        "walking_time": "약 20분"
      },
      {
        "park_station_lat": 37.54033859,
        "park_station_lon": 127.1230043,
        "park_station_type": "주차장",
        "park_station_name": "천호2동노외주차장",
        "distance": 1553.4886799002795,
        "walking_time": "약 24분"
      }
    ],
    "pc_room": [
      {
        "pc_room_lat": 37.5515710167382,
        "pc_room_lon": 127.133428069413,
        "pc_room_type": "PC방",
        "pc_room_name": "놀 PC방",
        "distance": 156.90552007429423,
        "walking_time": "약 3분"
      },
      {
        "pc_room_lat": 37.5517312920762,
        "pc_room_lon": 127.133757333524,
        "pc_room_type": "PC방",
        "pc_room_name": "하루애 PC방",
        "distance": 173.55327284366632,
        "walking_time": "약 3분"
      },
      {
        "pc_room_lat": 37.5519705401703,
        "pc_room_lon": 127.133886998971,
        "pc_room_type": "PC방",
        "pc_room_name": "고스트 캐슬 PC방 암사점",
        "distance": 175.50074751869178,
        "walking_time": "약 3분"
      },
      {
        "pc_room_lat": 37.5512721984493,
        "pc_room_lon": 127.129341077489,
        "pc_room_type": "PC방",
        "pc_room_name": "디저트 피앤씨",
        "distance": 261.2355155327862,
        "walking_time": "약 4분"
      },
      {
        "pc_room_lat": 37.5504972087947,
        "pc_room_lon": 127.129871391192,
        "pc_room_type": "PC방",
        "pc_room_name": "카시오페아 PC방",
        "distance": 278.0285550647907,
        "walking_time": "약 5분"
      },
      {
        "pc_room_lat": 37.5520742461293,
        "pc_room_lon": 127.128534669022,
        "pc_room_type": "PC방",
        "pc_room_name": "COMON PC PLEX (커먼피씨플렉스)",
        "distance": 303.83368022518573,
        "walking_time": "약 5분"
      },
      {
        "pc_room_lat": 37.5526626328776,
        "pc_room_lon": 127.128170596073,
        "pc_room_type": "PC방",
        "pc_room_name": "해피데이 PC방",
        "distance": 335.72286763135736,
        "walking_time": "약 6분"
      },
      {
        "pc_room_lat": 37.5497341701579,
        "pc_room_lon": 127.128786968437,
        "pc_room_type": "PC방",
        "pc_room_name": "NIC PC방",
        "distance": 405.21203339961977,
        "walking_time": "약 7분"
      },
      {
        "pc_room_lat": 37.5501745970905,
        "pc_room_lon": 127.128189760726,
        "pc_room_type": "PC방",
        "pc_room_name": "물라PC",
        "distance": 412.4584582616637,
        "walking_time": "약 7분"
      },
      {
        "pc_room_lat": 37.554532736215,
        "pc_room_lon": 127.135832933352,
        "pc_room_type": "PC방",
        "pc_room_name": "제로백PC방 암사점",
        "distance": 417.5356847804479,
        "walking_time": "약 7분"
      }
    ],
    "police_office": [
      {
        "police_office_lat": 37.55499636,
        "police_office_lon": 127.1407841,
        "police_office_type": "경찰소",
        "police_office_name": "암사지구대",
        "distance": 830.8054369120117,
        "walking_time": "약 13분"
      },
      {
        "police_office_lat": 37.54257321,
        "police_office_lon": 127.1207773,
        "police_office_type": "경찰소",
        "police_office_name": "천호지구대",
        "distance": 1469.2904837900985,
        "walking_time": "약 22분"
      }
    ],
    "post_office": [
      {
        "post_office_lat": 37.55578284,
        "post_office_lon": 127.1375673,
        "post_office_type": "우체국",
        "post_office_name": "서울암사3동우편취급국",
        "distance": 623.1038130938279,
        "walking_time": "약 10분"
      },
      {
        "post_office_lat": 37.54537547,
        "post_office_lon": 127.1452012,
        "post_office_type": "우체국",
        "post_office_name": "서울명일삼익우편취급국",
        "distance": 1402.6273322491622,
        "walking_time": "약 21분"
      },
      {
        "post_office_lat": 37.54072766,
        "post_office_lon": 127.1254701,
        "post_office_type": "우체국",
        "post_office_name": "서울천호동우체국",
        "distance": 1415.4077107701555,
        "walking_time": "약 22분"
      },
      {
        "post_office_lat": 37.5401163,
        "post_office_lon": 127.136473,
        "post_office_type": "우체국",
        "post_office_name": "서울천호3동우편취급국",
        "distance": 1419.4279501261562,
        "walking_time": "약 22분"
      }
    ],
    "public_health_center": [
      {
        "public_health_center_lat": 37.54684651,
        "public_health_center_lon": 127.1337755,
        "public_health_center_type": "보건소",
        "public_health_center_name": "천호보건지소",
        "distance": 634.6733482346083,
        "walking_time": "약 10분"
      }
    ],
    "school": [
      {
        "school_lat": 37.5563616900258,
        "school_lon": 127.133604335628,
        "school_type": "중학교",
        "school_name": "신암중학교",
        "distance": 466.8977733238338,
        "walking_time": "약 7분"
      },
      {
        "school_lat": 37.5558469097869,
        "school_lon": 127.12819596827,
        "school_type": "초등학교",
        "school_name": "서울선사초등학교",
        "distance": 509.5365970683452,
        "walking_time": "약 8분"
      },
      {
        "school_lat": 37.5563158751807,
        "school_lon": 127.13577562154,
        "school_type": "고등학교",
        "school_name": "선사고등학교",
        "distance": 552.8003725325107,
        "walking_time": "약 9분"
      },
      {
        "school_lat": 37.5553453453104,
        "school_lon": 127.138008577115,
        "school_type": "중학교",
        "school_name": "강일중학교",
        "distance": 627.4289152497205,
        "walking_time": "약 10분"
      },
      {
        "school_lat": 37.5477189664877,
        "school_lon": 127.136592330295,
        "school_type": "초등학교",
        "school_name": "서울천호초등학교",
        "distance": 658.9118604204816,
        "walking_time": "약 10분"
      },
      {
        "school_lat": 37.5463638024947,
        "school_lon": 127.130187177341,
        "school_type": "초등학교",
        "school_name": "서울강동초등학교",
        "distance": 685.9221334777695,
        "walking_time": "약 11분"
      },
      {
        "school_lat": 37.5500236743432,
        "school_lon": 127.124404356441,
        "school_type": "초등학교",
        "school_name": "서울신암초등학교",
        "distance": 715.4339948964141,
        "walking_time": "약 11분"
      },
      {
        "school_lat": 37.5458447527249,
        "school_lon": 127.128196604109,
        "school_type": "중학교",
        "school_name": "천일중학교",
        "distance": 797.8673883944421,
        "walking_time": "약 12분"
      },
      {
        "school_lat": 37.5498545397762,
        "school_lon": 127.141541303447,
        "school_type": "고등학교",
        "school_name": "성덕고등학교",
        "distance": 889.6777849624601,
        "walking_time": "약 14분"
      },
      {
        "school_lat": 37.5498545397762,
        "school_lon": 127.141541303447,
        "school_type": "중학교",
        "school_name": "성덕여자중학교",
        "distance": 889.6777849624601,
        "walking_time": "약 14분"
      }
    ],
    "subway": [
      {
        "subway_lat": 37.5501403417224,
        "subway_lon": 127.127540246626,
        "subway_type": "지하철",
        "subway_name": "8호선-암사역",
        "distance": 461.8951238400017,
        "walking_time": "약 7분"
      },
      {
        "subway_lat": 37.5572689182034,
        "subway_lon": 127.137592807465,
        "subway_type": "지하철",
        "subway_name": "8호선-암사역사공원역",
        "distance": 737.0237805786907,
        "walking_time": "약 12분"
      },
      {
        "subway_lat": 37.551257212513,
        "subway_lon": 127.144000696892,
        "subway_type": "지하철",
        "subway_name": "5호선-명일역",
        "distance": 1068.5552701224085,
        "walking_time": "약 16분"
      },
      {
        "subway_lat": 37.5457314720664,
        "subway_lon": 127.142970847846,
        "subway_type": "지하철",
        "subway_name": "5호선-굽은다리(강동구민회관앞)역",
        "distance": 1219.4224421867666,
        "walking_time": "약 19분"
      }
    ],
    "supermarket": [
      {
        "supermarket_lat": 37.55238065,
        "supermarket_lon": 127.1350988,
        "supermarket_type": "마트",
        "supermarket_name": "홈플러스(주) 익스프레스 암사점",
        "distance": 276.61514216052274,
        "walking_time": "약 5분"
      },
      {
        "supermarket_lat": 37.55525285,
        "supermarket_lon": 127.1403472,
        "supermarket_type": "마트",
        "supermarket_name": "(주)지에스리테일 암사캐슬점",
        "distance": 805.7784741961832,
        "walking_time": "약 13분"
      },
      {
        "supermarket_lat": 37.55109534,
        "supermarket_lon": 127.144778,
        "supermarket_type": "마트",
        "supermarket_name": "(주)지에스리테일 명일점",
        "distance": 1138.7468544480917,
        "walking_time": "약 17분"
      },
      {
        "supermarket_lat": 37.54571459,
        "supermarket_lon": 127.1422553,
        "supermarket_type": "마트",
        "supermarket_name": "홈플러스 강동점",
        "distance": 1171.0204645632089,
        "walking_time": "약 18분"
      },
      {
        "supermarket_lat": 37.54159201,
        "supermarket_lon": 127.1255364,
        "supermarket_type": "마트",
        "supermarket_name": "이천일아울렛 천호점",
        "distance": 1325.560838979905,
        "walking_time": "약 20분"
      },
      {
        "supermarket_lat": 37.54260895,
        "supermarket_lon": 127.1436538,
        "supermarket_type": "마트",
        "supermarket_name": "동서울오네뜨상가",
        "distance": 1496.893825656396,
        "walking_time": "약 23분"
      },
      {
        "supermarket_lat": 37.5520143,
        "supermarket_lon": 127.1494576,
        "supermarket_type": "마트",
        "supermarket_name": "(주)이마트에브리데이 명일동점",
        "distance": 1542.922746923102,
        "walking_time": "약 24분"
      }
    ],
    "theater": [
      {
        "theater_lat": 37.5457145865749,
        "theater_lon": 127.14225531407,
        "theater_type": "영화관",
        "theater_name": "CGV 천호",
        "distance": 1171.021666565489,
        "walking_time": "약 18분"
      }
    ]
  }
}