{
  "클러스터_위도": 37.482113,
  "클러스터_경도": 126.994966,
  "클러스터_level": 3.0,
  "facilities": {
    "bus": [
      {
        "bus_lat": 37.4811877,
        "bus_lon": 126.9964065,
        "bus_type": "버스정류장",
        "bus_name": "방배역",
        "distance": 163.531110470051,
        "walking_time": "약 3분"
      },
      {
        "bus_lat": 37.48121113,
        "bus_lon": 126.9964879,
        "bus_type": "버스정류장",
        "bus_name": "방배(백석예술대)역.3번출구",
        "distance": 167.6025526152109,
        "walking_time": "약 3분"
      },
      {
        "bus_lat": 37.48135024,
        "bus_lon": 126.9967156,
        "bus_type": "버스정류장",
        "bus_name": "지하철2호선방배역",
        "distance": 176.14592846238222,
        "walking_time": "약 3분"
      },
      {
        "bus_lat": 37.48344946,
        "bus_lon": 126.9961464,
        "bus_type": "버스정류장",
        "bus_name": "방배1동주민센터.방배아크로타워",
        "distance": 181.47318108499945,
        "walking_time": "약 3분"
      },
      {
        "bus_lat": 37.48349012,
        "bus_lon": 126.9962576,
        "bus_type": "버스정류장",
        "bus_name": "방배1동주민센터.방배아크로타워",
        "distance": 190.8845884545837,
        "walking_time": "약 3분"
      },
      {
        "bus_lat": 37.48103714,
        "bus_lon": 126.9967608,
        "bus_type": "버스정류장",
        "bus_name": "방배역.백석예술대학교",
        "distance": 198.47582920032585,
        "walking_time": "약 3분"
      },
      {
        "bus_lat": 37.48097865,
        "bus_lon": 126.9967265,
        "bus_type": "버스정류장",
        "bus_name": "방배역.백석대",
        "distance": 200.103942529187,
        "walking_time": "약 3분"
      },
      {
        "bus_lat": 37.48232334,
        "bus_lon": 126.9972384,
        "bus_type": "버스정류장",
        "bus_name": "방배역",
        "distance": 201.87122045322013,
        "walking_time": "약 4분"
      },
      {
        "bus_lat": 37.4822348,
        "bus_lon": 126.9973009,
        "bus_type": "버스정류장",
        "bus_name": "방배(백석예술대)역.서초프라자약국",
        "distance": 206.47140022249604,
        "walking_time": "약 4분"
      },
      {
        "bus_lat": 37.48358924,
        "bus_lon": 126.9964724,
        "bus_type": "버스정류장",
        "bus_name": "방배역.방배서리풀이편한세상",
        "distance": 211.2183385428196,
        "walking_time": "약 4분"
      }
    ],
    "community_center": [
      {
        "community_center_lat": 37.48336166,
        "community_center_lon": 126.9945139,
        "community_center_type": "주민센터",
        "community_center_name": "방배1동 자치회관",
        "distance": 144.4618135491922,
        "walking_time": "약 3분"
      },
      {
        "community_center_lat": 37.47843876,
        "community_center_lon": 126.9999966,
        "community_center_type": "주민센터",
        "community_center_name": "방배3동 자치회관",
        "distance": 603.2965833619812,
        "walking_time": "약 10분"
      },
      {
        "community_center_lat": 37.48900761,
        "community_center_lon": 126.9922424,
        "community_center_type": "주민센터",
        "community_center_name": "방배4동 자치회관",
        "distance": 803.4278650154976,
        "walking_time": "약 12분"
      },
      {
        "community_center_lat": 37.47977264,
        "community_center_lon": 126.9855596,
        "community_center_type": "주민센터",
        "community_center_name": "방배2동 자치회관",
        "distance": 869.8548971095656,
        "walking_time": "약 13분"
      },
      {
        "community_center_lat": 37.49414867,
        "community_center_lon": 126.988847,
        "community_center_type": "주민센터",
        "community_center_name": "방배본동 자치회관",
        "distance": 1443.0998063727457,
        "walking_time": "약 22분"
      },
      {
        "community_center_lat": 37.49748589,
        "community_center_lon": 127.0003286,
        "community_center_type": "주민센터",
        "community_center_name": "반포4동 자치회관",
        "distance": 1773.6581512740258,
        "walking_time": "약 27분"
      }
    ],
    "convenience_store": [
      {
        "convenience_store_lat": 37.48134397,
        "convenience_store_lon": 126.9951427,
        "convenience_store_type": "편의점",
        "convenience_store_name": "GS25 방배푸른점",
        "distance": 86.92205936015638,
        "walking_time": "약 2분"
      },
      {
        "convenience_store_lat": 37.48187813,
        "convenience_store_lon": 126.9963612,
        "convenience_store_type": "편의점",
        "convenience_store_name": "세븐일레븐 방배본점",
        "distance": 125.8495030021474,
        "walking_time": "약 2분"
      },
      {
        "convenience_store_lat": 37.48310745,
        "convenience_store_lon": 126.9958648,
        "convenience_store_type": "편의점",
        "convenience_store_name": "CU 대화훼미리점",
        "distance": 136.07781941149273,
        "walking_time": "약 3분"
      },
      {
        "convenience_store_lat": 37.48064598,
        "convenience_store_lon": 126.9958105,
        "convenience_store_type": "편의점",
        "convenience_store_name": "CU 서울백석대점",
        "distance": 179.33966389692543,
        "walking_time": "약 3분"
      },
      {
        "convenience_store_lat": 37.481692,
        "convenience_store_lon": 126.9928579,
        "convenience_store_type": "편의점",
        "convenience_store_name": "CU 방배중앙로점",
        "distance": 191.815166666432,
        "walking_time": "약 3분"
      },
      {
        "convenience_store_lat": 37.48364616,
        "convenience_store_lon": 126.9937056,
        "convenience_store_type": "편의점",
        "convenience_store_name": "CU 방배원점",
        "distance": 203.5481725417509,
        "walking_time": "약 4분"
      },
      {
        "convenience_store_lat": 37.48333282,
        "convenience_store_lon": 126.99689,
        "convenience_store_type": "편의점",
        "convenience_store_name": "GS25 방배역점",
        "distance": 217.29924165308915,
        "walking_time": "약 4분"
      },
      {
        "convenience_store_lat": 37.48508726,
        "convenience_store_lon": 126.9943027,
        "convenience_store_type": "편의점",
        "convenience_store_name": "GS25 방배제일점",
        "distance": 335.86139121251205,
        "walking_time": "약 6분"
      },
      {
        "convenience_store_lat": 37.48419765,
        "convenience_store_lon": 126.9920538,
        "convenience_store_type": "편의점",
        "convenience_store_name": "CU 방배제일점",
        "distance": 346.067098901079,
        "walking_time": "약 6분"
      },
      {
        "convenience_store_lat": 37.48135397,
        "convenience_store_lon": 126.9990343,
        "convenience_store_type": "편의점",
        "convenience_store_name": "CU 방배효령점",
        "distance": 368.7687298874501,
        "walking_time": "약 6분"
      }
    ],
    "daycare": [
      {
        "daycare_lat": 37.48116407,
        "daycare_lon": 126.9939761,
        "daycare_type": "어린이집",
        "daycare_name": "서초구립 방배1동초록꿈어린이집",
        "distance": 136.9789311463962,
        "walking_time": "약 3분"
      },
      {
        "daycare_lat": 37.48386170979208,
        "daycare_lon": 126.9943354288583,
        "daycare_type": "어린이집",
        "daycare_name": "선우어린이집",
        "distance": 202.25149078446643,
        "walking_time": "약 4분"
      },
      {
        "daycare_lat": 37.48387071933534,
        "daycare_lon": 126.99432412164757,
        "daycare_type": "어린이집",
        "daycare_name": "선우어린이집",
        "distance": 203.49027133917684,
        "walking_time": "약 4분"
      },
      {
        "daycare_lat": 37.48399116043787,
        "daycare_lon": 126.9945116008178,
        "daycare_type": "어린이집",
        "daycare_name": "킹스키즈어린이집",
        "distance": 212.6559068643472,
        "walking_time": "약 4분"
      },
      {
        "daycare_lat": 37.47984316407856,
        "daycare_lon": 126.99344539072644,
        "daycare_type": "어린이집",
        "daycare_name": "서초구립 대우효령어린이집",
        "distance": 285.8434307103043,
        "walking_time": "약 5분"
      },
      {
        "daycare_lat": 37.48388862715311,
        "daycare_lon": 126.99233417043808,
        "daycare_type": "어린이집",
        "daycare_name": "서초예랑어린이집",
        "distance": 304.813235407037,
        "walking_time": "약 5분"
      },
      {
        "daycare_lat": 37.48507287,
        "daycare_lon": 126.9930502,
        "daycare_type": "어린이집",
        "daycare_name": "방배어린이집",
        "distance": 369.99618167656905,
        "walking_time": "약 6분"
      },
      {
        "daycare_lat": 37.48494609796056,
        "daycare_lon": 126.99266627423752,
        "daycare_type": "어린이집",
        "daycare_name": "에덴어린이집",
        "distance": 374.72351877689374,
        "walking_time": "약 6분"
      },
      {
        "daycare_lat": 37.48544217,
        "daycare_lon": 126.9938809,
        "daycare_type": "어린이집",
        "daycare_name": "초록나무의꿈어린이집",
        "distance": 382.3681026124203,
        "walking_time": "약 6분"
      },
      {
        "daycare_lat": 37.4833168,
        "daycare_lon": 126.989892,
        "daycare_type": "어린이집",
        "daycare_name": "한빛어린이집",
        "distance": 467.2977061940057,
        "walking_time": "약 7분"
      }
    ],
    "education": [
      {
        "education_lat": 37.48076314,
        "education_lon": 126.9966611,
        "education_type": "공연장",
        "education_name": "백석아트홀",
        "distance": 211.89983275987285,
        "walking_time": "약 4분"
      },
      {
        "education_lat": 37.48811496,
        "education_lon": 126.9919865,
        "education_type": "미술관/갤러리",
        "education_name": "이스랏아트룸",
        "distance": 717.3002294983349,
        "walking_time": "약 11분"
      },
      {
        "education_lat": 37.48641666,
        "education_lon": 127.0045249,
        "education_type": "공연장",
        "education_name": "모차르트홀",
        "distance": 969.7351009837632,
        "walking_time": "약 15분"
      },
      {
        "education_lat": 37.48312341,
        "education_lon": 127.0099787,
        "education_type": "공연장",
        "education_name": "서리풀 아트홀",
        "distance": 1329.437613700246,
        "walking_time": "약 20분"
      },
      {
        "education_lat": 37.47740797974563,
        "education_lon": 127.00957863302924,
        "education_type": "박물관/기념관",
        "education_name": "국립국악박물관",
        "distance": 1391.5247847099083,
        "walking_time": "약 21분"
      },
      {
        "education_lat": 37.47771881,
        "education_lon": 127.0098185,
        "education_type": "공연장",
        "education_name": "국립국악원",
        "distance": 1398.7123547437825,
        "walking_time": "약 21분"
      },
      {
        "education_lat": 37.48943808,
        "education_lon": 127.0082294,
        "education_type": "공연장",
        "education_name": "샤론아트홀",
        "distance": 1425.8264258292131,
        "walking_time": "약 22분"
      },
      {
        "education_lat": 37.4980221,
        "education_lon": 126.9938793,
        "education_type": "미술관/갤러리",
        "education_name": "스페이스 이수 ",
        "distance": 1771.6075317665434,
        "walking_time": "약 27분"
      },
      {
        "education_lat": 37.4974226,
        "education_lon": 127.0032279,
        "education_type": "도서관",
        "education_name": "국립중앙도서관",
        "distance": 1851.849551921996,
        "walking_time": "약 28분"
      },
      {
        "education_lat": 37.49883446,
        "education_lon": 126.9912425,
        "education_type": "공연장",
        "education_name": "반포심산아트홀",
        "distance": 1888.140504260169,
        "walking_time": "약 29분"
      }
    ],
    "electric_gas_station": [
      {
        "electric_gas_station_lat": 37.4752427,
        "electric_gas_station_lon": 126.9839861,
        "electric_gas_station_type": "전기차 충전소",
        "electric_gas_station_name": "사당역 공영주차장",
        "distance": 1233.837039534589,
        "walking_time": "약 19분"
      }
    ],
    "fitness": [
      {
        "fitness_lat": 37.48179393,
        "fitness_lon": 126.9952351,
        "fitness_type": "운동시설",
        "fitness_name": "모브핏(Mauve Fit)",
        "distance": 42.691650402326125,
        "walking_time": "약 1분"
      },
      {
        "fitness_lat": 37.48259493,
        "fitness_lon": 126.9951385,
        "fitness_type": "운동시설",
        "fitness_name": "TOMO PT STUDIO(토모피티)",
        "distance": 55.7079084405343,
        "walking_time": "약 1분"
      },
      {
        "fitness_lat": 37.48110171,
        "fitness_lon": 126.9956841,
        "fitness_type": "운동시설",
        "fitness_name": "대한퍼스널트레이너협회",
        "distance": 129.07396012312927,
        "walking_time": "약 2분"
      },
      {
        "fitness_lat": 37.48174488,
        "fitness_lon": 126.9967384,
        "fitness_type": "운동시설",
        "fitness_name": "어반액티브",
        "distance": 161.6614190158791,
        "walking_time": "약 3분"
      },
      {
        "fitness_lat": 37.48174488,
        "fitness_lon": 126.9967384,
        "fitness_type": "운동시설",
        "fitness_name": "크레이지독스짐",
        "distance": 161.6614190158791,
        "walking_time": "약 3분"
      },
      {
        "fitness_lat": 37.48327829,
        "fitness_lon": 126.9961212,
        "fitness_type": "운동시설",
        "fitness_name": "(주)빅브로짐 방배점",
        "distance": 164.86232876095826,
        "walking_time": "약 3분"
      },
      {
        "fitness_lat": 37.48166506,
        "fitness_lon": 126.9971188,
        "fitness_type": "운동시설",
        "fitness_name": "방배역점 스포애니 (주)케이디헬스케어",
        "distance": 196.3808720513318,
        "walking_time": "약 3분"
      },
      {
        "fitness_lat": 37.48276654,
        "fitness_lon": 126.9971215,
        "fitness_type": "운동시설",
        "fitness_name": "얼티밋 크로스핏 방배점",
        "distance": 203.60638128675768,
        "walking_time": "약 4분"
      },
      {
        "fitness_lat": 37.4826423,
        "fitness_lon": 126.9972102,
        "fitness_type": "운동시설",
        "fitness_name": "서리풀PT",
        "distance": 206.58431143891124,
        "walking_time": "약 4분"
      },
      {
        "fitness_lat": 37.48404809,
        "fitness_lon": 126.9955026,
        "fitness_type": "운동시설",
        "fitness_name": "아틀라스 트레이닝(Atlas)",
        "distance": 220.31998261637588,
        "walking_time": "약 4분"
      }
    ],
    "gas_station": [
      {
        "gas_station_lat": 37.47816413,
        "gas_station_lon": 126.9877632,
        "gas_station_type": "주유소",
        "gas_station_name": "방배동주유소",
        "distance": 772.5040263695217,
        "walking_time": "약 12분"
      },
      {
        "gas_station_lat": 37.4831195,
        "gas_station_lon": 126.9815309,
        "gas_station_type": "주유소",
        "gas_station_name": "현대오일뱅크㈜직영사당셀프주유소",
        "distance": 1190.7494932343548,
        "walking_time": "약 18분"
      },
      {
        "gas_station_lat": 37.48870348,
        "gas_station_lon": 126.98197,
        "gas_station_type": "주유소",
        "gas_station_name": "㈜성림에너지 남성주유소",
        "distance": 1360.8584267715023,
        "walking_time": "약 21분"
      },
      {
        "gas_station_lat": 37.48647275,
        "gas_station_lon": 127.0096792,
        "gas_station_type": "주유소",
        "gas_station_name": "서초꽃마을주유소",
        "distance": 1385.7859884034326,
        "walking_time": "약 21분"
      },
      {
        "gas_station_lat": 37.472657,
        "gas_station_lon": 126.9822289,
        "gas_station_type": "주유소",
        "gas_station_name": "SK에너지㈜대공원주유소",
        "distance": 1539.113032810553,
        "walking_time": "약 23분"
      },
      {
        "gas_station_lat": 37.49275344,
        "gas_station_lon": 126.9833251,
        "gas_station_type": "주유소",
        "gas_station_name": "현대오일뱅크(주) 직영방배현대주유소",
        "distance": 1566.7807186521695,
        "walking_time": "약 24분"
      },
      {
        "gas_station_lat": 37.49273094,
        "gas_station_lon": 127.0075712,
        "gas_station_type": "주유소",
        "gas_station_name": "대신석유(주) 서원주유소",
        "distance": 1622.0054301116652,
        "walking_time": "약 25분"
      },
      {
        "gas_station_lat": 37.49493332,
        "gas_station_lon": 126.9832156,
        "gas_station_type": "주유소",
        "gas_station_name": "지에스칼텍스(주) 선천주유소",
        "distance": 1762.6801508243532,
        "walking_time": "약 27분"
      },
      {
        "gas_station_lat": 37.49838868,
        "gas_station_lon": 126.9949986,
        "gas_station_type": "주유소",
        "gas_station_name": "신반포주유소",
        "distance": 1809.7753292754608,
        "walking_time": "약 28분"
      }
    ],
    "hospital": [
      {
        "hospital_lat": 37.48239242,
        "hospital_lon": 126.9939814,
        "hospital_type": "병원",
        "hospital_name": "리투의원",
        "distance": 92.26757373315696,
        "walking_time": "약 2분"
      },
      {
        "hospital_lat": 37.48313662,
        "hospital_lon": 126.995289,
        "hospital_type": "병원",
        "hospital_name": "세방한의원",
        "distance": 117.33536759931567,
        "walking_time": "약 2분"
      },
      {
        "hospital_lat": 37.48313662,
        "hospital_lon": 126.995289,
        "hospital_type": "병원",
        "hospital_name": "제나두치과의원",
        "distance": 117.33536759931567,
        "walking_time": "약 2분"
      },
      {
        "hospital_lat": 37.48310745,
        "hospital_lon": 126.9958648,
        "hospital_type": "병원",
        "hospital_name": "양지한의원",
        "distance": 136.07781941149273,
        "walking_time": "약 3분"
      },
      {
        "hospital_lat": 37.48268246,
        "hospital_lon": 126.9963875,
        "hospital_type": "병원",
        "hospital_name": "메리트피부과의원",
        "distance": 140.5069377609364,
        "walking_time": "약 3분"
      },
      {
        "hospital_lat": 37.48268246,
        "hospital_lon": 126.9963875,
        "hospital_type": "병원",
        "hospital_name": "시크릿치과의원",
        "distance": 140.5069377609364,
        "walking_time": "약 3분"
      },
      {
        "hospital_lat": 37.48268246,
        "hospital_lon": 126.9963875,
        "hospital_type": "병원",
        "hospital_name": "씨앤씨이비인후과의원",
        "distance": 140.5069377609364,
        "walking_time": "약 3분"
      },
      {
        "hospital_lat": 37.48268246,
        "hospital_lon": 126.9963875,
        "hospital_type": "병원",
        "hospital_name": "씨앤씨정형외과의원",
        "distance": 140.5069377609364,
        "walking_time": "약 3분"
      },
      {
        "hospital_lat": 37.48284959,
        "hospital_lon": 126.9962926,
        "hospital_type": "병원",
        "hospital_name": "나눔정신건강의학과의원",
        "distance": 142.86544462241633,
        "walking_time": "약 3분"
      },
      {
        "hospital_lat": 37.48284959,
        "hospital_lon": 126.9962926,
        "hospital_type": "병원",
        "hospital_name": "최진석치과의원",
        "distance": 142.86544462241633,
        "walking_time": "약 3분"
      }
    ],
    "music_room": [
      {
        "music_room_lat": 37.48231249,
        "music_room_lon": 126.9959768,
        "music_room_type": "노래방",
        "music_room_name": "볼케이노 노래연습장",
        "distance": 91.90789047811832,
        "walking_time": "약 2분"
      },
      {
        "music_room_lat": 37.48213283,
        "music_room_lon": 126.9960781,
        "music_room_type": "노래방",
        "music_room_name": "비너스노래연습장",
        "distance": 98.1542309406658,
        "walking_time": "약 2분"
      },
      {
        "music_room_lat": 37.48203075,
        "music_room_lon": 126.9961342,
        "music_room_type": "노래방",
        "music_room_name": "명품노래연습장",
        "distance": 103.48461799169084,
        "walking_time": "약 2분"
      },
      {
        "music_room_lat": 37.48275805,
        "music_room_lon": 126.9960922,
        "music_room_type": "노래방",
        "music_room_name": "궁전",
        "distance": 122.5548582195367,
        "walking_time": "약 2분"
      },
      {
        "music_room_lat": 37.4821706,
        "music_room_lon": 126.9964064,
        "music_room_type": "노래방",
        "music_room_name": "알라딘 노래연습장",
        "distance": 127.25923469290744,
        "walking_time": "약 2분"
      },
      {
        "music_room_lat": 37.48295842,
        "music_room_lon": 126.9959521,
        "music_room_type": "노래방",
        "music_room_name": "악쓰는하마코인노래연습장",
        "distance": 128.094180715803,
        "walking_time": "약 2분"
      },
      {
        "music_room_lat": 37.48170297,
        "music_room_lon": 126.9963776,
        "music_room_type": "노래방",
        "music_room_name": "K2노래연습장",
        "distance": 132.63941658705747,
        "walking_time": "약 2분"
      },
      {
        "music_room_lat": 37.48310745,
        "music_room_lon": 126.9958648,
        "music_room_type": "노래방",
        "music_room_name": "리코스타코인노래연습장",
        "distance": 136.07781941149273,
        "walking_time": "약 3분"
      },
      {
        "music_room_lat": 37.48208762,
        "music_room_lon": 126.9965102,
        "music_room_type": "노래방",
        "music_room_name": "샴푸노래연습장",
        "distance": 136.28635672781073,
        "walking_time": "약 3분"
      },
      {
        "music_room_lat": 37.48196526,
        "music_room_lon": 126.9965332,
        "music_room_type": "노래방",
        "music_room_name": "인템포노래연습장",
        "distance": 139.2590914611989,
        "walking_time": "약 3분"
      }
    ],
    "park": [
      {
        "park_lat": 37.470484,
        "park_lon": 127.0091324,
        "park_type": "공원",
        "park_name": "우면산도시자연공원",
        "distance": 1798.5691179495022,
        "walking_time": "약 27분"
      }
    ],
    "park_station": [
      {
        "park_station_lat": 37.48288583,
        "park_station_lon": 126.9967235,
        "park_station_type": "주차장",
        "park_station_name": "방배역 공영주차장",
        "distance": 177.29582144862246,
        "walking_time": "약 3분"
      },
      {
        "park_station_lat": 37.48224634,
        "park_station_lon": 126.9920143,
        "park_station_type": "주차장",
        "park_station_name": "중앙로공영주차빌딩",
        "distance": 260.8735349153279,
        "walking_time": "약 4분"
      },
      {
        "park_station_lat": 37.48548342,
        "park_station_lon": 126.9924697,
        "park_station_type": "주차장",
        "park_station_name": "방배1동 공영주차장",
        "distance": 434.70827076591576,
        "walking_time": "약 7분"
      },
      {
        "park_station_lat": 37.4890159,
        "park_station_lon": 126.9922755,
        "park_station_type": "주차장",
        "park_station_name": "방배열린문화센터 공영주차장",
        "distance": 803.4397365079673,
        "walking_time": "약 12분"
      },
      {
        "park_station_lat": 37.47808581,
        "park_station_lon": 126.982573,
        "park_station_type": "주차장",
        "park_station_name": "방배복개도로 제1지역 공영주차장",
        "distance": 1181.6968745285951,
        "walking_time": "약 18분"
      },
      {
        "park_station_lat": 37.47808581,
        "park_station_lon": 126.982573,
        "park_station_type": "주차장",
        "park_station_name": "방배복개도로 제1지역 공영주차장",
        "distance": 1181.6968745285951,
        "walking_time": "약 18분"
      },
      {
        "park_station_lat": 37.47539826,
        "park_station_lon": 126.983669,
        "park_station_type": "주차장",
        "park_station_name": "사당노외 공영주차장",
        "distance": 1245.4828026272016,
        "walking_time": "약 19분"
      },
      {
        "park_station_lat": 37.48760863,
        "park_station_lon": 127.0075262,
        "park_station_type": "주차장",
        "park_station_name": "공유) 3-66",
        "distance": 1265.557475519244,
        "walking_time": "약 19분"
      },
      {
        "park_station_lat": 37.48775956,
        "park_station_lon": 126.9801528,
        "park_station_type": "주차장",
        "park_station_name": "남성사계시장",
        "distance": 1450.0230072640893,
        "walking_time": "약 22분"
      },
      {
        "park_station_lat": 37.49053482,
        "park_station_lon": 127.0089652,
        "park_station_type": "주차장",
        "park_station_name": "서초역 공영주차장",
        "distance": 1550.0524951355014,
        "walking_time": "약 24분"
      }
    ],
    "pc_room": [
      {
        "pc_room_lat": 37.4827114382902,
        "pc_room_lon": 126.995401139741,
        "pc_room_type": "PC방",
        "pc_room_name": "옵티멈존PC카페",
        "distance": 76.82604454749482,
        "walking_time": "약 2분"
      },
      {
        "pc_room_lat": 37.4824598162513,
        "pc_room_lon": 126.996241327651,
        "pc_room_type": "PC방",
        "pc_room_name": "블랙몬스터 PC zone",
        "distance": 118.9565890549654,
        "walking_time": "약 2분"
      },
      {
        "pc_room_lat": 37.4818646316946,
        "pc_room_lon": 126.997007580557,
        "pc_room_type": "PC방",
        "pc_room_name": "주식회사 옵티멈존피씨방방배역점",
        "distance": 182.2499232287531,
        "walking_time": "약 3분"
      },
      {
        "pc_room_lat": 37.4864215552405,
        "pc_room_lon": 126.994140643577,
        "pc_room_type": "PC방",
        "pc_room_name": "후PC방",
        "distance": 484.5929379758688,
        "walking_time": "약 8분"
      },
      {
        "pc_room_lat": 37.4875261941992,
        "pc_room_lon": 126.994201615542,
        "pc_room_type": "PC방",
        "pc_room_name": "제로백 PC 내방역점",
        "distance": 605.6865800387968,
        "walking_time": "약 10분"
      },
      {
        "pc_room_lat": 37.492036266032,
        "pc_room_lon": 126.988969504993,
        "pc_room_type": "PC방",
        "pc_room_name": "세븐PC방",
        "distance": 1223.706715611635,
        "walking_time": "약 19분"
      },
      {
        "pc_room_lat": 37.4785067233821,
        "pc_room_lon": 126.981129392759,
        "pc_room_type": "PC방",
        "pc_room_name": "3POP PC CAFE",
        "distance": 1285.1088760747516,
        "walking_time": "약 20분"
      },
      {
        "pc_room_lat": 37.4874603457045,
        "pc_room_lon": 126.981886636778,
        "pc_room_type": "PC방",
        "pc_room_name": "존앤존PC방",
        "distance": 1298.2259004507043,
        "walking_time": "약 20분"
      },
      {
        "pc_room_lat": 37.4856557274483,
        "pc_room_lon": 126.98081473562,
        "pc_room_type": "PC방",
        "pc_room_name": "3POP PC카페(이수역점)",
        "distance": 1309.3163257318058,
        "walking_time": "약 20분"
      },
      {
        "pc_room_lat": 37.4856557274483,
        "pc_room_lon": 126.98081473562,
        "pc_room_type": "PC방",
        "pc_room_name": "프로 PC방",
        "distance": 1309.3163257318058,
        "walking_time": "약 20분"
      }
    ],
    "police_office": [
      {
        "police_office_lat": 37.48396059,
        "police_office_lon": 126.9953409,
        "police_office_type": "경찰소",
        "police_office_name": "방배1파출소",
        "distance": 208.08883554665536,
        "walking_time": "약 4분"
      },
      {
        "police_office_lat": 37.47951548,
        "police_office_lon": 126.982172,
        "police_office_type": "경찰소",
        "police_office_name": "남태령지구대",
        "distance": 1165.2986940664243,
        "walking_time": "약 18분"
      },
      {
        "police_office_lat": 37.49414867,
        "police_office_lon": 126.988847,
        "police_office_type": "경찰소",
        "police_office_name": "이수파출소",
        "distance": 1443.0998063727457,
        "walking_time": "약 22분"
      }
    ],
    "post_office": [
      {
        "post_office_lat": 37.48313662,
        "post_office_lon": 126.995289,
        "post_office_type": "우체국",
        "post_office_name": "서울방배1동우편취급국",
        "distance": 117.33536759931567,
        "walking_time": "약 2분"
      },
      {
        "post_office_lat": 37.47831415,
        "post_office_lon": 127.0007047,
        "post_office_type": "우체국",
        "post_office_name": "서울방배3동우편취급국",
        "distance": 659.4373533997837,
        "walking_time": "약 10분"
      },
      {
        "post_office_lat": 37.47720022,
        "post_office_lon": 126.98462,
        "post_office_type": "우체국",
        "post_office_name": "서울방배2동우편취급국",
        "distance": 1063.8974073913964,
        "walking_time": "약 16분"
      },
      {
        "post_office_lat": 37.48337906,
        "post_office_lon": 126.9814111,
        "post_office_type": "우체국",
        "post_office_name": "서울사당동우체국",
        "distance": 1204.3037057408887,
        "walking_time": "약 18분"
      },
      {
        "post_office_lat": 37.48906575,
        "post_office_lon": 127.0086436,
        "post_office_type": "우체국",
        "post_office_name": "서울서초3동우체국",
        "distance": 1433.2247941075125,
        "walking_time": "약 22분"
      },
      {
        "post_office_lat": 37.49438617,
        "post_office_lon": 126.9897947,
        "post_office_type": "우체국",
        "post_office_name": "서울방배동우체국",
        "distance": 1438.966687556262,
        "walking_time": "약 22분"
      },
      {
        "post_office_lat": 37.49240761,
        "post_office_lon": 127.0052734,
        "post_office_type": "우체국",
        "post_office_name": "서울대법원우편취급국",
        "distance": 1461.9991204151468,
        "walking_time": "약 22분"
      },
      {
        "post_office_lat": 37.49942863,
        "post_office_lon": 126.9984871,
        "post_office_type": "우체국",
        "post_office_name": "서울반포4동우편취급국",
        "distance": 1950.311091627488,
        "walking_time": "약 30분"
      }
    ],
    "public_health_center": [
      {
        "public_health_center_lat": 37.48900761,
        "public_health_center_lon": 126.9922424,
        "public_health_center_type": "보건소",
        "public_health_center_name": "방배보건지소",
        "distance": 803.4278650154976,
        "walking_time": "약 12분"
      },
      {
        "public_health_center_lat": 37.49049503,
        "public_health_center_lon": 127.0053816,
        "public_health_center_type": "보건소",
        "public_health_center_name": "서초보건지소",
        "distance": 1308.914922107966,
        "walking_time": "약 20분"
      }
    ],
    "school": [
      {
        "school_lat": 37.4806300322796,
        "school_lon": 126.989859045395,
        "school_type": "중학교",
        "school_name": "이수중학교",
        "distance": 479.8547946747526,
        "walking_time": "약 8분"
      },
      {
        "school_lat": 37.4852056040312,
        "school_lon": 126.998848974708,
        "school_type": "초등학교",
        "school_name": "서울방일초등학교",
        "distance": 485.4301135746012,
        "walking_time": "약 8분"
      },
      {
        "school_lat": 37.4758460567445,
        "school_lon": 126.992615816174,
        "school_type": "고등학교",
        "school_name": "동덕여자고등학교",
        "distance": 727.0566207667255,
        "walking_time": "약 11분"
      },
      {
        "school_lat": 37.4758460567445,
        "school_lon": 126.992615816174,
        "school_type": "중학교",
        "school_name": "동덕여자중학교",
        "distance": 727.0566207667255,
        "walking_time": "약 11분"
      },
      {
        "school_lat": 37.4765029769283,
        "school_lon": 126.990073388581,
        "school_type": "초등학교",
        "school_name": "서울방현초등학교",
        "distance": 758.63378231915,
        "walking_time": "약 12분"
      },
      {
        "school_lat": 37.4797554325594,
        "school_lon": 127.003916819634,
        "school_type": "고등학교",
        "school_name": "상문고등학교",
        "distance": 832.1837846320469,
        "walking_time": "약 13분"
      },
      {
        "school_lat": 37.4867641043401,
        "school_lon": 126.987137986274,
        "school_type": "초등학교",
        "school_name": "서울방배초등학교",
        "distance": 862.8731777037221,
        "walking_time": "약 13분"
      },
      {
        "school_lat": 37.4842930566875,
        "school_lon": 127.004901860862,
        "school_type": "고등학교",
        "school_name": "서울고등학교",
        "distance": 909.604037990028,
        "walking_time": "약 14분"
      },
      {
        "school_lat": 37.4781887381851,
        "school_lon": 126.984058772938,
        "school_type": "초등학교",
        "school_name": "서울이수초등학교",
        "distance": 1056.755413588105,
        "walking_time": "약 16분"
      },
      {
        "school_lat": 37.4889197255873,
        "school_lon": 126.984545759343,
        "school_type": "고등학교",
        "school_name": "서문여자고등학교",
        "distance": 1190.8774219643667,
        "walking_time": "약 18분"
      }
    ],
    "self_laundromat": [
      {
        "self_laundromat_lat": 37.4842598,
        "self_laundromat_lon": 126.9916402,
        "self_laundromat_type": "셀프 빨래방",
        "self_laundromat_name": "에코런드렛빨래방&amp;아이스크림 방배점",
        "distance": 378.2875226713937,
        "walking_time": "약 6분"
      },
      {
        "self_laundromat_lat": 37.4842598,
        "self_laundromat_lon": 126.9916402,
        "self_laundromat_type": "셀프 빨래방",
        "self_laundromat_name": "에코런드렛빨래방&amp;아이스크림 방배점",
        "distance": 378.2875226713937,
        "walking_time": "약 6분"
      },
      {
        "self_laundromat_lat": 37.48554686,
        "self_laundromat_lon": 126.9966041,
        "self_laundromat_type": "셀프 빨래방",
        "self_laundromat_name": "셀빨래방 방배점",
        "distance": 408.2696377479617,
        "walking_time": "약 7분"
      },
      {
        "self_laundromat_lat": 37.48554686,
        "self_laundromat_lon": 126.9966041,
        "self_laundromat_type": "셀프 빨래방",
        "self_laundromat_name": "셀빨래방 방배점",
        "distance": 408.2696377479617,
        "walking_time": "약 7분"
      },
      {
        "self_laundromat_lat": 37.49218782,
        "self_laundromat_lon": 126.9900273,
        "self_laundromat_type": "셀프 빨래방",
        "self_laundromat_name": "워시엔조이 방배점",
        "distance": 1202.0323622691965,
        "walking_time": "약 18분"
      },
      {
        "self_laundromat_lat": 37.49218782,
        "self_laundromat_lon": 126.9900273,
        "self_laundromat_type": "셀프 빨래방",
        "self_laundromat_name": "워시엔조이 방배점",
        "distance": 1202.0323622691965,
        "walking_time": "약 18분"
      },
      {
        "self_laundromat_lat": 37.49133537,
        "self_laundromat_lon": 126.9863353,
        "self_laundromat_type": "셀프 빨래방",
        "self_laundromat_name": "셀프빨래터 방배점",
        "distance": 1277.3042751902942,
        "walking_time": "약 20분"
      },
      {
        "self_laundromat_lat": 37.49133537,
        "self_laundromat_lon": 126.9863353,
        "self_laundromat_type": "셀프 빨래방",
        "self_laundromat_name": "셀프빨래터 방배점",
        "distance": 1277.3042751902942,
        "walking_time": "약 20분"
      },
      {
        "self_laundromat_lat": 37.48969311,
        "self_laundromat_lon": 127.0076047,
        "self_laundromat_type": "셀프 빨래방",
        "self_laundromat_name": "워시엔조이 셀프빨래방 서초사랑점",
        "distance": 1397.8571162333967,
        "walking_time": "약 21분"
      },
      {
        "self_laundromat_lat": 37.48969311,
        "self_laundromat_lon": 127.0076047,
        "self_laundromat_type": "셀프 빨래방",
        "self_laundromat_name": "워시엔조이 셀프빨래방 서초사랑점",
        "distance": 1397.8571162333967,
        "walking_time": "약 21분"
      }
    ],
    "subway": [
      {
        "subway_lat": 37.4814364876589,
        "subway_lon": 126.997694899327,
        "subway_type": "지하철",
        "subway_name": "2호선-방배역",
        "distance": 252.2704194519208,
        "walking_time": "약 4분"
      },
      {
        "subway_lat": 37.487533528504,
        "subway_lon": 126.993190309509,
        "subway_type": "지하철",
        "subway_name": "7호선-내방역",
        "distance": 622.7661692861667,
        "walking_time": "약 10분"
      },
      {
        "subway_lat": 37.485015143952,
        "subway_lon": 126.981021812089,
        "subway_type": "지하철",
        "subway_name": "7호선-이수역",
        "distance": 1271.998695011444,
        "walking_time": "약 19분"
      },
      {
        "subway_lat": 37.4875538278198,
        "subway_lon": 126.982199707405,
        "subway_type": "지하철",
        "subway_name": "4호선-총신대입구(이수)역",
        "distance": 1278.617514721237,
        "walking_time": "약 20분"
      },
      {
        "subway_lat": 37.4768632653727,
        "subway_lon": 126.981595139341,
        "subway_type": "지하철",
        "subway_name": "4호선-사당역",
        "distance": 1316.3681214780331,
        "walking_time": "약 20분"
      },
      {
        "subway_lat": 37.4765228347619,
        "subway_lon": 126.981408909449,
        "subway_type": "지하철",
        "subway_name": "2호선-사당역",
        "distance": 1348.1492358526048,
        "walking_time": "약 21분"
      },
      {
        "subway_lat": 37.4918229990093,
        "subway_lon": 127.007580814715,
        "subway_type": "지하철",
        "subway_name": "2호선-서초역",
        "distance": 1550.6777850138628,
        "walking_time": "약 24분"
      }
    ],
    "supermarket": [
      {
        "supermarket_lat": 37.48207758,
        "supermarket_lon": 126.9840211,
        "supermarket_type": "마트",
        "supermarket_name": "방배종합시장",
        "distance": 965.7642851997508,
        "walking_time": "약 15분"
      },
      {
        "supermarket_lat": 37.49124224,
        "supermarket_lon": 126.9892705,
        "supermarket_type": "마트",
        "supermarket_name": "롯데슈퍼 방배2점",
        "distance": 1132.702212475334,
        "walking_time": "약 17분"
      },
      {
        "supermarket_lat": 37.49124224,
        "supermarket_lon": 126.9892705,
        "supermarket_type": "마트",
        "supermarket_name": "이수시장",
        "distance": 1132.702212475334,
        "walking_time": "약 17분"
      },
      {
        "supermarket_lat": 37.48443595,
        "supermarket_lon": 126.9803085,
        "supermarket_type": "마트",
        "supermarket_name": "(주)이마트에브리데이 이수점",
        "distance": 1318.8696321748782,
        "walking_time": "약 20분"
      },
      {
        "supermarket_lat": 37.4714704,
        "supermarket_lon": 126.9824665,
        "supermarket_type": "마트",
        "supermarket_name": "홈플러스 서울남현점",
        "distance": 1617.7368726269426,
        "walking_time": "약 25분"
      },
      {
        "supermarket_lat": 37.49680864,
        "supermarket_lon": 126.9856879,
        "supermarket_type": "마트",
        "supermarket_name": "롯데쇼핑(주)롯데슈퍼 방배점",
        "distance": 1827.655898277392,
        "walking_time": "약 28분"
      }
    ],
    "tax_office": [
      {
        "tax_office_lat": 37.48807484,
        "tax_office_lon": 126.9930124,
        "tax_office_type": "세무서",
        "tax_office_name": "반포세무서",
        "distance": 684.9704051550137,
        "walking_time": "약 11분"
      }
    ],
    "theater": [
      {
        "theater_lat": 37.4846140265703,
        "theater_lon": 126.981665713772,
        "theater_type": "영화관",
        "theater_name": "메가박스(주) 이수지점",
        "distance": 1206.0717953365693,
        "walking_time": "약 19분"
      }
    ],
    "university": [
      {
        "university_lat": 37.4803713866046,
        "university_lon": 126.996896954333,
        "university_type": "대학교",
        "university_name": "백석예술대학교",
        "distance": 257.94353995764845,
        "walking_time": "약 4분"
      }
    ]
  }
}