{
  "클러스터_위도": 37.54835921442699,
  "클러스터_경도": 126.93765842892572,
  "클러스터_level": 3.0,
  "facilities": {
    "bus": [
      {
        "bus_lat": 37.54740921,
        "bus_lon": 126.9373248,
        "bus_type": "버스정류장",
        "bus_name": "신수세양아파트",
        "distance": 109.6540421045378,
        "walking_time": "약 2분"
      },
      {
        "bus_lat": 37.54717215,
        "bus_lon": 126.9371835,
        "bus_type": "버스정류장",
        "bus_name": "성원아파트",
        "distance": 138.4771236325847,
        "walking_time": "약 3분"
      },
      {
        "bus_lat": 37.54935481,
        "bus_lon": 126.9386715,
        "bus_type": "버스정류장",
        "bus_name": "광성중고등학교",
        "distance": 142.23983543380598,
        "walking_time": "약 3분"
      },
      {
        "bus_lat": 37.54979815,
        "bus_lon": 126.9375706,
        "bus_type": "버스정류장",
        "bus_name": "신촌수정탕",
        "distance": 160.1895746226216,
        "walking_time": "약 3분"
      },
      {
        "bus_lat": 37.54729837,
        "bus_lon": 126.9390394,
        "bus_type": "버스정류장",
        "bus_name": "마포세무서",
        "distance": 169.51985983459292,
        "walking_time": "약 3분"
      },
      {
        "bus_lat": 37.54701628,
        "bus_lon": 126.9389468,
        "bus_type": "버스정류장",
        "bus_name": "마포세무서",
        "distance": 187.6163559743239,
        "walking_time": "약 3분"
      },
      {
        "bus_lat": 37.5469713,
        "bus_lon": 126.9390917,
        "bus_type": "버스정류장",
        "bus_name": "마포세무서",
        "distance": 199.45871547435925,
        "walking_time": "약 3분"
      },
      {
        "bus_lat": 37.548952,
        "bus_lon": 126.93986,
        "bus_type": "버스정류장",
        "bus_name": "광성중고등학교",
        "distance": 204.9763989615276,
        "walking_time": "약 4분"
      },
      {
        "bus_lat": 37.54990702,
        "bus_lon": 126.9356035,
        "bus_type": "버스정류장",
        "bus_name": "삼익아파트입구.신촌숲아이파크",
        "distance": 249.88030671667207,
        "walking_time": "약 4분"
      },
      {
        "bus_lat": 37.54748258,
        "bus_lon": 126.934707,
        "bus_type": "버스정류장",
        "bus_name": "신수동성당.신수동주민센터",
        "distance": 277.8581439698737,
        "walking_time": "약 5분"
      }
    ],
    "community_center": [
      {
        "community_center_lat": 37.54704643,
        "community_center_lon": 126.9352334,
        "community_center_type": "주민센터",
        "community_center_name": "신수동 자치회관",
        "distance": 258.8736881497908,
        "walking_time": "약 4분"
      },
      {
        "community_center_lat": 37.54773473,
        "community_center_lon": 126.9320618,
        "community_center_type": "주민센터",
        "community_center_name": "서강동 자치회관",
        "distance": 498.2615967777259,
        "walking_time": "약 8분"
      },
      {
        "community_center_lat": 37.54707412,
        "community_center_lon": 126.9456478,
        "community_center_type": "주민센터",
        "community_center_name": "염리동 자치회관",
        "distance": 718.6956622511209,
        "walking_time": "약 11분"
      },
      {
        "community_center_lat": 37.54231555,
        "community_center_lon": 126.9427071,
        "community_center_type": "주민센터",
        "community_center_name": "용강동 자치회관",
        "distance": 806.0632366203376,
        "walking_time": "약 13분"
      },
      {
        "community_center_lat": 37.55585899,
        "community_center_lon": 126.9423208,
        "community_center_type": "주민센터",
        "community_center_name": "대흥동 자치회관",
        "distance": 929.721592083897,
        "walking_time": "약 14분"
      },
      {
        "community_center_lat": 37.55781754,
        "community_center_lon": 126.939546,
        "community_center_type": "주민센터",
        "community_center_name": "신촌동 자치회관",
        "distance": 1064.7996895505,
        "walking_time": "약 16분"
      },
      {
        "community_center_lat": 37.54153106,
        "community_center_lon": 126.9498753,
        "community_center_type": "주민센터",
        "community_center_name": "도화동 자치회관",
        "distance": 1317.7943886691191,
        "walking_time": "약 20분"
      }
    ],
    "convenience_store": [
      {
        "convenience_store_lat": 37.54869336,
        "convenience_store_lon": 126.9377304,
        "convenience_store_type": "편의점",
        "convenience_store_name": "GS25 신수사랑점",
        "distance": 37.6931552090484,
        "walking_time": "약 1분"
      },
      {
        "convenience_store_lat": 37.54941861,
        "convenience_store_lon": 126.9379758,
        "convenience_store_type": "편의점",
        "convenience_store_name": "GS25 마포신수점",
        "distance": 121.076562595542,
        "walking_time": "약 2분"
      },
      {
        "convenience_store_lat": 37.54904499,
        "convenience_store_lon": 126.9388811,
        "convenience_store_type": "편의점",
        "convenience_store_name": "CU 서강대원룸점",
        "distance": 132.0357327952874,
        "walking_time": "약 2분"
      },
      {
        "convenience_store_lat": 37.54875192,
        "convenience_store_lon": 126.9394539,
        "convenience_store_type": "편의점",
        "convenience_store_name": "세븐일레븐 신수프라다점",
        "distance": 164.20053545782906,
        "walking_time": "약 3분"
      },
      {
        "convenience_store_lat": 37.5500291,
        "convenience_store_lon": 126.9360625,
        "convenience_store_type": "편의점",
        "convenience_store_name": "GS25 서강은혜점",
        "distance": 232.9660887988278,
        "walking_time": "약 4분"
      },
      {
        "convenience_store_lat": 37.54878822,
        "convenience_store_lon": 126.9404908,
        "convenience_store_type": "편의점",
        "convenience_store_name": "CU 대흥역점",
        "distance": 254.2160983591904,
        "walking_time": "약 4분"
      },
      {
        "convenience_store_lat": 37.54824473,
        "convenience_store_lon": 126.9406599,
        "convenience_store_type": "편의점",
        "convenience_store_name": "GS25 대흥역점",
        "distance": 264.9150374152986,
        "walking_time": "약 4분"
      },
      {
        "convenience_store_lat": 37.54561788,
        "convenience_store_lon": 126.9373603,
        "convenience_store_type": "편의점",
        "convenience_store_name": "CU 마포웰스트림점",
        "distance": 305.953532212003,
        "walking_time": "약 5분"
      },
      {
        "convenience_store_lat": 37.54919004,
        "convenience_store_lon": 126.9411697,
        "convenience_store_type": "편의점",
        "convenience_store_name": "미니스톱 마포서강점",
        "distance": 323.04253333658386,
        "walking_time": "약 5분"
      },
      {
        "convenience_store_lat": 37.54772736,
        "convenience_store_lon": 126.9415227,
        "convenience_store_type": "편의점",
        "convenience_store_name": "GS25 S6대흥역점",
        "distance": 347.8439233529991,
        "walking_time": "약 6분"
      }
    ],
    "daycare": [
      {
        "daycare_lat": 37.54676126,
        "daycare_lon": 126.9375464,
        "daycare_type": "어린이집",
        "daycare_name": "성원아이뽀어린이집",
        "distance": 177.9587061193613,
        "walking_time": "약 3분"
      },
      {
        "daycare_lat": 37.54625947,
        "daycare_lon": 126.9374551,
        "daycare_type": "어린이집",
        "daycare_name": "성결어린이집",
        "distance": 234.16804471076907,
        "walking_time": "약 4분"
      },
      {
        "daycare_lat": 37.54637756,
        "daycare_lon": 126.9389641,
        "daycare_type": "어린이집",
        "daycare_name": "은하어린이집",
        "distance": 248.6044894289241,
        "walking_time": "약 4분"
      },
      {
        "daycare_lat": 37.54866330390449,
        "daycare_lon": 126.9405984276854,
        "daycare_type": "어린이집",
        "daycare_name": "대흥어린이집",
        "distance": 261.38517798673684,
        "walking_time": "약 4분"
      },
      {
        "daycare_lat": 37.54713528,
        "daycare_lon": 126.9350548,
        "daycare_type": "어린이집",
        "daycare_name": "다원어린이집",
        "distance": 266.8504833370039,
        "walking_time": "약 4분"
      },
      {
        "daycare_lat": 37.550513974028064,
        "daycare_lon": 126.93548412444125,
        "daycare_type": "어린이집",
        "daycare_name": "신촌숲어린이집",
        "distance": 306.83845318283244,
        "walking_time": "약 5분"
      },
      {
        "daycare_lat": 37.54537202,
        "daycare_lon": 126.9360622,
        "daycare_type": "어린이집",
        "daycare_name": "신수어린이집",
        "distance": 360.7417570880589,
        "walking_time": "약 6분"
      },
      {
        "daycare_lat": 37.55127339,
        "daycare_lon": 126.9342185,
        "daycare_type": "어린이집",
        "daycare_name": "피터팬어린이집",
        "distance": 443.8105860580191,
        "walking_time": "약 7분"
      },
      {
        "daycare_lat": 37.5485976,
        "daycare_lon": 126.932455,
        "daycare_type": "어린이집",
        "daycare_name": "창전어린이집",
        "distance": 459.49721575142695,
        "walking_time": "약 7분"
      },
      {
        "daycare_lat": 37.5442572,
        "daycare_lon": 126.9364356,
        "daycare_type": "어린이집",
        "daycare_name": "성산방과후보육교실어린이집",
        "distance": 468.6904733145748,
        "walking_time": "약 7분"
      }
    ],
    "education": [
      {
        "education_lat": 37.54773473,
        "education_lon": 126.9320618,
        "education_type": "도서관",
        "education_name": "마포구립서강도서관",
        "distance": 498.2615967777259,
        "walking_time": "약 8분"
      },
      {
        "education_lat": 37.55146931,
        "education_lon": 126.943025,
        "education_type": "박물관/기념관",
        "education_name": "서강대학교 박물관",
        "distance": 586.0247113903508,
        "walking_time": "약 9분"
      },
      {
        "education_lat": 37.54990609,
        "education_lon": 126.9455338,
        "education_type": "문화예술회관",
        "education_name": "마포아트센터",
        "distance": 715.2724867961533,
        "walking_time": "약 11분"
      },
      {
        "education_lat": 37.54957866,
        "education_lon": 126.9461167,
        "education_type": "도서관",
        "education_name": "마포소금나루도서관",
        "distance": 757.9009696337989,
        "walking_time": "약 12분"
      },
      {
        "education_lat": 37.54865222,
        "education_lon": 126.9287066,
        "education_type": "박물관/기념관",
        "education_name": "광흥당",
        "distance": 789.8612597689752,
        "walking_time": "약 12분"
      },
      {
        "education_lat": 37.55504357,
        "education_lon": 126.9338654,
        "education_type": "박물관/기념관",
        "education_name": "이한열기념관",
        "distance": 815.0172784784671,
        "walking_time": "약 13분"
      },
      {
        "education_lat": 37.55656393,
        "education_lon": 126.9403281,
        "education_type": "박물관/기념관",
        "education_name": "우석뮤지엄",
        "distance": 942.1888368288256,
        "walking_time": "약 15분"
      },
      {
        "education_lat": 37.5541249,
        "education_lon": 126.9296484,
        "education_type": "공연장",
        "education_name": "포스트극장",
        "distance": 953.7579791005744,
        "walking_time": "약 15분"
      },
      {
        "education_lat": 37.5550833,
        "education_lon": 126.9301095,
        "education_type": "공연장",
        "education_name": "소극장 산울림",
        "distance": 1000.9480661462256,
        "walking_time": "약 15분"
      },
      {
        "education_lat": 37.55760078,
        "education_lon": 126.9381984,
        "education_type": "공연장",
        "education_name": "극장PLOT",
        "distance": 1028.7170853850075,
        "walking_time": "약 16분"
      }
    ],
    "electric_gas_station": [
      {
        "electric_gas_station_lat": 37.53921113,
        "electric_gas_station_lon": 126.9433997,
        "electric_gas_station_type": "전기차 충전소",
        "electric_gas_station_name": "시설관리공단 마포유수지주차장",
        "distance": 1136.2023122098915,
        "walking_time": "약 17분"
      }
    ],
    "fitness": [
      {
        "fitness_lat": 37.54969711,
        "fitness_lon": 126.936952,
        "fitness_type": "운동시설",
        "fitness_name": "운동케어센터",
        "distance": 161.2768727203051,
        "walking_time": "약 3분"
      },
      {
        "fitness_lat": 37.54830267,
        "fitness_lon": 126.9329183,
        "fitness_type": "운동시설",
        "fitness_name": "나만의짐 프라이빗 대관/PT 서강대점",
        "distance": 417.9358083439808,
        "walking_time": "약 7분"
      },
      {
        "fitness_lat": 37.54779701,
        "fitness_lon": 126.9328946,
        "fitness_type": "운동시설",
        "fitness_name": "슈퍼바디짐",
        "distance": 424.6064833243198,
        "walking_time": "약 7분"
      },
      {
        "fitness_lat": 37.54500752,
        "fitness_lon": 126.9353094,
        "fitness_type": "운동시설",
        "fitness_name": "U.D.T GYM",
        "distance": 426.36481967381104,
        "walking_time": "약 7분"
      },
      {
        "fitness_lat": 37.54852524,
        "fitness_lon": 126.9321823,
        "fitness_type": "운동시설",
        "fitness_name": "데이지라이프 휘트니스",
        "distance": 483.1262038483,
        "walking_time": "약 8분"
      },
      {
        "fitness_lat": 37.55281122,
        "fitness_lon": 126.9379482,
        "fitness_type": "운동시설",
        "fitness_name": "미지휘트니스골프클럽",
        "distance": 495.69909851814987,
        "walking_time": "약 8분"
      },
      {
        "fitness_lat": 37.54590416,
        "fitness_lon": 126.942562,
        "fitness_type": "운동시설",
        "fitness_name": "트레인스토밍",
        "distance": 511.283175826105,
        "walking_time": "약 8분"
      },
      {
        "fitness_lat": 37.55320448,
        "fitness_lon": 126.9378954,
        "fitness_type": "운동시설",
        "fitness_name": "힘듦",
        "distance": 539.1738119179392,
        "walking_time": "약 9분"
      },
      {
        "fitness_lat": 37.54910478,
        "fitness_lon": 126.9315833,
        "fitness_type": "운동시설",
        "fitness_name": "노블핏짐서강점",
        "distance": 541.9572474106262,
        "walking_time": "약 9분"
      },
      {
        "fitness_lat": 37.54421457,
        "fitness_lon": 126.93437,
        "fitness_type": "운동시설",
        "fitness_name": "어반짐",
        "distance": 544.4683604963441,
        "walking_time": "약 9분"
      }
    ],
    "gas_station": [
      {
        "gas_station_lat": 37.54615484,
        "gas_station_lon": 126.9400827,
        "gas_station_type": "주유소",
        "gas_station_name": "대흥주유소",
        "distance": 325.20818732791696,
        "walking_time": "약 5분"
      },
      {
        "gas_station_lat": 37.54983427,
        "gas_station_lon": 126.9325913,
        "gas_station_type": "주유소",
        "gas_station_name": "주식회사 에스에스 오토",
        "distance": 475.8717077498276,
        "walking_time": "약 8분"
      },
      {
        "gas_station_lat": 37.54302819,
        "gas_station_lon": 126.9388476,
        "gas_station_type": "주유소",
        "gas_station_name": "그린에너지컴퍼니 용강주유소",
        "distance": 601.9826466224414,
        "walking_time": "약 9분"
      },
      {
        "gas_station_lat": 37.5462257,
        "gas_station_lon": 126.9449699,
        "gas_station_type": "주유소",
        "gas_station_name": "에쓰-오일(주) 염리동 주유소",
        "distance": 686.8569376067903,
        "walking_time": "약 11분"
      },
      {
        "gas_station_lat": 37.54211838,
        "gas_station_lon": 126.9485221,
        "gas_station_type": "주유소",
        "gas_station_name": "에스케이에너지(주) 양지주유소",
        "distance": 1182.7528337656152,
        "walking_time": "약 18분"
      },
      {
        "gas_station_lat": 37.55986958,
        "gas_station_lon": 126.9268498,
        "gas_station_type": "주유소",
        "gas_station_name": "㈜중앙에너비스 동교지점",
        "distance": 1595.6126917581112,
        "walking_time": "약 24분"
      },
      {
        "gas_station_lat": 37.53471442,
        "gas_station_lon": 126.9457241,
        "gas_station_type": "주유소",
        "gas_station_name": "현대오일뱅크㈜ 직영강변주유소",
        "distance": 1675.6198056585708,
        "walking_time": "약 26분"
      },
      {
        "gas_station_lat": 37.53037638,
        "gas_station_lon": 126.9255701,
        "gas_station_type": "주유소",
        "gas_station_name": "에스제이오일㈜ 여의도주유소",
        "distance": 2265.9209680248696,
        "walking_time": "약 34분"
      },
      {
        "gas_station_lat": 37.53073929,
        "gas_station_lon": 126.9202994,
        "gas_station_type": "주유소",
        "gas_station_name": "KH에너지㈜ 직영 KH여의도주유소",
        "distance": 2486.2063097008304,
        "walking_time": "약 38분"
      }
    ],
    "hospital": [
      {
        "hospital_lat": 37.54946987,
        "hospital_lon": 126.9393446,
        "hospital_type": "병원",
        "hospital_name": "콧숨치과의원",
        "distance": 193.25955894088327,
        "walking_time": "약 3분"
      },
      {
        "hospital_lat": 37.54982035,
        "hospital_lon": 126.9352609,
        "hospital_type": "병원",
        "hospital_name": "경희더숲한의원",
        "distance": 266.59192175152384,
        "walking_time": "약 4분"
      },
      {
        "hospital_lat": 37.55032087,
        "hospital_lon": 126.935286,
        "hospital_type": "병원",
        "hospital_name": "삼성드림소아청소년과의원",
        "distance": 302.1964365285605,
        "walking_time": "약 5분"
      },
      {
        "hospital_lat": 37.54761691,
        "hospital_lon": 126.9413722,
        "hospital_type": "병원",
        "hospital_name": "하나산부인과의원",
        "distance": 337.6507086479076,
        "walking_time": "약 6분"
      },
      {
        "hospital_lat": 37.54784269,
        "hospital_lon": 126.9415329,
        "hospital_type": "병원",
        "hospital_name": "그린서울치과의원",
        "distance": 346.3685227804912,
        "walking_time": "약 6분"
      },
      {
        "hospital_lat": 37.54784269,
        "hospital_lon": 126.9415329,
        "hospital_type": "병원",
        "hospital_name": "나라온의원",
        "distance": 346.3685227804912,
        "walking_time": "약 6분"
      },
      {
        "hospital_lat": 37.54784269,
        "hospital_lon": 126.9415329,
        "hospital_type": "병원",
        "hospital_name": "연한의원",
        "distance": 346.3685227804912,
        "walking_time": "약 6분"
      },
      {
        "hospital_lat": 37.54784269,
        "hospital_lon": 126.9415329,
        "hospital_type": "병원",
        "hospital_name": "연합메디의원",
        "distance": 346.3685227804912,
        "walking_time": "약 6분"
      },
      {
        "hospital_lat": 37.54784269,
        "hospital_lon": 126.9415329,
        "hospital_type": "병원",
        "hospital_name": "우리성모내과의원",
        "distance": 346.3685227804912,
        "walking_time": "약 6분"
      },
      {
        "hospital_lat": 37.5482162,
        "hospital_lon": 126.9418041,
        "hospital_type": "병원",
        "hospital_name": "바로경희한의원",
        "distance": 365.8272795167835,
        "walking_time": "약 6분"
      }
    ],
    "music_room": [
      {
        "music_room_lat": 37.54860805,
        "music_room_lon": 126.9398459,
        "music_room_type": "노래방",
        "music_room_name": "케이팝 서강 코인 노래연습장",
        "distance": 194.82133046463167,
        "walking_time": "약 3분"
      },
      {
        "music_room_lat": 37.54761691,
        "music_room_lon": 126.9413722,
        "music_room_type": "노래방",
        "music_room_name": "팔도강산 노래연습장",
        "distance": 337.6507086479076,
        "walking_time": "약 6분"
      },
      {
        "music_room_lat": 37.5514167,
        "music_room_lon": 126.9371865,
        "music_room_type": "노래방",
        "music_room_name": "지코인 노래연습장",
        "distance": 342.51305977237325,
        "walking_time": "약 6분"
      },
      {
        "music_room_lat": 37.54434692,
        "music_room_lon": 126.936331,
        "music_room_type": "노래방",
        "music_room_name": "밤섬 노래연습장",
        "distance": 461.2404079091836,
        "walking_time": "약 7분"
      },
      {
        "music_room_lat": 37.5431011,
        "music_room_lon": 126.939397,
        "music_room_type": "노래방",
        "music_room_name": "소리샘 노래연습장",
        "distance": 604.433245382129,
        "walking_time": "약 10분"
      },
      {
        "music_room_lat": 37.54297963,
        "music_room_lon": 126.9395434,
        "music_room_type": "노래방",
        "music_room_name": "신나는 노래연습장",
        "distance": 620.8378057079461,
        "walking_time": "약 10분"
      },
      {
        "music_room_lat": 37.54655467,
        "music_room_lon": 126.9444362,
        "music_room_type": "노래방",
        "music_room_name": "와이티티 노래연습장",
        "distance": 630.3246781004638,
        "walking_time": "약 10분"
      },
      {
        "music_room_lat": 37.54386754,
        "music_room_lon": 126.9423896,
        "music_room_type": "노래방",
        "music_room_name": "태영콘서트 노래연습장",
        "distance": 650.7176504382946,
        "walking_time": "약 10분"
      },
      {
        "music_room_lat": 37.5544028,
        "music_room_lon": 126.9372048,
        "music_room_type": "노래방",
        "music_room_name": "허브 노래연습장",
        "distance": 673.2048656293586,
        "walking_time": "약 11분"
      },
      {
        "music_room_lat": 37.54558214,
        "music_room_lon": 126.9459939,
        "music_room_type": "노래방",
        "music_room_name": "옥소리노래연습장",
        "distance": 797.109691136006,
        "walking_time": "약 12분"
      }
    ],
    "park": [
      {
        "park_lat": 37.5517298,
        "park_lon": 126.9289936,
        "park_type": "공원",
        "park_name": "와우근린공원",
        "distance": 850.8634826719328,
        "walking_time": "약 13분"
      }
    ],
    "park_station": [
      {
        "park_station_lat": 37.55106386,
        "park_station_lon": 126.9364908,
        "park_station_type": "주차장",
        "park_station_name": "서강대역 환승 공영주차장",
        "distance": 317.87117103962964,
        "walking_time": "약 5분"
      },
      {
        "park_station_lat": 37.55369411,
        "park_station_lon": 126.9341263,
        "park_station_type": "주차장",
        "park_station_name": "신촌노외 공영주차장",
        "distance": 669.9699467591892,
        "walking_time": "약 10분"
      },
      {
        "park_station_lat": 37.55473462,
        "park_station_lon": 126.9394176,
        "park_station_type": "주차장",
        "park_station_name": "창천중교 공영주차장",
        "distance": 725.6772862955114,
        "walking_time": "약 11분"
      },
      {
        "park_station_lat": 37.55558374,
        "park_station_lon": 126.9352179,
        "park_station_type": "주차장",
        "park_station_name": "신촌노외 공영주차장",
        "distance": 831.6416211945216,
        "walking_time": "약 13분"
      },
      {
        "park_station_lat": 37.54198589,
        "park_station_lon": 126.9452067,
        "park_station_type": "주차장",
        "park_station_name": "염리 공영주차장",
        "distance": 972.1600880151163,
        "walking_time": "약 15분"
      },
      {
        "park_station_lat": 37.55289121,
        "park_station_lon": 126.9492327,
        "park_station_type": "주차장",
        "park_station_name": "한서 공영주차장",
        "distance": 1138.0119437099536,
        "walking_time": "약 17분"
      },
      {
        "park_station_lat": 37.53879916,
        "park_station_lon": 126.9425947,
        "park_station_type": "주차장",
        "park_station_name": "마포유수지",
        "distance": 1148.667883949421,
        "walking_time": "약 18분"
      },
      {
        "park_station_lat": 37.5569955,
        "park_station_lon": 126.9289222,
        "park_station_type": "주차장",
        "park_station_name": "공유) 9-88",
        "distance": 1230.979742939918,
        "walking_time": "약 19분"
      },
      {
        "park_station_lat": 37.55665923,
        "park_station_lon": 126.9272697,
        "park_station_type": "주차장",
        "park_station_name": "동교3공영주차장",
        "distance": 1300.192305079717,
        "walking_time": "약 20분"
      },
      {
        "park_station_lat": 37.54157795,
        "park_station_lon": 126.9499639,
        "park_station_type": "주차장",
        "park_station_name": "도화 공영주차장",
        "distance": 1321.2036102620948,
        "walking_time": "약 20분"
      }
    ],
    "pc_room": [
      {
        "pc_room_lat": 37.5514167009969,
        "pc_room_lon": 126.93718651337,
        "pc_room_type": "PC방",
        "pc_room_name": "PC CAFE COZY",
        "distance": 342.5130266340365,
        "walking_time": "약 6분"
      },
      {
        "pc_room_lat": 37.5520644056727,
        "pc_room_lon": 126.936974571542,
        "pc_room_type": "PC방",
        "pc_room_name": "레드포스 PC아레나 서강대점",
        "distance": 416.3859753662472,
        "walking_time": "약 7분"
      },
      {
        "pc_room_lat": 37.5480918690059,
        "pc_room_lon": 126.93003258532,
        "pc_room_type": "PC방",
        "pc_room_name": "ZERO100",
        "distance": 672.9502271177538,
        "walking_time": "약 11분"
      },
      {
        "pc_room_lat": 37.5542515086762,
        "pc_room_lon": 126.934204893562,
        "pc_room_type": "PC방",
        "pc_room_name": "3POP PC방",
        "distance": 722.473764506502,
        "walking_time": "약 11분"
      },
      {
        "pc_room_lat": 37.5553097221974,
        "pc_room_lon": 126.935331733458,
        "pc_room_type": "PC방",
        "pc_room_name": "아이센스리그PC신촌본점",
        "distance": 799.6155622503289,
        "walking_time": "약 12분"
      },
      {
        "pc_room_lat": 37.5414598502618,
        "pc_room_lon": 126.942487674571,
        "pc_room_type": "PC방",
        "pc_room_name": "3POP PC",
        "distance": 877.4006232846714,
        "walking_time": "약 14분"
      },
      {
        "pc_room_lat": 37.5563412561961,
        "pc_room_lon": 126.937303024246,
        "pc_room_type": "PC방",
        "pc_room_name": "롤스터PC방",
        "distance": 888.1153588821887,
        "walking_time": "약 14분"
      },
      {
        "pc_room_lat": 37.556633214994,
        "pc_room_lon": 126.937200582487,
        "pc_room_type": "PC방",
        "pc_room_name": "갤러리 PC방",
        "distance": 920.9117823928468,
        "walking_time": "약 14분"
      },
      {
        "pc_room_lat": 37.5564623964348,
        "pc_room_lon": 126.939992863232,
        "pc_room_type": "PC방",
        "pc_room_name": "레드포스PC 아레나 신촌점",
        "distance": 924.2349604228388,
        "walking_time": "약 14분"
      },
      {
        "pc_room_lat": 37.5548638155738,
        "pc_room_lon": 126.929956540282,
        "pc_room_type": "PC방",
        "pc_room_name": "GEEKSTAR PC CAFE",
        "distance": 992.0320639139916,
        "walking_time": "약 15분"
      }
    ],
    "police_office": [
      {
        "police_office_lat": 37.54734721,
        "police_office_lon": 126.9293114,
        "police_office_type": "경찰소",
        "police_office_name": "서강지구대",
        "distance": 744.4308444897897,
        "walking_time": "약 12분"
      },
      {
        "police_office_lat": 37.54256134,
        "police_office_lon": 126.9430834,
        "police_office_type": "경찰소",
        "police_office_name": "용강지구대",
        "distance": 802.7357745474676,
        "walking_time": "약 12분"
      },
      {
        "police_office_lat": 37.55855258,
        "police_office_lon": 126.9430099,
        "police_office_type": "경찰소",
        "police_office_name": "신촌지구대",
        "distance": 1227.7051401223894,
        "walking_time": "약 19분"
      }
    ],
    "post_office": [
      {
        "post_office_lat": 37.54574778,
        "post_office_lon": 126.9344967,
        "post_office_type": "우체국",
        "post_office_name": "서울신수동우편취급국",
        "distance": 402.51287553040027,
        "walking_time": "약 7분"
      },
      {
        "post_office_lat": 37.54743639,
        "post_office_lon": 126.9436701,
        "post_office_type": "우체국",
        "post_office_name": "서울대흥동우편취급국",
        "distance": 539.8326995519609,
        "walking_time": "약 9분"
      },
      {
        "post_office_lat": 37.55146496,
        "post_office_lon": 126.94298,
        "post_office_type": "우체국",
        "post_office_name": "서강대학교우편취급국",
        "distance": 582.539851740784,
        "walking_time": "약 9분"
      },
      {
        "post_office_lat": 37.55462944,
        "post_office_lon": 126.9379735,
        "post_office_type": "우체국",
        "post_office_name": "서울노고산동우편취급국",
        "distance": 697.7703048333657,
        "walking_time": "약 11분"
      },
      {
        "post_office_lat": 37.54219271,
        "post_office_lon": 126.940648,
        "post_office_type": "우체국",
        "post_office_name": "서울용강동우편취급국",
        "distance": 734.5964994264456,
        "walking_time": "약 11분"
      },
      {
        "post_office_lat": 37.54822168,
        "post_office_lon": 126.9258614,
        "post_office_type": "우체국",
        "post_office_name": "서울창전동우체국",
        "distance": 1040.1359451215674,
        "walking_time": "약 16분"
      },
      {
        "post_office_lat": 37.55694048,
        "post_office_lon": 126.943879,
        "post_office_type": "우체국",
        "post_office_name": "서울신촌우체국",
        "distance": 1100.543791926097,
        "walking_time": "약 17분"
      },
      {
        "post_office_lat": 37.5432405,
        "post_office_lon": 126.9497967,
        "post_office_type": "우체국",
        "post_office_name": "서울마포우체국",
        "distance": 1212.0917945922913,
        "walking_time": "약 19분"
      },
      {
        "post_office_lat": 37.55769106,
        "post_office_lon": 126.928758,
        "post_office_type": "우체국",
        "post_office_name": "서울동교동우편취급국",
        "distance": 1300.8991098778258,
        "walking_time": "약 20분"
      },
      {
        "post_office_lat": 37.53807667,
        "post_office_lon": 126.9472901,
        "post_office_type": "우체국",
        "post_office_name": "서울도화동우편취급국",
        "distance": 1424.2193381312848,
        "walking_time": "약 22분"
      }
    ],
    "public_health_center": [
      {
        "public_health_center_lat": 37.54773473,
        "public_health_center_lon": 126.9320618,
        "public_health_center_type": "보건소",
        "public_health_center_name": "서강보건지소",
        "distance": 498.2615967777259,
        "walking_time": "약 8분"
      }
    ],
    "school": [
      {
        "school_lat": 37.5486975552073,
        "school_lon": 126.935969575594,
        "school_type": "고등학교",
        "school_name": "광성고등학교",
        "distance": 153.5681418152101,
        "walking_time": "약 3분"
      },
      {
        "school_lat": 37.5486975552073,
        "school_lon": 126.935969575594,
        "school_type": "중학교",
        "school_name": "광성중학교",
        "distance": 153.5681418152101,
        "walking_time": "약 3분"
      },
      {
        "school_lat": 37.5459230000416,
        "school_lon": 126.934131984442,
        "school_type": "중학교",
        "school_name": "신수중학교",
        "distance": 412.3588989551173,
        "walking_time": "약 7분"
      },
      {
        "school_lat": 37.5445357278463,
        "school_lon": 126.937779457981,
        "school_type": "초등학교",
        "school_name": "서울신석초등학교",
        "distance": 425.2861846795833,
        "walking_time": "약 7분"
      },
      {
        "school_lat": 37.549112429713,
        "school_lon": 126.944058506049,
        "school_type": "초등학교",
        "school_name": "서울용강초등학교",
        "distance": 570.4083709341525,
        "walking_time": "약 9분"
      },
      {
        "school_lat": 37.5549178201995,
        "school_lon": 126.939295148137,
        "school_type": "중학교",
        "school_name": "창천중학교",
        "distance": 743.4199634210008,
        "walking_time": "약 12분"
      },
      {
        "school_lat": 37.5549178201995,
        "school_lon": 126.939295148137,
        "school_type": "초등학교",
        "school_name": "서울창천초등학교",
        "distance": 743.4199634210008,
        "walking_time": "약 12분"
      },
      {
        "school_lat": 37.5508909515504,
        "school_lon": 126.945886852057,
        "school_type": "고등학교",
        "school_name": "숭문고등학교",
        "distance": 778.113723819691,
        "walking_time": "약 12분"
      },
      {
        "school_lat": 37.5508909515504,
        "school_lon": 126.945886852057,
        "school_type": "중학교",
        "school_name": "숭문중학교",
        "distance": 778.113723819691,
        "walking_time": "약 12분"
      },
      {
        "school_lat": 37.5481050750929,
        "school_lon": 126.927430860042,
        "school_type": "초등학교",
        "school_name": "서울서강초등학교",
        "distance": 902.1036847966732,
        "walking_time": "약 14분"
      }
    ],
    "self_laundromat": [
      {
        "self_laundromat_lat": 37.54500752,
        "self_laundromat_lon": 126.9353094,
        "self_laundromat_type": "셀프 빨래방",
        "self_laundromat_name": "뽀송빨래방",
        "distance": 426.36481967381104,
        "walking_time": "약 7분"
      },
      {
        "self_laundromat_lat": 37.54500752,
        "self_laundromat_lon": 126.9353094,
        "self_laundromat_type": "셀프 빨래방",
        "self_laundromat_name": "뽀송빨래방",
        "distance": 426.36481967381104,
        "walking_time": "약 7분"
      },
      {
        "self_laundromat_lat": 37.55494795,
        "self_laundromat_lon": 126.9379781,
        "self_laundromat_type": "셀프 빨래방",
        "self_laundromat_name": "몬투노샵",
        "distance": 733.1757586335183,
        "walking_time": "약 11분"
      },
      {
        "self_laundromat_lat": 37.55494795,
        "self_laundromat_lon": 126.9379781,
        "self_laundromat_type": "셀프 빨래방",
        "self_laundromat_name": "몬투노샵",
        "distance": 733.1757586335183,
        "walking_time": "약 11분"
      },
      {
        "self_laundromat_lat": 37.55456896,
        "self_laundromat_lon": 126.9336117,
        "self_laundromat_type": "셀프 빨래방",
        "self_laundromat_name": "런드리익스프레스샵 신촌점",
        "distance": 777.2036067448875,
        "walking_time": "약 12분"
      },
      {
        "self_laundromat_lat": 37.55456896,
        "self_laundromat_lon": 126.9336117,
        "self_laundromat_type": "셀프 빨래방",
        "self_laundromat_name": "런드리익스프레스샵 신촌점",
        "distance": 777.2036067448875,
        "walking_time": "약 12분"
      },
      {
        "self_laundromat_lat": 37.54107129,
        "self_laundromat_lon": 126.9412851,
        "self_laundromat_type": "셀프 빨래방",
        "self_laundromat_name": "크린토피아 코인워시 홈플러스EX마포용강점",
        "distance": 871.1779195508344,
        "walking_time": "약 14분"
      },
      {
        "self_laundromat_lat": 37.54107129,
        "self_laundromat_lon": 126.9412851,
        "self_laundromat_type": "셀프 빨래방",
        "self_laundromat_name": "크린토피아 코인워시 홈플러스EX마포용강점",
        "distance": 871.1779195508344,
        "walking_time": "약 14분"
      },
      {
        "self_laundromat_lat": 37.55475911,
        "self_laundromat_lon": 126.9314807,
        "self_laundromat_type": "셀프 빨래방",
        "self_laundromat_name": "경의선 빨래방",
        "distance": 896.1129940274415,
        "walking_time": "약 14분"
      },
      {
        "self_laundromat_lat": 37.55475911,
        "self_laundromat_lon": 126.9314807,
        "self_laundromat_type": "셀프 빨래방",
        "self_laundromat_name": "경의선 빨래방",
        "distance": 896.1129940274415,
        "walking_time": "약 14분"
      }
    ],
    "subway": [
      {
        "subway_lat": 37.5477273573601,
        "subway_lon": 126.9415226828,
        "subway_type": "지하철",
        "subway_name": "6호선-대흥(서강대앞)역",
        "distance": 347.84249755289466,
        "walking_time": "약 6분"
      },
      {
        "subway_lat": 37.5477347268018,
        "subway_lon": 126.932061794829,
        "subway_type": "지하철",
        "subway_name": "6호선-광흥창(서강)역",
        "distance": 498.2620977759408,
        "walking_time": "약 8분"
      },
      {
        "subway_lat": 37.5553118177651,
        "subway_lon": 126.935539064832,
        "subway_type": "지하철",
        "subway_name": "2호선-신촌(지하)역",
        "distance": 795.3499456425218,
        "walking_time": "약 12분"
      },
      {
        "subway_lat": 37.5565092992834,
        "subway_lon": 126.945485771834,
        "subway_type": "지하철",
        "subway_name": "2호선-이대역",
        "distance": 1139.0395561502312,
        "walking_time": "약 18분"
      },
      {
        "subway_lat": 37.5399847863145,
        "subway_lon": 126.945447452979,
        "subway_type": "지하철",
        "subway_name": "5호선-마포역",
        "distance": 1157.0228244758705,
        "walking_time": "약 18분"
      },
      {
        "subway_lat": 37.5479338964558,
        "subway_lon": 126.922761170836,
        "subway_type": "지하철",
        "subway_name": "6호선-상수역",
        "distance": 1314.192811071234,
        "walking_time": "약 20분"
      },
      {
        "subway_lat": 37.5568904093718,
        "subway_lon": 126.923674307594,
        "subway_type": "지하철",
        "subway_name": "2호선-홍대입구역",
        "distance": 1555.506693729756,
        "walking_time": "약 24분"
      }
    ],
    "supermarket": [
      {
        "supermarket_lat": 37.55032087,
        "supermarket_lon": 126.935286,
        "supermarket_type": "마트",
        "supermarket_name": "GS THE FRESH 신촌숲아이파크점",
        "distance": 302.1964365285605,
        "walking_time": "약 5분"
      },
      {
        "supermarket_lat": 37.54544259,
        "supermarket_lon": 126.9356125,
        "supermarket_type": "마트",
        "supermarket_name": "신수시장",
        "distance": 371.0977354995329,
        "walking_time": "약 6분"
      },
      {
        "supermarket_lat": 37.5453842,
        "supermarket_lon": 126.940229,
        "supermarket_type": "마트",
        "supermarket_name": "롯데슈퍼 대흥점",
        "distance": 400.98874686480696,
        "walking_time": "약 6분"
      },
      {
        "supermarket_lat": 37.54688323,
        "supermarket_lon": 126.9319611,
        "supermarket_type": "마트",
        "supermarket_name": "마포종합시장(서강한화오벨리스크)",
        "distance": 528.4136768917897,
        "walking_time": "약 8분"
      },
      {
        "supermarket_lat": 37.54583616,
        "supermarket_lon": 126.9325594,
        "supermarket_type": "마트",
        "supermarket_name": "롯데슈퍼 마포점",
        "distance": 529.8979384115629,
        "walking_time": "약 8분"
      },
      {
        "supermarket_lat": 37.55499393,
        "supermarket_lon": 126.9360018,
        "supermarket_type": "마트",
        "supermarket_name": "정도진흥기업(주)",
        "distance": 752.0626996591369,
        "walking_time": "약 12분"
      },
      {
        "supermarket_lat": 37.54107129,
        "supermarket_lon": 126.9412851,
        "supermarket_type": "마트",
        "supermarket_name": "홈플러스익스프레스 용강점",
        "distance": 871.1779195508344,
        "walking_time": "약 14분"
      },
      {
        "supermarket_lat": 37.55608306,
        "supermarket_lon": 126.9358449,
        "supermarket_type": "마트",
        "supermarket_name": "현대백화점 신촌점",
        "distance": 873.6054811114236,
        "walking_time": "약 14분"
      },
      {
        "supermarket_lat": 37.55396071,
        "supermarket_lon": 126.9476103,
        "supermarket_type": "마트",
        "supermarket_name": "GS THE FRESH 마포염리점",
        "distance": 1075.9387154774956,
        "walking_time": "약 17분"
      },
      {
        "supermarket_lat": 37.55764636,
        "supermarket_lon": 126.944912,
        "supermarket_type": "마트",
        "supermarket_name": "예스에이피엠",
        "distance": 1214.623186035562,
        "walking_time": "약 19분"
      }
    ],
    "tax_office": [
      {
        "tax_office_lat": 37.54652242,
        "tax_office_lon": 126.9394936,
        "tax_office_type": "세무서",
        "tax_office_name": "마포세무서",
        "distance": 260.55888129039545,
        "walking_time": "약 4분"
      }
    ],
    "theater": [
      {
        "theater_lat": 37.5565639285478,
        "theater_lon": 126.940328119434,
        "theater_type": "영화관",
        "theater_name": "CGV신촌아트레온",
        "distance": 942.1891084031022,
        "walking_time": "약 15분"
      },
      {
        "theater_lat": 37.5598241279561,
        "theater_lon": 126.942386979371,
        "theater_type": "영화관",
        "theater_name": "메가박스중앙(주) 신촌지점",
        "distance": 1341.256666693861,
        "walking_time": "약 21분"
      },
      {
        "theater_lat": 37.5576684824211,
        "theater_lon": 126.92589313527,
        "theater_type": "영화관",
        "theater_name": "CGV연남",
        "distance": 1465.340463002486,
        "walking_time": "약 22분"
      },
      {
        "theater_lat": 37.5509576951977,
        "theater_lon": 126.921063042067,
        "theater_type": "영화관",
        "theater_name": "KT&G 상상마당 cinema",
        "distance": 1491.2777283748685,
        "walking_time": "약 23분"
      },
      {
        "theater_lat": 37.5572467836494,
        "theater_lon": 126.924986220455,
        "theater_type": "영화관",
        "theater_name": "독립영화전용관 인디스페이스",
        "distance": 1491.5030483922328,
        "walking_time": "약 23분"
      },
      {
        "theater_lat": 37.5543349117636,
        "theater_lon": 126.921207395382,
        "theater_type": "영화관",
        "theater_name": "모노플렉스 앳 라이즈",
        "distance": 1595.2338294231702,
        "walking_time": "약 24분"
      },
      {
        "theater_lat": 37.5564943733388,
        "theater_lon": 126.922631917858,
        "theater_type": "영화관",
        "theater_name": "CGV홍대",
        "distance": 1604.0590526396822,
        "walking_time": "약 24분"
      },
      {
        "theater_lat": 37.5560502523992,
        "theater_lon": 126.922054509333,
        "theater_type": "영화관",
        "theater_name": "메가박스중앙(주) 홍대지점",
        "distance": 1619.7395391640785,
        "walking_time": "약 25분"
      }
    ],
    "university": [
      {
        "university_lat": 37.5514649610226,
        "university_lon": 126.942979960696,
        "university_type": "대학교",
        "university_name": "서강대학교",
        "distance": 582.5371287069324,
        "walking_time": "약 9분"
      },
      {
        "university_lat": 37.5429684534294,
        "university_lon": 126.947855469473,
        "university_type": "대학교",
        "university_name": "서울디지털대학교",
        "distance": 1080.5149995647623,
        "walking_time": "약 17분"
      },
      {
        "university_lat": 37.5525245968145,
        "university_lon": 126.9250355422,
        "university_type": "대학교",
        "university_name": "홍익대학교",
        "distance": 1205.3410839168089,
        "walking_time": "약 18분"
      }
    ]
  }
}