{
  "클러스터_위도": 37.574478,
  "클러스터_경도": 127.0047,
  "클러스터_level": 3.0,
  "facilities": {
    "bus": [
      {
        "bus_lat": 37.57497665,
        "bus_lon": 127.0054049,
        "bus_type": "버스정류장",
        "bus_name": "충신시장",
        "distance": 83.2677889674268,
        "walking_time": "약 2분"
      },
      {
        "bus_lat": 37.57446028,
        "bus_lon": 127.0063434,
        "bus_type": "버스정류장",
        "bus_name": "충신동",
        "distance": 144.8442915141998,
        "walking_time": "약 3분"
      },
      {
        "bus_lat": 37.57402235,
        "bus_lon": 127.0062788,
        "bus_type": "버스정류장",
        "bus_name": "충신동",
        "distance": 148.0759015325588,
        "walking_time": "약 3분"
      },
      {
        "bus_lat": 37.57593729,
        "bus_lon": 127.0032708,
        "bus_type": "버스정류장",
        "bus_name": "이화동(이화장)",
        "distance": 205.4121677466385,
        "walking_time": "약 4분"
      },
      {
        "bus_lat": 37.5745,
        "bus_lon": 127.00223,
        "bus_type": "버스정류장",
        "bus_name": "종로5가.효제동.김상옥의거터",
        "distance": 217.6918520121716,
        "walking_time": "약 4분"
      },
      {
        "bus_lat": 37.57532007,
        "bus_lon": 127.0022813,
        "bus_type": "버스정류장",
        "bus_name": "이화사거리",
        "distance": 232.81485839871067,
        "walking_time": "약 4분"
      },
      {
        "bus_lat": 37.57364134,
        "bus_lon": 127.0022088,
        "bus_type": "버스정류장",
        "bus_name": "효제초교.연동교회.김마리아활동터",
        "distance": 238.44540547943103,
        "walking_time": "약 4분"
      },
      {
        "bus_lat": 37.576257,
        "bus_lon": 127.002955,
        "bus_type": "버스정류장",
        "bus_name": "이화동(이화장)",
        "distance": 250.55990789170983,
        "walking_time": "약 4분"
      },
      {
        "bus_lat": 37.57598417,
        "bus_lon": 127.0025802,
        "bus_type": "버스정류장",
        "bus_name": "대학로입구.이화사거리",
        "distance": 250.895068594433,
        "walking_time": "약 4분"
      },
      {
        "bus_lat": 37.57241749,
        "bus_lon": 127.0065911,
        "bus_type": "버스정류장",
        "bus_name": "종로중부새마을금고",
        "distance": 283.3224764810045,
        "walking_time": "약 5분"
      }
    ],
    "community_center": [
      {
        "community_center_lat": 37.57206117,
        "community_center_lon": 127.0050313,
        "community_center_type": "주민센터",
        "community_center_name": "종로5.6가동 자치회관",
        "distance": 270.3206852272248,
        "walking_time": "약 5분"
      },
      {
        "community_center_lat": 37.57697973,
        "community_center_lon": 127.0043465,
        "community_center_type": "주민센터",
        "community_center_name": "이화동 자치회관",
        "distance": 279.9186424641863,
        "walking_time": "약 5분"
      },
      {
        "community_center_lat": 37.57445049,
        "community_center_lon": 127.010871,
        "community_center_type": "주민센터",
        "community_center_name": "창신제2동 자치회관",
        "distance": 543.8515350109063,
        "walking_time": "약 9분"
      },
      {
        "community_center_lat": 37.57802956,
        "community_center_lon": 127.0145586,
        "community_center_type": "주민센터",
        "community_center_name": "창신제3동 자치회관",
        "distance": 954.3489256749268,
        "walking_time": "약 15분"
      },
      {
        "community_center_lat": 37.57782273,
        "community_center_lon": 127.0156281,
        "community_center_type": "주민센터",
        "community_center_name": "숭인제1동 자치회관",
        "distance": 1032.3780132923032,
        "walking_time": "약 16분"
      },
      {
        "community_center_lat": 37.57071856,
        "community_center_lon": 127.0163431,
        "community_center_type": "주민센터",
        "community_center_name": "창신제1동 자치회관",
        "distance": 1108.0020228090043,
        "walking_time": "약 17분"
      },
      {
        "community_center_lat": 37.56446028,
        "community_center_lon": 127.005037,
        "community_center_type": "주민센터",
        "community_center_name": "광희동 자치회관",
        "distance": 1114.3155473011946,
        "walking_time": "약 17분"
      },
      {
        "community_center_lat": 37.57449203,
        "community_center_lon": 126.9902334,
        "community_center_type": "주민센터",
        "community_center_name": "종로1.2.3.4가동 자치회관",
        "distance": 1274.9249475505944,
        "walking_time": "약 20분"
      },
      {
        "community_center_lat": 37.57487529,
        "community_center_lon": 127.0199617,
        "community_center_type": "주민센터",
        "community_center_name": "숭인제2동 자치회관",
        "distance": 1345.7170363357095,
        "walking_time": "약 21분"
      },
      {
        "community_center_lat": 37.58685154,
        "community_center_lon": 127.0006231,
        "community_center_type": "주민센터",
        "community_center_name": "혜화동 자치회관",
        "distance": 1422.0060397927832,
        "walking_time": "약 22분"
      }
    ],
    "convenience_store": [
      {
        "convenience_store_lat": 37.57334855,
        "convenience_store_lon": 127.003906,
        "convenience_store_type": "편의점",
        "convenience_store_name": "GS25 종로효제점",
        "distance": 143.7675101773649,
        "walking_time": "약 3분"
      },
      {
        "convenience_store_lat": 37.57260627,
        "convenience_store_lon": 127.004969,
        "convenience_store_type": "편의점",
        "convenience_store_name": "GS25 종로효제점",
        "distance": 209.47271292478823,
        "walking_time": "약 4분"
      },
      {
        "convenience_store_lat": 37.57260627,
        "convenience_store_lon": 127.004969,
        "convenience_store_type": "편의점",
        "convenience_store_name": "미니스톱 종로효제점",
        "distance": 209.47271292478823,
        "walking_time": "약 4분"
      },
      {
        "convenience_store_lat": 37.57596363,
        "convenience_store_lon": 127.0030532,
        "convenience_store_type": "편의점",
        "convenience_store_name": "세븐일레븐 종로율곡점",
        "distance": 219.89014008597243,
        "walking_time": "약 4분"
      },
      {
        "convenience_store_lat": 37.5734705,
        "convenience_store_lon": 127.0023511,
        "convenience_store_type": "편의점",
        "convenience_store_name": "CU 종로효제점",
        "distance": 235.37720453092388,
        "walking_time": "약 4분"
      },
      {
        "convenience_store_lat": 37.57404525,
        "convenience_store_lon": 127.0018679,
        "convenience_store_type": "편의점",
        "convenience_store_name": "CU 포레스트힐점",
        "distance": 254.18657640419968,
        "walking_time": "약 4분"
      },
      {
        "convenience_store_lat": 37.57520564,
        "convenience_store_lon": 127.0018855,
        "convenience_store_type": "편의점",
        "convenience_store_name": "CU 이화사거리점",
        "distance": 260.9001912159079,
        "walking_time": "약 4분"
      },
      {
        "convenience_store_lat": 37.57689592,
        "convenience_store_lon": 127.0047661,
        "convenience_store_type": "편의점",
        "convenience_store_name": "CU 종로율곡점",
        "distance": 268.92353519104614,
        "walking_time": "약 5분"
      },
      {
        "convenience_store_lat": 37.5732025,
        "convenience_store_lon": 127.007592,
        "convenience_store_type": "편의점",
        "convenience_store_name": "CU 종로공원점",
        "distance": 291.6754412957964,
        "walking_time": "약 5분"
      },
      {
        "convenience_store_lat": 37.57590437,
        "convenience_store_lon": 127.0017857,
        "convenience_store_type": "편의점",
        "convenience_store_name": "세븐일레븐 종로이화점",
        "distance": 301.8574159423946,
        "walking_time": "약 5분"
      }
    ],
    "daycare": [
      {
        "daycare_lat": 37.57494521,
        "daycare_lon": 127.0051251,
        "daycare_type": "어린이집",
        "daycare_name": "이화어린이집",
        "distance": 64.05041048304481,
        "walking_time": "약 1분"
      },
      {
        "daycare_lat": 37.57511591,
        "daycare_lon": 127.006564,
        "daycare_type": "어린이집",
        "daycare_name": "충신어린이집",
        "distance": 178.93151183302714,
        "walking_time": "약 3분"
      },
      {
        "daycare_lat": 37.57700048,
        "daycare_lon": 127.0042702,
        "daycare_type": "어린이집",
        "daycare_name": "KT혜화 어린이집",
        "distance": 283.0328976461105,
        "walking_time": "약 5분"
      },
      {
        "daycare_lat": 37.57392371531399,
        "daycare_lon": 127.00140652631974,
        "daycare_type": "어린이집",
        "daycare_name": "연동어린이집",
        "distance": 296.7226485046109,
        "walking_time": "약 5분"
      },
      {
        "daycare_lat": 37.57385165,
        "daycare_lon": 127.001319,
        "daycare_type": "어린이집",
        "daycare_name": "연동어린이집",
        "distance": 305.996203732006,
        "walking_time": "약 5분"
      },
      {
        "daycare_lat": 37.57390869,
        "daycare_lon": 127.008191,
        "daycare_type": "어린이집",
        "daycare_name": "중앙어린이집",
        "distance": 314.1041148559825,
        "walking_time": "약 5분"
      },
      {
        "daycare_lat": 37.573628643388055,
        "daycare_lon": 127.00103012788806,
        "daycare_type": "어린이집",
        "daycare_name": "SGI서울보증 어린이집",
        "distance": 336.93072112112867,
        "walking_time": "약 6분"
      },
      {
        "daycare_lat": 37.57261232,
        "daycare_lon": 127.0010958,
        "daycare_type": "어린이집",
        "daycare_name": "삼양어린이집",
        "distance": 379.3823916129466,
        "walking_time": "약 6분"
      },
      {
        "daycare_lat": 37.57484621,
        "daycare_lon": 127.0094238,
        "daycare_type": "어린이집",
        "daycare_name": "성터어린이집",
        "distance": 418.31032269683607,
        "walking_time": "약 7분"
      },
      {
        "daycare_lat": 37.57181311108567,
        "daycare_lon": 127.00100090217316,
        "daycare_type": "어린이집",
        "daycare_name": "미래나무어린이집",
        "distance": 440.55043652632565,
        "walking_time": "약 7분"
      }
    ],
    "education": [
      {
        "education_lat": 37.57285718,
        "education_lon": 127.0085128,
        "education_type": "박물관/기념관",
        "education_name": "한양도성박물관",
        "distance": 381.30299034377015,
        "walking_time": "약 6분"
      },
      {
        "education_lat": 37.57820858,
        "education_lon": 127.0047187,
        "education_type": "공연장",
        "education_name": "한예극장",
        "distance": 414.82484287993776,
        "walking_time": "약 7분"
      },
      {
        "education_lat": 37.57181233,
        "education_lon": 127.0010001,
        "education_type": "공연장",
        "education_name": "두산아트센터 스페이스111",
        "distance": 440.6611710339243,
        "walking_time": "약 7분"
      },
      {
        "education_lat": 37.57181233,
        "education_lon": 127.0010001,
        "education_type": "공연장",
        "education_name": "두산아트센터 연강홀",
        "distance": 440.6611710339243,
        "walking_time": "약 7분"
      },
      {
        "education_lat": 37.57181233,
        "education_lon": 127.0010001,
        "education_type": "미술관/갤러리",
        "education_name": "두산갤러리",
        "distance": 440.6611710339243,
        "walking_time": "약 7분"
      },
      {
        "education_lat": 37.57081871,
        "education_lon": 127.0080914,
        "education_type": "공연장",
        "education_name": "전통공연창작마루",
        "distance": 504.8730274392972,
        "walking_time": "약 8분"
      },
      {
        "education_lat": 37.58026828,
        "education_lon": 127.0040068,
        "education_type": "공연장",
        "education_name": "예스24아트원",
        "distance": 646.7413078528417,
        "walking_time": "약 10분"
      },
      {
        "education_lat": 37.58030622,
        "education_lon": 127.0035291,
        "education_type": "공연장",
        "education_name": "미마지아트센터 물빛극장",
        "distance": 656.2317579292928,
        "walking_time": "약 10분"
      },
      {
        "education_lat": 37.580334,
        "education_lon": 127.0025153,
        "education_type": "공연장",
        "education_name": "마로니에 야외공연장",
        "distance": 679.0234791492619,
        "walking_time": "약 11분"
      },
      {
        "education_lat": 37.58050229,
        "education_lon": 127.0032562,
        "education_type": "미술관/갤러리",
        "education_name": "아르코미술관",
        "distance": 681.846952320404,
        "walking_time": "약 11분"
      }
    ],
    "electric_gas_station": [
      {
        "electric_gas_station_lat": 37.5731338,
        "electric_gas_station_lon": 126.9948635,
        "electric_gas_station_type": "전기차 충전소",
        "electric_gas_station_name": "종묘 공영주차장",
        "distance": 879.6780266927238,
        "walking_time": "약 14분"
      },
      {
        "electric_gas_station_lat": 37.56059897,
        "electric_gas_station_lon": 127.002136,
        "electric_gas_station_type": "전기차 충전소",
        "electric_gas_station_name": "그랜드앰배서더 서울",
        "distance": 1559.7354202711033,
        "walking_time": "약 24분"
      }
    ],
    "fitness": [
      {
        "fitness_lat": 37.57623232,
        "fitness_lon": 127.0051308,
        "fitness_type": "운동시설",
        "fitness_name": "필라테스.피티.시도하다",
        "distance": 198.73162409693992,
        "walking_time": "약 3분"
      },
      {
        "fitness_lat": 37.57566426,
        "fitness_lon": 127.0014157,
        "fitness_type": "운동시설",
        "fitness_name": "제일메가스포",
        "distance": 318.07895169406737,
        "walking_time": "약 5분"
      },
      {
        "fitness_lat": 37.57531729,
        "fitness_lon": 127.0007229,
        "fitness_type": "운동시설",
        "fitness_name": "현대그룹 H Gym",
        "distance": 362.70693045075257,
        "walking_time": "약 6분"
      },
      {
        "fitness_lat": 37.57275761,
        "fitness_lon": 127.0108472,
        "fitness_type": "운동시설",
        "fitness_name": "박영길 휘트니스",
        "distance": 574.5345868999295,
        "walking_time": "약 9분"
      },
      {
        "fitness_lat": 37.57219638,
        "fitness_lon": 127.0117558,
        "fitness_type": "운동시설",
        "fitness_name": "짱핏",
        "distance": 671.5928570975464,
        "walking_time": "약 11분"
      },
      {
        "fitness_lat": 37.5812861,
        "fitness_lon": 127.0011412,
        "fitness_type": "운동시설",
        "fitness_name": "필웨이",
        "distance": 819.4175755724696,
        "walking_time": "약 13분"
      },
      {
        "fitness_lat": 37.5674871,
        "fitness_lon": 127.0080789,
        "fitness_type": "운동시설",
        "fitness_name": "시그니쳐 GYM",
        "distance": 832.4406209542158,
        "walking_time": "약 13분"
      },
      {
        "fitness_lat": 37.57802956,
        "fitness_lon": 127.0145586,
        "fitness_type": "운동시설",
        "fitness_name": "클래식바디짐",
        "distance": 954.3489256749268,
        "walking_time": "약 15분"
      },
      {
        "fitness_lat": 37.57737574,
        "fitness_lon": 127.0150497,
        "fitness_type": "운동시설",
        "fitness_name": "에이블짐창신역점",
        "distance": 967.3303601561546,
        "walking_time": "약 15분"
      },
      {
        "fitness_lat": 37.57173927,
        "fitness_lon": 127.0152017,
        "fitness_type": "운동시설",
        "fitness_name": "스파렉스",
        "distance": 974.3336979910916,
        "walking_time": "약 15분"
      }
    ],
    "gas_station": [
      {
        "gas_station_lat": 37.56275432,
        "gas_station_lon": 127.0070337,
        "gas_station_type": "주유소",
        "gas_station_name": "서울석유(주) 장충주유소",
        "distance": 1319.740131349717,
        "walking_time": "약 20분"
      },
      {
        "gas_station_lat": 37.58606542,
        "gas_station_lon": 127.0010786,
        "gas_station_type": "주유소",
        "gas_station_name": "㈜중앙에너비스 혜화지점",
        "distance": 1327.3943591274733,
        "walking_time": "약 20분"
      },
      {
        "gas_station_lat": 37.58798513,
        "gas_station_lon": 127.0055411,
        "gas_station_type": "주유소",
        "gas_station_name": "삼선주유소",
        "distance": 1503.7520508757543,
        "walking_time": "약 23분"
      },
      {
        "gas_station_lat": 37.56460799,
        "gas_station_lon": 127.016496,
        "gas_station_type": "주유소",
        "gas_station_name": "신당동주유소",
        "distance": 1511.733717184952,
        "walking_time": "약 23분"
      },
      {
        "gas_station_lat": 37.56396821,
        "gas_station_lon": 127.0157064,
        "gas_station_type": "주유소",
        "gas_station_name": "주식회사 타이거통상 다산주유소",
        "distance": 1518.7837655188282,
        "walking_time": "약 23분"
      },
      {
        "gas_station_lat": 37.56084671,
        "gas_station_lon": 127.0034149,
        "gas_station_type": "주유소",
        "gas_station_name": "씨앤에스유통(주) 장충드림주유소",
        "distance": 1519.956317163067,
        "walking_time": "약 23분"
      },
      {
        "gas_station_lat": 37.5617133,
        "gas_station_lon": 126.9971343,
        "gas_station_type": "주유소",
        "gas_station_name": "SK에너지 직영 퇴계로주유소",
        "distance": 1568.1998309107987,
        "walking_time": "약 24분"
      },
      {
        "gas_station_lat": 37.56087822,
        "gas_station_lon": 126.9936634,
        "gas_station_type": "주유소",
        "gas_station_name": "필동주유소",
        "distance": 1798.064223473881,
        "walking_time": "약 27분"
      },
      {
        "gas_station_lat": 37.58767101,
        "gas_station_lon": 127.0183894,
        "gas_station_type": "주유소",
        "gas_station_name": "(주)성북주유소",
        "distance": 1899.287515854377,
        "walking_time": "약 29분"
      }
    ],
    "hospital": [
      {
        "hospital_lat": 37.57547934,
        "hospital_lon": 127.0055214,
        "hospital_type": "병원",
        "hospital_name": "바른이치과의원",
        "distance": 132.806501077951,
        "walking_time": "약 2분"
      },
      {
        "hospital_lat": 37.57334929,
        "hospital_lon": 127.0057449,
        "hospital_type": "병원",
        "hospital_name": "미래의원",
        "distance": 155.66593552064242,
        "walking_time": "약 3분"
      },
      {
        "hospital_lat": 37.57593118,
        "hospital_lon": 127.0056868,
        "hospital_type": "병원",
        "hospital_name": "새생명한의원",
        "distance": 183.50194783519865,
        "walking_time": "약 3분"
      },
      {
        "hospital_lat": 37.57636609,
        "hospital_lon": 127.003269,
        "hospital_type": "병원",
        "hospital_name": "대학로 힘정형외과의원",
        "distance": 244.9106933430767,
        "walking_time": "약 4분"
      },
      {
        "hospital_lat": 37.57239774,
        "hospital_lon": 127.0036921,
        "hospital_type": "병원",
        "hospital_name": "신일한의원",
        "distance": 247.78304341004767,
        "walking_time": "약 4분"
      },
      {
        "hospital_lat": 37.57280476,
        "hospital_lon": 127.0022108,
        "hospital_type": "병원",
        "hospital_name": "선치과의원",
        "distance": 287.64758202287265,
        "walking_time": "약 5분"
      },
      {
        "hospital_lat": 37.57280476,
        "hospital_lon": 127.0022108,
        "hospital_type": "병원",
        "hospital_name": "위강원한의원",
        "distance": 287.64758202287265,
        "walking_time": "약 5분"
      },
      {
        "hospital_lat": 37.57220389,
        "hospital_lon": 127.0067765,
        "hospital_type": "병원",
        "hospital_name": "혜원당한의원",
        "distance": 312.14228278280257,
        "walking_time": "약 5분"
      },
      {
        "hospital_lat": 37.57187425,
        "hospital_lon": 127.0061712,
        "hospital_type": "병원",
        "hospital_name": "신진한의원",
        "distance": 317.2302882996704,
        "walking_time": "약 5분"
      },
      {
        "hospital_lat": 37.57187425,
        "hospital_lon": 127.0061712,
        "hospital_type": "병원",
        "hospital_name": "종로신진한의원",
        "distance": 317.2302882996704,
        "walking_time": "약 5분"
      }
    ],
    "music_room": [
      {
        "music_room_lat": 37.57611458,
        "music_room_lon": 127.0045488,
        "music_room_type": "노래방",
        "music_room_name": "영광노래방",
        "distance": 182.46658107350868,
        "walking_time": "약 3분"
      },
      {
        "music_room_lat": 37.57140677,
        "music_room_lon": 127.0022958,
        "music_room_type": "노래방",
        "music_room_name": "차차차노래방",
        "distance": 401.8960956581548,
        "walking_time": "약 6분"
      },
      {
        "music_room_lat": 37.57066788,
        "music_room_lon": 127.0012072,
        "music_room_type": "노래방",
        "music_room_name": "렉스코인노래연습장",
        "distance": 523.6875014336547,
        "walking_time": "약 8분"
      },
      {
        "music_room_lat": 37.57271988,
        "music_room_lon": 127.0105946,
        "music_room_type": "노래방",
        "music_room_name": "우정노래방",
        "distance": 555.0567026836449,
        "walking_time": "약 9분"
      },
      {
        "music_room_lat": 37.57221592,
        "music_room_lon": 127.0118544,
        "music_room_type": "노래방",
        "music_room_name": "25시 노래연습장",
        "distance": 678.838379837095,
        "walking_time": "약 11분"
      },
      {
        "music_room_lat": 37.57232682,
        "music_room_lon": 127.0120304,
        "music_room_type": "노래방",
        "music_room_name": "싱싱 노래연습장",
        "distance": 688.8903093835825,
        "walking_time": "약 11분"
      },
      {
        "music_room_lat": 37.56873455,
        "music_room_lon": 127.0076665,
        "music_room_type": "노래방",
        "music_room_name": "미디어스코프 주식회사",
        "distance": 690.0849936305474,
        "walking_time": "약 11분"
      },
      {
        "music_room_lat": 37.57266503,
        "music_room_lon": 127.0122772,
        "music_room_type": "노래방",
        "music_room_name": "차차차 노래연습장",
        "distance": 697.543399660884,
        "walking_time": "약 11분"
      },
      {
        "music_room_lat": 37.57155643,
        "music_room_lon": 127.0124367,
        "music_room_type": "노래방",
        "music_room_name": "키스",
        "distance": 755.2757949213691,
        "walking_time": "약 12분"
      },
      {
        "music_room_lat": 37.56771138,
        "music_room_lon": 127.007766,
        "music_room_type": "노래방",
        "music_room_name": "뮤직이너스 노래연습장",
        "distance": 799.4640651496186,
        "walking_time": "약 12분"
      }
    ],
    "outdoor_sports": [
      {
        "outdoor_sports_lat": 37.5673947880932,
        "outdoor_sports_lon": 127.003544929278,
        "outdoor_sports_type": "야외 체육시설",
        "outdoor_sports_name": "훈련원근린공원",
        "distance": 794.1688143095573,
        "walking_time": "약 12분"
      },
      {
        "outdoor_sports_lat": 37.5637804953142,
        "outdoor_sports_lon": 126.999800113588,
        "outdoor_sports_type": "야외 체육시설",
        "outdoor_sports_name": "신당동 산 49",
        "distance": 1265.4746673994682,
        "walking_time": "약 19분"
      },
      {
        "outdoor_sports_lat": 37.56748267,
        "outdoor_sports_lon": 127.0180129,
        "outdoor_sports_type": "야외 체육시설",
        "outdoor_sports_name": "쌍림어린이공원",
        "distance": 1407.7243435614328,
        "walking_time": "약 22분"
      },
      {
        "outdoor_sports_lat": 37.56753166289,
        "outdoor_sports_lon": 127.018124132041,
        "outdoor_sports_type": "야외 체육시설",
        "outdoor_sports_name": "황학어린이공원",
        "distance": 1412.9196586643322,
        "walking_time": "약 22분"
      },
      {
        "outdoor_sports_lat": 37.56375032,
        "outdoor_sports_lon": 127.0186793,
        "outdoor_sports_type": "야외 체육시설",
        "outdoor_sports_name": "충현어린이공원",
        "distance": 1714.9094151907696,
        "walking_time": "약 26분"
      },
      {
        "outdoor_sports_lat": 37.5602724243742,
        "outdoor_sports_lon": 127.018131314772,
        "outdoor_sports_type": "야외 체육시설",
        "outdoor_sports_name": "동화어린이공원",
        "distance": 1973.949610415956,
        "walking_time": "약 30분"
      }
    ],
    "park": [
      {
        "park_lat": 37.5802295,
        "park_lon": 127.0027886,
        "park_type": "공원",
        "park_name": "마로니에공원",
        "distance": 661.3481486247784,
        "walking_time": "약 10분"
      },
      {
        "park_lat": 37.580477,
        "park_lon": 127.007587,
        "park_type": "공원",
        "park_name": "낙산근린공원",
        "distance": 713.9293925244257,
        "walking_time": "약 11분"
      },
      {
        "park_lat": 37.5675245,
        "park_lon": 127.0038188,
        "park_type": "공원",
        "park_name": "훈련원근린공원",
        "distance": 777.0845131152468,
        "walking_time": "약 12분"
      },
      {
        "park_lat": 37.5764419,
        "park_lon": 127.0178267,
        "park_type": "공원",
        "park_name": "숭인근린공원",
        "distance": 1177.2562233344804,
        "walking_time": "약 18분"
      }
    ],
    "park_station": [
      {
        "park_station_lat": 37.57479089,
        "park_station_lon": 127.003147,
        "park_station_type": "주차장",
        "park_station_name": "서울지방국세청효제별관",
        "distance": 141.2166827798841,
        "walking_time": "약 3분"
      },
      {
        "park_station_lat": 37.57653377,
        "park_station_lon": 127.0055642,
        "park_station_type": "주차장",
        "park_station_name": "이화공영",
        "distance": 240.9445127115452,
        "walking_time": "약 4분"
      },
      {
        "park_station_lat": 37.57001879,
        "park_station_lon": 127.006833,
        "park_station_type": "주차장",
        "park_station_name": "종로40길 이륜차 주차장",
        "distance": 530.2800595657998,
        "walking_time": "약 8분"
      },
      {
        "park_station_lat": 37.56952444,
        "park_station_lon": 127.0044784,
        "park_station_type": "주차장",
        "park_station_name": "청계5 공영주차장",
        "distance": 551.1568676827786,
        "walking_time": "약 9분"
      },
      {
        "park_station_lat": 37.56968028,
        "park_station_lon": 127.0025593,
        "park_station_type": "주차장",
        "park_station_name": "청계5 공영주차장",
        "distance": 565.8595718977627,
        "walking_time": "약 9분"
      },
      {
        "park_station_lat": 37.56982203,
        "park_station_lon": 127.0080459,
        "park_station_type": "주차장",
        "park_station_name": "청계6 공영주차장",
        "distance": 595.80877331845,
        "walking_time": "약 9분"
      },
      {
        "park_station_lat": 37.56949907,
        "park_station_lon": 127.0072419,
        "park_station_type": "주차장",
        "park_station_name": "청계5 공영주차장",
        "distance": 597.2386602161025,
        "walking_time": "약 9분"
      },
      {
        "park_station_lat": 37.56856373,
        "park_station_lon": 127.0060089,
        "park_station_type": "주차장",
        "park_station_name": "중구구민회관 부설",
        "distance": 667.6775247898637,
        "walking_time": "약 10분"
      },
      {
        "park_station_lat": 37.57598437,
        "park_station_lon": 127.0123679,
        "park_station_type": "주차장",
        "park_station_name": "공유) 창신동 49번~53번",
        "distance": 696.2059001638326,
        "walking_time": "약 11분"
      },
      {
        "park_station_lat": 37.57629006,
        "park_station_lon": 127.0125354,
        "park_station_type": "주차장",
        "park_station_name": "창삼공영",
        "distance": 719.3130978143963,
        "walking_time": "약 11분"
      }
    ],
    "pc_room": [
      {
        "pc_room_lat": 37.5738518126169,
        "pc_room_lon": 127.010446207148,
        "pc_room_type": "PC방",
        "pc_room_name": "프렌즈PC방",
        "distance": 511.1728892917693,
        "walking_time": "약 8분"
      },
      {
        "pc_room_lat": 37.5711020733218,
        "pc_room_lon": 126.999002281266,
        "pc_room_type": "PC방",
        "pc_room_name": "행운PC",
        "distance": 626.9479163060021,
        "walking_time": "약 10분"
      },
      {
        "pc_room_lat": 37.5717611714478,
        "pc_room_lon": 127.012048006993,
        "pc_room_type": "PC방",
        "pc_room_name": "우림게임장 PC",
        "distance": 714.5813389944583,
        "walking_time": "약 11분"
      },
      {
        "pc_room_lat": 37.5677456759075,
        "pc_room_lon": 127.008181175525,
        "pc_room_type": "PC방",
        "pc_room_name": "긱스타PC카페",
        "distance": 809.0315923407742,
        "walking_time": "약 13분"
      },
      {
        "pc_room_lat": 37.572752624919,
        "pc_room_lon": 127.013713331944,
        "pc_room_type": "PC방",
        "pc_room_name": "BONE pc방",
        "distance": 817.1835156661883,
        "walking_time": "약 13분"
      },
      {
        "pc_room_lat": 37.5731036083714,
        "pc_room_lon": 127.0148243418,
        "pc_room_type": "PC방",
        "pc_room_name": "잇츠PC",
        "distance": 905.247700670943,
        "walking_time": "약 14분"
      },
      {
        "pc_room_lat": 37.583376138945,
        "pc_room_lon": 127.000958936342,
        "pc_room_type": "PC방",
        "pc_room_name": "프리미엄pc방",
        "distance": 1042.9063657104389,
        "walking_time": "약 16분"
      },
      {
        "pc_room_lat": 37.5824983858422,
        "pc_room_lon": 126.998527082015,
        "pc_room_type": "PC방",
        "pc_room_name": "ESC PC",
        "distance": 1044.639185421447,
        "walking_time": "약 16분"
      },
      {
        "pc_room_lat": 37.5826436294265,
        "pc_room_lon": 126.998834230134,
        "pc_room_type": "PC방",
        "pc_room_name": "스틸시리즈 PC방(steelseries PC)",
        "distance": 1044.807388373477,
        "walking_time": "약 16분"
      },
      {
        "pc_room_lat": 37.583982677102,
        "pc_room_lon": 126.998153324962,
        "pc_room_type": "PC방",
        "pc_room_name": "레벨업 PC cafe",
        "distance": 1204.0796021426545,
        "walking_time": "약 18분"
      }
    ],
    "police_office": [
      {
        "police_office_lat": 37.57294307,
        "police_office_lon": 127.0048665,
        "police_office_type": "경찰소",
        "police_office_name": "효제파출소",
        "distance": 171.30603541568786,
        "walking_time": "약 3분"
      },
      {
        "police_office_lat": 37.57861171,
        "police_office_lon": 127.0060453,
        "police_office_type": "경찰소",
        "police_office_name": "대학로파출소",
        "distance": 474.6909673949405,
        "walking_time": "약 8분"
      },
      {
        "police_office_lat": 37.57073671,
        "police_office_lon": 127.0016317,
        "police_office_type": "경찰소",
        "police_office_name": "종로5가파출소",
        "distance": 496.1746012777703,
        "walking_time": "약 8분"
      },
      {
        "police_office_lat": 37.57598518,
        "police_office_lon": 127.0105262,
        "police_office_type": "경찰소",
        "police_office_name": "덕산파출소",
        "distance": 540.1096330884653,
        "walking_time": "약 9분"
      },
      {
        "police_office_lat": 37.56647342,
        "police_office_lon": 127.0039437,
        "police_office_type": "경찰소",
        "police_office_name": "을지지구대",
        "distance": 892.561038375675,
        "walking_time": "약 14분"
      },
      {
        "police_office_lat": 37.57849369,
        "police_office_lon": 127.013542,
        "police_office_type": "경찰소",
        "police_office_name": "창신파출소",
        "distance": 898.0858651482947,
        "walking_time": "약 14분"
      },
      {
        "police_office_lat": 37.57269632,
        "police_office_lon": 127.0171175,
        "police_office_type": "경찰소",
        "police_office_name": "동묘파출소",
        "distance": 1112.1404654956582,
        "walking_time": "약 17분"
      },
      {
        "police_office_lat": 37.56526845,
        "police_office_lon": 127.0133764,
        "police_office_type": "경찰소",
        "police_office_name": "광희지구대",
        "distance": 1278.059808988993,
        "walking_time": "약 20분"
      },
      {
        "police_office_lat": 37.5861084,
        "police_office_lon": 127.0014075,
        "police_office_type": "경찰소",
        "police_office_name": "혜화파출소",
        "distance": 1325.388831108184,
        "walking_time": "약 20분"
      },
      {
        "police_office_lat": 37.56618152,
        "police_office_lon": 126.9928483,
        "police_office_type": "경찰소",
        "police_office_name": "을지로3가파출소",
        "distance": 1393.5949896468742,
        "walking_time": "약 21분"
      }
    ],
    "post_office": [
      {
        "post_office_lat": 37.5728892,
        "post_office_lon": 127.0065961,
        "post_office_type": "우체국",
        "post_office_name": "서울종로6가우편취급국",
        "distance": 243.1756537605104,
        "walking_time": "약 4분"
      },
      {
        "post_office_lat": 37.5711774,
        "post_office_lon": 127.0008747,
        "post_office_type": "우체국",
        "post_office_name": "서울종로5가우체국",
        "distance": 498.3479188932303,
        "walking_time": "약 8분"
      },
      {
        "post_office_lat": 37.57919549,
        "post_office_lon": 127.0032909,
        "post_office_type": "우체국",
        "post_office_name": "한국방송통신대학교우편취급국",
        "distance": 539.0588651466002,
        "walking_time": "약 9분"
      },
      {
        "post_office_lat": 37.58039622,
        "post_office_lon": 127.0110117,
        "post_office_type": "우체국",
        "post_office_name": "서울창신2동우편취급국",
        "distance": 861.6526337670053,
        "walking_time": "약 13분"
      },
      {
        "post_office_lat": 37.57237657,
        "post_office_lon": 127.0142845,
        "post_office_type": "우체국",
        "post_office_name": "서울창신1동우편취급국",
        "distance": 876.4070267541066,
        "walking_time": "약 14분"
      },
      {
        "post_office_lat": 37.58045239,
        "post_office_lon": 126.9971964,
        "post_office_type": "우체국",
        "post_office_name": "서울대학교병원우편취급국",
        "distance": 937.3281240308966,
        "walking_time": "약 14분"
      },
      {
        "post_office_lat": 37.57800483,
        "post_office_lon": 127.0155694,
        "post_office_type": "우체국",
        "post_office_name": "서울숭인동우체국",
        "distance": 1035.0539057791402,
        "walking_time": "약 16분"
      },
      {
        "post_office_lat": 37.58323585,
        "post_office_lon": 127.01039,
        "post_office_type": "우체국",
        "post_office_name": "한성대학교우편취급국",
        "distance": 1095.338915436157,
        "walking_time": "약 17분"
      },
      {
        "post_office_lat": 37.56620281,
        "post_office_lon": 126.9951631,
        "post_office_type": "우체국",
        "post_office_name": "서울을지로4가우체국",
        "distance": 1246.262619486486,
        "walking_time": "약 19분"
      },
      {
        "post_office_lat": 37.58588676,
        "post_office_lon": 127.0007091,
        "post_office_type": "우체국",
        "post_office_name": "서울혜화동우체국",
        "distance": 1316.4420393067835,
        "walking_time": "약 20분"
      }
    ],
    "public_health_center": [
      {
        "public_health_center_lat": 37.56458574,
        "public_health_center_lon": 127.0150951,
        "public_health_center_type": "보건소",
        "public_health_center_name": "중구보건소",
        "distance": 1431.5365418366362,
        "walking_time": "약 22분"
      }
    ],
    "school": [
      {
        "school_lat": 37.5727179599562,
        "school_lon": 127.003515410111,
        "school_type": "초등학교",
        "school_name": "서울효제초등학교",
        "distance": 221.8114487690712,
        "walking_time": "약 4분"
      },
      {
        "school_lat": 37.5775997032467,
        "school_lon": 127.004295521787,
        "school_type": "중학교",
        "school_name": "서울대학교사범대학부설여자중학교",
        "distance": 348.9429749793348,
        "walking_time": "약 6분"
      },
      {
        "school_lat": 37.5775997032467,
        "school_lon": 127.004295521787,
        "school_type": "초등학교",
        "school_name": "서울대학교사범대학부설초등학교",
        "distance": 348.9429749793348,
        "walking_time": "약 6분"
      },
      {
        "school_lat": 37.5762114748296,
        "school_lon": 127.014293687874,
        "school_type": "초등학교",
        "school_name": "서울창신초등학교",
        "distance": 867.1644012792922,
        "walking_time": "약 13분"
      },
      {
        "school_lat": 37.579364496797,
        "school_lon": 127.012786339408,
        "school_type": "고등학교",
        "school_name": "서일문화예술고등학교",
        "distance": 896.1332361941337,
        "walking_time": "약 14분"
      },
      {
        "school_lat": 37.5819996035219,
        "school_lon": 127.011312749775,
        "school_type": "중학교",
        "school_name": "한성여자중학교",
        "distance": 1019.360527957527,
        "walking_time": "약 16분"
      },
      {
        "school_lat": 37.5813606333694,
        "school_lon": 127.013724533725,
        "school_type": "초등학교",
        "school_name": "서울명신초등학교",
        "distance": 1103.7132557486996,
        "walking_time": "약 17분"
      },
      {
        "school_lat": 37.5725712502565,
        "school_lon": 127.017188742529,
        "school_type": "고등학교",
        "school_name": "종로산업정보학교",
        "distance": 1120.8673659104786,
        "walking_time": "약 17분"
      },
      {
        "school_lat": 37.5658716036039,
        "school_lon": 127.011443307588,
        "school_type": "고등학교",
        "school_name": "한양공업고등학교",
        "distance": 1126.5142560231338,
        "walking_time": "약 17분"
      },
      {
        "school_lat": 37.5658716036039,
        "school_lon": 127.011443307588,
        "school_type": "중학교",
        "school_name": "한양중학교",
        "distance": 1126.5142560231338,
        "walking_time": "약 17분"
      }
    ],
    "self_laundromat": [
      {
        "self_laundromat_lat": 37.57480961,
        "self_laundromat_lon": 127.0039553,
        "self_laundromat_type": "셀프 빨래방",
        "self_laundromat_name": "빨래터",
        "distance": 75.27853871894034,
        "walking_time": "약 2분"
      },
      {
        "self_laundromat_lat": 37.57480961,
        "self_laundromat_lon": 127.0039553,
        "self_laundromat_type": "셀프 빨래방",
        "self_laundromat_name": "빨래터",
        "distance": 75.27853871894034,
        "walking_time": "약 2분"
      },
      {
        "self_laundromat_lat": 37.57375793,
        "self_laundromat_lon": 127.0104533,
        "self_laundromat_type": "셀프 빨래방",
        "self_laundromat_name": "코인워시24빨래터 창신점",
        "distance": 513.3169234243105,
        "walking_time": "약 8분"
      },
      {
        "self_laundromat_lat": 37.57375793,
        "self_laundromat_lon": 127.0104533,
        "self_laundromat_type": "셀프 빨래방",
        "self_laundromat_name": "코인워시24빨래터 창신점",
        "distance": 513.3169234243105,
        "walking_time": "약 8분"
      },
      {
        "self_laundromat_lat": 37.57240783,
        "self_laundromat_lon": 127.0164417,
        "self_laundromat_type": "셀프 빨래방",
        "self_laundromat_name": "위니아24크린샵 숭인점",
        "distance": 1060.0905520253032,
        "walking_time": "약 16분"
      },
      {
        "self_laundromat_lat": 37.57240783,
        "self_laundromat_lon": 127.0164417,
        "self_laundromat_type": "셀프 빨래방",
        "self_laundromat_name": "위니아24크린샵 숭인점",
        "distance": 1060.0905520253032,
        "walking_time": "약 16분"
      },
      {
        "self_laundromat_lat": 37.58427655,
        "self_laundromat_lon": 126.9968838,
        "self_laundromat_type": "셀프 빨래방",
        "self_laundromat_name": "런드리익스프레스샵 성대정문점",
        "distance": 1289.0091843193345,
        "walking_time": "약 20분"
      },
      {
        "self_laundromat_lat": 37.58427655,
        "self_laundromat_lon": 126.9968838,
        "self_laundromat_type": "셀프 빨래방",
        "self_laundromat_name": "런드리익스프레스샵 성대정문점",
        "distance": 1289.0091843193345,
        "walking_time": "약 20분"
      },
      {
        "self_laundromat_lat": 37.57052441,
        "self_laundromat_lon": 127.0186906,
        "self_laundromat_type": "셀프 빨래방",
        "self_laundromat_name": "워시엔조이 황학동점",
        "distance": 1309.0349772405216,
        "walking_time": "약 20분"
      },
      {
        "self_laundromat_lat": 37.57052441,
        "self_laundromat_lon": 127.0186906,
        "self_laundromat_type": "셀프 빨래방",
        "self_laundromat_name": "워시엔조이 황학동점",
        "distance": 1309.0349772405216,
        "walking_time": "약 20분"
      }
    ],
    "subway": [
      {
        "subway_lat": 37.5709075371016,
        "subway_lon": 127.001916647342,
        "subway_type": "지하철",
        "subway_name": "1호선-종로5가역",
        "distance": 466.6846753813453,
        "walking_time": "약 7분"
      },
      {
        "subway_lat": 37.5704117093421,
        "subway_lon": 127.009546610861,
        "subway_type": "지하철",
        "subway_name": "4호선-동대문역",
        "distance": 622.0024227848716,
        "walking_time": "약 10분"
      },
      {
        "subway_lat": 37.5716332944196,
        "subway_lon": 127.01140072111,
        "subway_type": "지하철",
        "subway_name": "1호선-동대문역",
        "distance": 669.9188198868407,
        "walking_time": "약 10분"
      },
      {
        "subway_lat": 37.5818758763205,
        "subway_lon": 127.002292683609,
        "subway_type": "지하철",
        "subway_name": "4호선-혜화역",
        "distance": 849.5210168150803,
        "walking_time": "약 13분"
      },
      {
        "subway_lat": 37.5675250192617,
        "subway_lon": 126.998059555897,
        "subway_type": "지하철",
        "subway_name": "5호선-을지로4가역",
        "distance": 969.6635499272064,
        "walking_time": "약 15분"
      },
      {
        "subway_lat": 37.5722005208773,
        "subway_lon": 127.015678133819,
        "subway_type": "지하철",
        "subway_name": "6호선-동묘앞역",
        "distance": 1000.0988304907204,
        "walking_time": "약 15분"
      },
      {
        "subway_lat": 37.5666369941572,
        "subway_lon": 126.997852780281,
        "subway_type": "지하철",
        "subway_name": "2호선-을지로4가역",
        "distance": 1060.3535857228426,
        "walking_time": "약 16분"
      },
      {
        "subway_lat": 37.5655895229776,
        "subway_lon": 127.009131498424,
        "subway_type": "지하철",
        "subway_name": "2호선-동대문역사문화공원(DDP)역",
        "distance": 1062.7250353470522,
        "walking_time": "약 16분"
      },
      {
        "subway_lat": 37.5733722075697,
        "subway_lon": 127.01675118037,
        "subway_type": "지하철",
        "subway_name": "1호선-동묘앞역",
        "distance": 1069.157918887231,
        "walking_time": "약 16분"
      },
      {
        "subway_lat": 37.5650787698586,
        "subway_lon": 127.007550653481,
        "subway_type": "지하철",
        "subway_name": "4호선-동대문역사문화공원(DDP)역",
        "distance": 1074.9202014161156,
        "walking_time": "약 17분"
      }
    ],
    "supermarket": [
      {
        "supermarket_lat": 37.57070649,
        "supermarket_lon": 127.0073287,
        "supermarket_type": "마트",
        "supermarket_name": "동대문종합시장D동상가",
        "distance": 479.10806381083535,
        "walking_time": "약 8분"
      },
      {
        "supermarket_lat": 37.57070649,
        "supermarket_lon": 127.0073287,
        "supermarket_type": "마트",
        "supermarket_name": "동대문종합시장",
        "distance": 479.10806381083535,
        "walking_time": "약 8분"
      },
      {
        "supermarket_lat": 37.57081871,
        "supermarket_lon": 127.0080914,
        "supermarket_type": "마트",
        "supermarket_name": "동대문종합시장 신관",
        "distance": 504.8730274392972,
        "walking_time": "약 8분"
      },
      {
        "supermarket_lat": 37.56908131,
        "supermarket_lon": 127.0067599,
        "supermarket_type": "마트",
        "supermarket_name": "통일상가",
        "distance": 626.9444639561715,
        "walking_time": "약 10분"
      },
      {
        "supermarket_lat": 37.56942586,
        "supermarket_lon": 127.0080476,
        "supermarket_type": "마트",
        "supermarket_name": "평화시장",
        "distance": 634.5319915368423,
        "walking_time": "약 10분"
      },
      {
        "supermarket_lat": 37.57011963,
        "supermarket_lon": 126.999799,
        "supermarket_type": "마트",
        "supermarket_name": "광장시장",
        "distance": 649.1764564096569,
        "walking_time": "약 10분"
      },
      {
        "supermarket_lat": 37.57144769,
        "supermarket_lon": 126.99832,
        "supermarket_type": "마트",
        "supermarket_name": "효성주얼리시티",
        "distance": 655.5073447760936,
        "walking_time": "약 10분"
      },
      {
        "supermarket_lat": 37.56860486,
        "supermarket_lon": 127.006912,
        "supermarket_type": "마트",
        "supermarket_name": "동화상가",
        "distance": 681.5399634539414,
        "walking_time": "약 11분"
      },
      {
        "supermarket_lat": 37.56873455,
        "supermarket_lon": 127.0076665,
        "supermarket_type": "마트",
        "supermarket_name": "통일상가",
        "distance": 690.0849936305474,
        "walking_time": "약 11분"
      },
      {
        "supermarket_lat": 37.56873455,
        "supermarket_lon": 127.0076665,
        "supermarket_type": "마트",
        "supermarket_name": "현대아울렛 동대문점",
        "distance": 690.0849936305474,
        "walking_time": "약 11분"
      }
    ],
    "tax_office": [
      {
        "tax_office_lat": 37.58790069,
        "tax_office_lon": 127.0109264,
        "tax_office_type": "세무서",
        "tax_office_name": "성북세무서",
        "distance": 1590.1905065854571,
        "walking_time": "약 24분"
      },
      {
        "tax_office_lat": 37.56074026,
        "tax_office_lon": 126.9907276,
        "tax_office_type": "세무서",
        "tax_office_name": "중부세무서",
        "distance": 1962.1454574669988,
        "walking_time": "약 30분"
      }
    ],
    "theater": [
      {
        "theater_lat": 37.568734553218,
        "theater_lon": 127.007666479829,
        "theater_type": "영화관",
        "theater_name": "CGV 동대문",
        "distance": 690.083988978006,
        "walking_time": "약 11분"
      },
      {
        "theater_lat": 37.5668021171335,
        "theater_lon": 127.007358177138,
        "theater_type": "영화관",
        "theater_name": "(주)지원엠엠시네마 동대문지점",
        "distance": 885.0872296621823,
        "walking_time": "약 14분"
      },
      {
        "theater_lat": 37.5834579529328,
        "theater_lon": 126.999842630109,
        "theater_type": "영화관",
        "theater_name": "CGV 대학로",
        "distance": 1086.406001205983,
        "walking_time": "약 17분"
      },
      {
        "theater_lat": 37.5710275098022,
        "theater_lon": 126.991230294263,
        "theater_type": "영화관",
        "theater_name": "CGV 피카디리1958",
        "distance": 1247.5600928895365,
        "walking_time": "약 19분"
      },
      {
        "theater_lat": 37.5647056236712,
        "theater_lon": 126.993214191194,
        "theater_type": "영화관",
        "theater_name": "명보아트홀",
        "distance": 1485.1022692623335,
        "walking_time": "약 23분"
      },
      {
        "theater_lat": 37.5645459184175,
        "theater_lon": 126.992413746356,
        "theater_type": "영화관",
        "theater_name": "시네아스트극장",
        "distance": 1546.688790370279,
        "walking_time": "약 24분"
      },
      {
        "theater_lat": 37.561929293405,
        "theater_lon": 126.995026731814,
        "theater_type": "영화관",
        "theater_name": "극동극장",
        "distance": 1635.1991598583108,
        "walking_time": "약 25분"
      }
    ],
    "university": [
      {
        "university_lat": 37.5791954862382,
        "university_lon": 127.003290880975,
        "university_type": "대학교",
        "university_name": "한국방송통신대학교",
        "distance": 539.0588443310402,
        "walking_time": "약 9분"
      },
      {
        "university_lat": 37.5832358514072,
        "university_lon": 127.010390004805,
        "university_type": "대학교",
        "university_name": "한성대학교",
        "distance": 1095.339248388548,
        "walking_time": "약 17분"
      },
      {
        "university_lat": 37.5849009775207,
        "university_lon": 127.004770664086,
        "university_type": "대학교",
        "university_name": "가톨릭대학교",
        "distance": 1158.99894954432,
        "walking_time": "약 18분"
      }
    ]
  }
}