{
  "클러스터_위도": 37.55326200000001,
  "클러스터_경도": 127.135419,
  "클러스터_level": 3.0,
  "facilities": {
    "bus": [
      {
        "bus_lat": 37.55462479,
        "bus_lon": 127.1360923,
        "bus_type": "버스정류장",
        "bus_name": "강일중.선사고",
        "distance": 162.74456388350026,
        "walking_time": "약 3분"
      },
      {
        "bus_lat": 37.55486022,
        "bus_lon": 127.1370264,
        "bus_type": "버스정류장",
        "bus_name": "강일중.선사고",
        "distance": 227.2890406161122,
        "walking_time": "약 4분"
      },
      {
        "bus_lat": 37.55455872,
        "bus_lon": 127.1393191,
        "bus_type": "버스정류장",
        "bus_name": "암사3동주민센터프라이어팰리스",
        "distance": 372.8176145812005,
        "walking_time": "약 6분"
      },
      {
        "bus_lat": 37.55657,
        "bus_lon": 127.134587,
        "bus_type": "버스정류장",
        "bus_name": "신암중.선사고",
        "distance": 375.07344878613833,
        "walking_time": "약 6분"
      },
      {
        "bus_lat": 37.55487796,
        "bus_lon": 127.1391936,
        "bus_type": "버스정류장",
        "bus_name": "암사3동주민센터(강동롯데캐슬퍼스트)",
        "distance": 378.1594531692466,
        "walking_time": "약 6분"
      },
      {
        "bus_lat": 37.55461384,
        "bus_lon": 127.1313205,
        "bus_type": "버스정류장",
        "bus_name": "신암중학교",
        "distance": 391.3181055390952,
        "walking_time": "약 6분"
      },
      {
        "bus_lat": 37.55483907,
        "bus_lon": 127.1313639,
        "bus_type": "버스정류장",
        "bus_name": "신암중학교",
        "distance": 398.1658687999556,
        "walking_time": "약 6분"
      },
      {
        "bus_lat": 37.55019474,
        "bus_lon": 127.1377662,
        "bus_type": "버스정류장",
        "bus_name": "천호우성아파트",
        "distance": 398.9235458057419,
        "walking_time": "약 6분"
      },
      {
        "bus_lat": 37.5500707,
        "bus_lon": 127.1375045,
        "bus_type": "버스정류장",
        "bus_name": "약국앞",
        "distance": 399.6541768922244,
        "walking_time": "약 6분"
      },
      {
        "bus_lat": 37.550002,
        "bus_lon": 127.1376866,
        "bus_type": "버스정류장",
        "bus_name": "천호우성아파트",
        "distance": 413.9611497641942,
        "walking_time": "약 7분"
      }
    ],
    "community_center": [
      {
        "community_center_lat": 37.55237984,
        "community_center_lon": 127.1357214,
        "community_center_type": "주민센터",
        "community_center_name": "암사1동 자치회관",
        "distance": 101.64953698341036,
        "walking_time": "약 2분"
      },
      {
        "community_center_lat": 37.55499636,
        "community_center_lon": 127.1407841,
        "community_center_type": "주민센터",
        "community_center_name": "암사3동 자치회관",
        "distance": 510.75695180192935,
        "walking_time": "약 8분"
      },
      {
        "community_center_lat": 37.5517063,
        "community_center_lon": 127.1272709,
        "community_center_type": "주민센터",
        "community_center_name": "암사2동 자치회관",
        "distance": 738.8307364221322,
        "walking_time": "약 12분"
      },
      {
        "community_center_lat": 37.55126175,
        "community_center_lon": 127.1443451,
        "community_center_type": "주민센터",
        "community_center_name": "명일1동 자치회관",
        "distance": 817.711131840768,
        "walking_time": "약 13분"
      },
      {
        "community_center_lat": 37.54500381,
        "community_center_lon": 127.1368198,
        "community_center_type": "주민센터",
        "community_center_name": "천호1동 자치회관",
        "distance": 926.535549828532,
        "walking_time": "약 14분"
      },
      {
        "community_center_lat": 37.54345134,
        "community_center_lon": 127.1254311,
        "community_center_type": "주민센터",
        "community_center_name": "천호2동 자치회관",
        "distance": 1401.922566756058,
        "walking_time": "약 21분"
      }
    ],
    "convenience_store": [
      {
        "convenience_store_lat": 37.55339175,
        "convenience_store_lon": 127.1354077,
        "convenience_store_type": "편의점",
        "convenience_store_name": "세븐일레븐 암사중앙점",
        "distance": 14.46188963413286,
        "walking_time": "약 1분"
      },
      {
        "convenience_store_lat": 37.55409211,
        "convenience_store_lon": 127.1340573,
        "convenience_store_type": "편의점",
        "convenience_store_name": "CU 암사승리점",
        "distance": 151.42415236937526,
        "walking_time": "약 3분"
      },
      {
        "convenience_store_lat": 37.55173129,
        "convenience_store_lon": 127.1337573,
        "convenience_store_type": "편의점",
        "convenience_store_name": "CU 강동어울림점",
        "distance": 224.563759058132,
        "walking_time": "약 4분"
      },
      {
        "convenience_store_lat": 37.55153134,
        "convenience_store_lon": 127.1371512,
        "convenience_store_type": "편의점",
        "convenience_store_name": "CU 강동미소점",
        "distance": 245.66497247045427,
        "walking_time": "약 4분"
      },
      {
        "convenience_store_lat": 37.55563203,
        "convenience_store_lon": 127.1349792,
        "convenience_store_type": "편의점",
        "convenience_store_name": "CU 암사선사점",
        "distance": 266.37179368383306,
        "walking_time": "약 4분"
      },
      {
        "convenience_store_lat": 37.55232624,
        "convenience_store_lon": 127.1385075,
        "convenience_store_type": "편의점",
        "convenience_store_name": "GS25 암사팰리스점",
        "distance": 291.470445691786,
        "walking_time": "약 5분"
      },
      {
        "convenience_store_lat": 37.55219886,
        "convenience_store_lon": 127.1320396,
        "convenience_store_type": "편의점",
        "convenience_store_name": "GS25 강동암사점",
        "distance": 320.5074012381691,
        "walking_time": "약 5분"
      },
      {
        "convenience_store_lat": 37.55366768,
        "convenience_store_lon": 127.1314589,
        "convenience_store_type": "편의점",
        "convenience_store_name": "CU 암사소망점",
        "distance": 351.9997320045808,
        "walking_time": "약 6분"
      },
      {
        "convenience_store_lat": 37.55009823,
        "convenience_store_lon": 127.1359667,
        "convenience_store_type": "편의점",
        "convenience_store_name": "GS25 암사해리점",
        "distance": 355.09306372601327,
        "walking_time": "약 6분"
      },
      {
        "convenience_store_lat": 37.5559414,
        "convenience_store_lon": 127.1380445,
        "convenience_store_type": "편의점",
        "convenience_store_name": "GS25 암사현대점",
        "distance": 377.2690780830573,
        "walking_time": "약 6분"
      }
    ],
    "daycare": [
      {
        "daycare_lat": 37.55408657,
        "daycare_lon": 127.1351465,
        "daycare_type": "어린이집",
        "daycare_name": "미소어린이집",
        "distance": 94.78257546135234,
        "walking_time": "약 2분"
      },
      {
        "daycare_lat": 37.55386872492241,
        "daycare_lon": 127.13620349454284,
        "daycare_type": "어린이집",
        "daycare_name": "한스어린이집",
        "distance": 96.6128303996454,
        "walking_time": "약 2분"
      },
      {
        "daycare_lat": 37.55343953,
        "daycare_lon": 127.1366117,
        "daycare_type": "어린이집",
        "daycare_name": "아이숲어린이집",
        "distance": 106.97813776419817,
        "walking_time": "약 2분"
      },
      {
        "daycare_lat": 37.55215784,
        "daycare_lon": 127.135695,
        "daycare_type": "어린이집",
        "daycare_name": "구립보람나무어린이집",
        "distance": 125.16457252030116,
        "walking_time": "약 2분"
      },
      {
        "daycare_lat": 37.5541512,
        "daycare_lon": 127.1363432,
        "daycare_type": "어린이집",
        "daycare_name": "강동제일 어린이집",
        "distance": 128.11617175739914,
        "walking_time": "약 2분"
      },
      {
        "daycare_lat": 37.55330154682899,
        "daycare_lon": 127.13737037704124,
        "daycare_type": "어린이집",
        "daycare_name": "하늘어린이집",
        "distance": 172.07765299494764,
        "walking_time": "약 3분"
      },
      {
        "daycare_lat": 37.55322568932634,
        "daycare_lon": 127.13751962209318,
        "daycare_type": "어린이집",
        "daycare_name": "강동아이슐레어린이집",
        "distance": 185.2220926169693,
        "walking_time": "약 3분"
      },
      {
        "daycare_lat": 37.55493436,
        "daycare_lon": 127.134272,
        "daycare_type": "어린이집",
        "daycare_name": "성신어린이집",
        "distance": 211.6692510676003,
        "walking_time": "약 4분"
      },
      {
        "daycare_lat": 37.55223857,
        "daycare_lon": 127.1376169,
        "daycare_type": "어린이집",
        "daycare_name": "해오름 어린이집",
        "distance": 224.7029392087845,
        "walking_time": "약 4분"
      },
      {
        "daycare_lat": 37.55328721938008,
        "daycare_lon": 127.13276404838274,
        "daycare_type": "어린이집",
        "daycare_name": "지혜로운어린이집",
        "distance": 234.06110673390933,
        "walking_time": "약 4분"
      }
    ],
    "education": [
      {
        "education_lat": 37.55283302,
        "education_lon": 127.1333655,
        "education_type": "도서관",
        "education_name": "강동구립암사도서관",
        "distance": 187.20368483128075,
        "walking_time": "약 3분"
      },
      {
        "education_lat": 37.55985381,
        "education_lon": 127.1308316,
        "education_type": "박물관/기념관",
        "education_name": "암사동선사유적박물관",
        "distance": 837.123770678799,
        "walking_time": "약 13분"
      },
      {
        "education_lat": 37.55073399,
        "education_lon": 127.1248583,
        "education_type": "도서관",
        "education_name": "한국점자도서관",
        "distance": 972.4952842355348,
        "walking_time": "약 15분"
      },
      {
        "education_lat": 37.54394767,
        "education_lon": 127.1255384,
        "education_type": "도서관",
        "education_name": "강동구립해공도서관",
        "distance": 1353.309522421314,
        "walking_time": "약 21분"
      },
      {
        "education_lat": 37.54052322,
        "education_lon": 127.1340815,
        "education_type": "도서관",
        "education_name": "강동구립천호도서관",
        "distance": 1421.3872062940957,
        "walking_time": "약 22분"
      }
    ],
    "fitness": [
      {
        "fitness_lat": 37.55200429,
        "fitness_lon": 127.1347886,
        "fitness_type": "운동시설",
        "fitness_name": "고고 피트니스(암사)",
        "distance": 150.48793285498985,
        "walking_time": "약 3분"
      },
      {
        "fitness_lat": 37.5549099,
        "fitness_lon": 127.1369974,
        "fitness_type": "운동시설",
        "fitness_name": "테드짐",
        "distance": 230.0789212426724,
        "walking_time": "약 4분"
      },
      {
        "fitness_lat": 37.55496298,
        "fitness_lon": 127.1375341,
        "fitness_type": "운동시설",
        "fitness_name": "업투 암사점",
        "distance": 265.5908328870356,
        "walking_time": "약 4분"
      },
      {
        "fitness_lat": 37.55178928,
        "fitness_lon": 127.1320273,
        "fitness_type": "운동시설",
        "fitness_name": "J Class Gym",
        "distance": 340.9028400474752,
        "walking_time": "약 6분"
      },
      {
        "fitness_lat": 37.54845435,
        "fitness_lon": 127.1360514,
        "fitness_type": "운동시설",
        "fitness_name": "피트니즈 천호점",
        "distance": 537.4854410590386,
        "walking_time": "약 9분"
      },
      {
        "fitness_lat": 37.55455369,
        "fitness_lon": 127.1294512,
        "fitness_type": "운동시설",
        "fitness_name": "얼티밋 포텐셜짐",
        "distance": 545.3346509625139,
        "walking_time": "약 9분"
      },
      {
        "fitness_lat": 37.55309678,
        "fitness_lon": 127.1288704,
        "fitness_type": "운동시설",
        "fitness_name": "휘트니스J",
        "distance": 577.5775447725127,
        "walking_time": "약 9분"
      },
      {
        "fitness_lat": 37.55292798,
        "fitness_lon": 127.1288303,
        "fitness_type": "운동시설",
        "fitness_name": "크로스핏 쓰리박스",
        "distance": 582.0072342269623,
        "walking_time": "약 9분"
      },
      {
        "fitness_lat": 37.55366839,
        "fitness_lon": 127.1285288,
        "fitness_type": "운동시설",
        "fitness_name": "봄PT Studio",
        "distance": 609.0749916055423,
        "walking_time": "약 10분"
      },
      {
        "fitness_lat": 37.55045243,
        "fitness_lon": 127.1414015,
        "fitness_type": "운동시설",
        "fitness_name": "다윗헬스클럽",
        "distance": 612.9770608467413,
        "walking_time": "약 10분"
      }
    ],
    "gas_station": [
      {
        "gas_station_lat": 37.5504579,
        "gas_station_lon": 127.1382269,
        "gas_station_type": "주유소",
        "gas_station_name": "구천면주유소",
        "distance": 398.1110240216319,
        "walking_time": "약 6분"
      },
      {
        "gas_station_lat": 37.55506025,
        "gas_station_lon": 127.1298437,
        "gas_station_type": "주유소",
        "gas_station_name": "㈜삼표에너지 고덕주유소",
        "distance": 530.597448997807,
        "walking_time": "약 8분"
      },
      {
        "gas_station_lat": 37.55447863,
        "gas_station_lon": 127.1440113,
        "gas_station_type": "주유소",
        "gas_station_name": "현대오일뱅크㈜직영 명일셀프주유소",
        "distance": 769.424941051959,
        "walking_time": "약 12분"
      },
      {
        "gas_station_lat": 37.54517786,
        "gas_station_lon": 127.1294966,
        "gas_station_type": "주유소",
        "gas_station_name": "천호 현대주유소",
        "distance": 1039.542542567001,
        "walking_time": "약 16분"
      },
      {
        "gas_station_lat": 37.5415768,
        "gas_station_lon": 127.124242,
        "gas_station_type": "주유소",
        "gas_station_name": "광성주유소",
        "distance": 1630.7152047301888,
        "walking_time": "약 25분"
      }
    ],
    "hospital": [
      {
        "hospital_lat": 37.55202366,
        "hospital_lon": 127.1350273,
        "hospital_type": "병원",
        "hospital_name": "밝은미소치과의원",
        "distance": 141.96066723963003,
        "walking_time": "약 3분"
      },
      {
        "hospital_lat": 37.55455229,
        "hospital_lon": 127.1348906,
        "hospital_type": "병원",
        "hospital_name": "연세정형외과의원",
        "distance": 150.84565165812296,
        "walking_time": "약 3분"
      },
      {
        "hospital_lat": 37.55494229,
        "hospital_lon": 127.1367288,
        "hospital_type": "병원",
        "hospital_name": "허원상한의원",
        "distance": 219.63768513309776,
        "walking_time": "약 4분"
      },
      {
        "hospital_lat": 37.55190996,
        "hospital_lon": 127.1335997,
        "hospital_type": "병원",
        "hospital_name": "경희아침한의원",
        "distance": 219.8267693516816,
        "walking_time": "약 4분"
      },
      {
        "hospital_lat": 37.5549099,
        "hospital_lon": 127.1369974,
        "hospital_type": "병원",
        "hospital_name": "강동미치과의원",
        "distance": 230.0789212426724,
        "walking_time": "약 4분"
      },
      {
        "hospital_lat": 37.55500717,
        "hospital_lon": 127.1371813,
        "hospital_type": "병원",
        "hospital_name": "경희해성한의원",
        "distance": 248.5782721145349,
        "walking_time": "약 4분"
      },
      {
        "hospital_lat": 37.55496298,
        "hospital_lon": 127.1375341,
        "hospital_type": "병원",
        "hospital_name": "강동예사랑치과의원",
        "distance": 265.5908328870356,
        "walking_time": "약 4분"
      },
      {
        "hospital_lat": 37.55496298,
        "hospital_lon": 127.1375341,
        "hospital_type": "병원",
        "hospital_name": "이소아과의원",
        "distance": 265.5908328870356,
        "walking_time": "약 4분"
      },
      {
        "hospital_lat": 37.55496298,
        "hospital_lon": 127.1375341,
        "hospital_type": "병원",
        "hospital_name": "김오경내과의원",
        "distance": 265.5908328870356,
        "walking_time": "약 4분"
      },
      {
        "hospital_lat": 37.55181476,
        "hospital_lon": 127.1308319,
        "hospital_type": "병원",
        "hospital_name": "일월한의원",
        "distance": 435.2194718287224,
        "walking_time": "약 7분"
      }
    ],
    "music_room": [
      {
        "music_room_lat": 37.55412605,
        "music_room_lon": 127.135578,
        "music_room_type": "노래방",
        "music_room_name": "즐거운노래방",
        "distance": 97.09498808668052,
        "walking_time": "약 2분"
      },
      {
        "music_room_lat": 37.55435947,
        "music_room_lon": 127.1359942,
        "music_room_type": "노래방",
        "music_room_name": "SBS노래연습장",
        "distance": 132.14821147136263,
        "walking_time": "약 2분"
      },
      {
        "music_room_lat": 37.55454004,
        "music_room_lon": 127.1362977,
        "music_room_type": "노래방",
        "music_room_name": "써니노래연습장",
        "distance": 161.85108775272352,
        "walking_time": "약 3분"
      },
      {
        "music_room_lat": 37.55173129,
        "music_room_lon": 127.1337573,
        "music_room_type": "노래방",
        "music_room_name": "엣지노래연습장",
        "distance": 224.563759058132,
        "walking_time": "약 4분"
      },
      {
        "music_room_lat": 37.55109939,
        "music_room_lon": 127.1351349,
        "music_room_type": "노래방",
        "music_room_name": "방울노래연습장",
        "distance": 241.77194504124884,
        "walking_time": "약 4분"
      },
      {
        "music_room_lat": 37.55187386,
        "music_room_lon": 127.1324494,
        "music_room_type": "노래방",
        "music_room_name": "신바람노래연습장",
        "distance": 303.9016270538565,
        "walking_time": "약 5분"
      },
      {
        "music_room_lat": 37.55018245,
        "music_room_lon": 127.1374709,
        "music_room_type": "노래방",
        "music_room_name": "엔젤노래연습장",
        "distance": 387.270634639599,
        "walking_time": "약 6분"
      },
      {
        "music_room_lat": 37.55024554,
        "music_room_lon": 127.1383781,
        "music_room_type": "노래방",
        "music_room_name": "풀잎노래연습장",
        "distance": 424.914077366196,
        "walking_time": "약 7분"
      },
      {
        "music_room_lat": 37.54948609,
        "music_room_lon": 127.1366734,
        "music_room_type": "노래방",
        "music_room_name": "유성노래연습장",
        "distance": 434.1805399865697,
        "walking_time": "약 7분"
      },
      {
        "music_room_lat": 37.55380588,
        "music_room_lon": 127.1301731,
        "music_room_type": "노래방",
        "music_room_name": "팡팡노래연습장",
        "distance": 466.38255744223375,
        "walking_time": "약 7분"
      }
    ],
    "park": [
      {
        "park_lat": 37.5504807,
        "park_lon": 127.1471618,
        "park_type": "공원",
        "park_name": "샛마을근린공원",
        "distance": 1080.4028008351731,
        "walking_time": "약 17분"
      },
      {
        "park_lat": 37.5444741,
        "park_lon": 127.1263451,
        "park_type": "공원",
        "park_name": "천호근린공원",
        "distance": 1262.8443991692404,
        "walking_time": "약 19분"
      }
    ],
    "park_station": [
      {
        "park_station_lat": 37.55237587,
        "park_station_lon": 127.1350983,
        "park_station_type": "주차장",
        "park_station_name": "볕우물 공영주차장",
        "distance": 102.50873221715354,
        "walking_time": "약 2분"
      },
      {
        "park_station_lat": 37.55289,
        "park_station_lon": 127.1377215,
        "park_station_type": "주차장",
        "park_station_name": "암사1동 주차장",
        "distance": 207.146855845706,
        "walking_time": "약 4분"
      },
      {
        "park_station_lat": 37.55088357,
        "park_station_lon": 127.1428872,
        "park_station_type": "주차장",
        "park_station_name": "명일동 주차장",
        "distance": 709.495509366791,
        "walking_time": "약 11분"
      },
      {
        "park_station_lat": 37.54459923,
        "park_station_lon": 127.1366199,
        "park_station_type": "주차장",
        "park_station_name": "천호1동 주차장",
        "distance": 969.0566336306076,
        "walking_time": "약 15분"
      },
      {
        "park_station_lat": 37.56127024,
        "park_station_lon": 127.1308624,
        "park_station_type": "주차장",
        "park_station_name": "서울암사동유적 주차장",
        "distance": 976.8715623043072,
        "walking_time": "약 15분"
      },
      {
        "park_station_lat": 37.55503725,
        "park_station_lon": 127.1233953,
        "park_station_type": "주차장",
        "park_station_name": "광나루1,2주차장",
        "distance": 1078.1484206674436,
        "walking_time": "약 17분"
      },
      {
        "park_station_lat": 37.54307844,
        "park_station_lon": 127.1321772,
        "park_station_type": "주차장",
        "park_station_name": "고분다리 전통시장 공영주차장",
        "distance": 1167.8696311765573,
        "walking_time": "약 18분"
      },
      {
        "park_station_lat": 37.54071205,
        "park_station_lon": 127.1341864,
        "park_station_type": "주차장",
        "park_station_name": "천호3동 제2공영주차장",
        "distance": 1399.715380334202,
        "walking_time": "약 21분"
      },
      {
        "park_station_lat": 37.54478899,
        "park_station_lon": 127.1218776,
        "park_station_type": "주차장",
        "park_station_name": "천호유수지 주차장",
        "distance": 1520.790642640328,
        "walking_time": "약 23분"
      },
      {
        "park_station_lat": 37.54033859,
        "park_station_lon": 127.1230043,
        "park_station_type": "주차장",
        "park_station_name": "천호2동노외주차장",
        "distance": 1806.363200464889,
        "walking_time": "약 27분"
      }
    ],
    "pc_room": [
      {
        "pc_room_lat": 37.554532736215,
        "pc_room_lon": 127.135832933352,
        "pc_room_type": "PC방",
        "pc_room_name": "제로백PC방 암사점",
        "distance": 145.93495779675862,
        "walking_time": "약 3분"
      },
      {
        "pc_room_lat": 37.5519705401703,
        "pc_room_lon": 127.133886998971,
        "pc_room_type": "PC방",
        "pc_room_name": "고스트 캐슬 PC방 암사점",
        "distance": 197.1328727944788,
        "walking_time": "약 3분"
      },
      {
        "pc_room_lat": 37.5519203952787,
        "pc_room_lon": 127.136993482485,
        "pc_room_type": "PC방",
        "pc_room_name": "아이라면 PC방",
        "distance": 203.76323609643828,
        "walking_time": "약 4분"
      },
      {
        "pc_room_lat": 37.5517312920762,
        "pc_room_lon": 127.133757333524,
        "pc_room_type": "PC방",
        "pc_room_name": "하루애 PC방",
        "distance": 224.5616562892096,
        "walking_time": "약 4분"
      },
      {
        "pc_room_lat": 37.5515710167382,
        "pc_room_lon": 127.133428069413,
        "pc_room_type": "PC방",
        "pc_room_name": "놀 PC방",
        "distance": 257.21329146229954,
        "walking_time": "약 4분"
      },
      {
        "pc_room_lat": 37.550362119404,
        "pc_room_lon": 127.137845483212,
        "pc_room_type": "PC방",
        "pc_room_name": "꾸러기 PC",
        "distance": 386.9521747599015,
        "walking_time": "약 6분"
      },
      {
        "pc_room_lat": 37.5505680236251,
        "pc_room_lon": 127.138746210279,
        "pc_room_type": "PC방",
        "pc_room_name": "N-TOP PC방",
        "distance": 419.244504558029,
        "walking_time": "약 7분"
      },
      {
        "pc_room_lat": 37.5484151003879,
        "pc_room_lon": 127.135241872797,
        "pc_room_type": "PC방",
        "pc_room_name": "피에스타PC방(강동암사직영점)",
        "distance": 539.1768047190111,
        "walking_time": "약 9분"
      },
      {
        "pc_room_lat": 37.5504972087947,
        "pc_room_lon": 127.129871391192,
        "pc_room_type": "PC방",
        "pc_room_name": "카시오페아 PC방",
        "distance": 577.6555697105273,
        "walking_time": "약 9분"
      },
      {
        "pc_room_lat": 37.5512721984493,
        "pc_room_lon": 127.129341077489,
        "pc_room_type": "PC방",
        "pc_room_name": "디저트 피앤씨",
        "distance": 579.6856994186693,
        "walking_time": "약 9분"
      }
    ],
    "police_office": [
      {
        "police_office_lat": 37.55499636,
        "police_office_lon": 127.1407841,
        "police_office_type": "경찰소",
        "police_office_name": "암사지구대",
        "distance": 510.75695180192935,
        "walking_time": "약 8분"
      },
      {
        "police_office_lat": 37.54257321,
        "police_office_lon": 127.1207773,
        "police_office_type": "경찰소",
        "police_office_name": "천호지구대",
        "distance": 1754.659583715751,
        "walking_time": "약 27분"
      }
    ],
    "post_office": [
      {
        "post_office_lat": 37.55578284,
        "post_office_lon": 127.1375673,
        "post_office_type": "우체국",
        "post_office_name": "서울암사3동우편취급국",
        "distance": 338.2818950453002,
        "walking_time": "약 6분"
      },
      {
        "post_office_lat": 37.54537547,
        "post_office_lon": 127.1452012,
        "post_office_type": "우체국",
        "post_office_name": "서울명일삼익우편취급국",
        "distance": 1229.9328906585856,
        "walking_time": "약 19분"
      },
      {
        "post_office_lat": 37.5401163,
        "post_office_lon": 127.136473,
        "post_office_type": "우체국",
        "post_office_name": "서울천호3동우편취급국",
        "distance": 1464.685704944033,
        "walking_time": "약 22분"
      },
      {
        "post_office_lat": 37.54072766,
        "post_office_lon": 127.1254701,
        "post_office_type": "우체국",
        "post_office_name": "서울천호동우체국",
        "distance": 1646.7761468433469,
        "walking_time": "약 25분"
      }
    ],
    "public_health_center": [
      {
        "public_health_center_lat": 37.54684651,
        "public_health_center_lon": 127.1337755,
        "public_health_center_type": "보건소",
        "public_health_center_name": "천호보건지소",
        "distance": 727.9347255374049,
        "walking_time": "약 11분"
      }
    ],
    "school": [
      {
        "school_lat": 37.5553453453104,
        "school_lon": 127.138008577115,
        "school_type": "중학교",
        "school_name": "강일중학교",
        "distance": 325.23233683193314,
        "walking_time": "약 5분"
      },
      {
        "school_lat": 37.5563158751807,
        "school_lon": 127.13577562154,
        "school_type": "고등학교",
        "school_name": "선사고등학교",
        "distance": 341.02749359964764,
        "walking_time": "약 6분"
      },
      {
        "school_lat": 37.5563616900258,
        "school_lon": 127.133604335628,
        "school_type": "중학교",
        "school_name": "신암중학교",
        "distance": 379.98227588771454,
        "walking_time": "약 6분"
      },
      {
        "school_lat": 37.5477189664877,
        "school_lon": 127.136592330295,
        "school_type": "초등학교",
        "school_name": "서울천호초등학교",
        "distance": 624.9764143305857,
        "walking_time": "약 10분"
      },
      {
        "school_lat": 37.554553599981,
        "school_lon": 127.142591145632,
        "school_type": "초등학교",
        "school_name": "서울명일초등학교",
        "distance": 648.3540552123211,
        "walking_time": "약 10분"
      },
      {
        "school_lat": 37.5498545397762,
        "school_lon": 127.141541303447,
        "school_type": "고등학교",
        "school_name": "성덕고등학교",
        "distance": 659.4346899584889,
        "walking_time": "약 10분"
      },
      {
        "school_lat": 37.5498545397762,
        "school_lon": 127.141541303447,
        "school_type": "중학교",
        "school_name": "성덕여자중학교",
        "distance": 659.4346899584889,
        "walking_time": "약 10분"
      },
      {
        "school_lat": 37.5558469097869,
        "school_lon": 127.12819596827,
        "school_type": "초등학교",
        "school_name": "서울선사초등학교",
        "distance": 698.596536467794,
        "walking_time": "약 11분"
      },
      {
        "school_lat": 37.5465192580007,
        "school_lon": 127.139697961268,
        "school_type": "중학교",
        "school_name": "천호중학교",
        "distance": 839.3069802911469,
        "walking_time": "약 13분"
      },
      {
        "school_lat": 37.5463638024947,
        "school_lon": 127.130187177341,
        "school_type": "초등학교",
        "school_name": "서울강동초등학교",
        "distance": 895.0349971431502,
        "walking_time": "약 14분"
      }
    ],
    "subway": [
      {
        "subway_lat": 37.5572689182034,
        "subway_lon": 127.137592807465,
        "subway_type": "지하철",
        "subway_name": "8호선-암사역사공원역",
        "distance": 485.009096328454,
        "walking_time": "약 8분"
      },
      {
        "subway_lat": 37.5501403417224,
        "subway_lon": 127.127540246626,
        "subway_type": "지하철",
        "subway_name": "8호선-암사역",
        "distance": 776.464500220411,
        "walking_time": "약 12분"
      },
      {
        "subway_lat": 37.551257212513,
        "subway_lon": 127.144000696892,
        "subway_type": "지하철",
        "subway_name": "5호선-명일역",
        "distance": 788.6806660018461,
        "walking_time": "약 12분"
      },
      {
        "subway_lat": 37.5457314720664,
        "subway_lon": 127.142970847846,
        "subway_type": "지하철",
        "subway_name": "5호선-굽은다리(강동구민회관앞)역",
        "distance": 1069.7664607864767,
        "walking_time": "약 16분"
      }
    ],
    "supermarket": [
      {
        "supermarket_lat": 37.55238065,
        "supermarket_lon": 127.1350988,
        "supermarket_type": "마트",
        "supermarket_name": "홈플러스(주) 익스프레스 암사점",
        "distance": 101.98573080292728,
        "walking_time": "약 2분"
      },
      {
        "supermarket_lat": 37.55525285,
        "supermarket_lon": 127.1403472,
        "supermarket_type": "마트",
        "supermarket_name": "(주)지에스리테일 암사캐슬점",
        "distance": 487.584736601806,
        "walking_time": "약 8분"
      },
      {
        "supermarket_lat": 37.55109534,
        "supermarket_lon": 127.144778,
        "supermarket_type": "마트",
        "supermarket_name": "(주)지에스리테일 명일점",
        "distance": 859.5006852198908,
        "walking_time": "약 13분"
      },
      {
        "supermarket_lat": 37.54571459,
        "supermarket_lon": 127.1422553,
        "supermarket_type": "마트",
        "supermarket_name": "홈플러스 강동점",
        "distance": 1033.214797992871,
        "walking_time": "약 16분"
      },
      {
        "supermarket_lat": 37.5520143,
        "supermarket_lon": 127.1494576,
        "supermarket_type": "마트",
        "supermarket_name": "(주)이마트에브리데이 명일동점",
        "distance": 1245.320085381109,
        "walking_time": "약 19분"
      },
      {
        "supermarket_lat": 37.54260895,
        "supermarket_lon": 127.1436538,
        "supermarket_type": "마트",
        "supermarket_name": "동서울오네뜨상가",
        "distance": 1389.3321576645956,
        "walking_time": "약 21분"
      },
      {
        "supermarket_lat": 37.54159201,
        "supermarket_lon": 127.1255364,
        "supermarket_type": "마트",
        "supermarket_name": "이천일아울렛 천호점",
        "distance": 1563.0001790568158,
        "walking_time": "약 24분"
      }
    ],
    "theater": [
      {
        "theater_lat": 37.5457145865749,
        "theater_lon": 127.14225531407,
        "theater_type": "영화관",
        "theater_name": "CGV 천호",
        "distance": 1033.215830872739,
        "walking_time": "약 16분"
      }
    ]
  }
}