{
  "클러스터_위도": 37.474415,
  "클러스터_경도": 127.04177,
  "클러스터_level": 3.0,
  "facilities": {
    "bus": [
      {
        "bus_lat": 37.47359429,
        "bus_lon": 127.0433501,
        "bus_type": "버스정류장",
        "bus_name": "언남고",
        "distance": 166.64835910092242,
        "walking_time": "약 3분"
      },
      {
        "bus_lat": 37.47240909,
        "bus_lon": 127.0415088,
        "bus_type": "버스정류장",
        "bus_name": "양재근린공원",
        "distance": 224.23490848242847,
        "walking_time": "약 4분"
      },
      {
        "bus_lat": 37.47327954,
        "bus_lon": 127.0389281,
        "bus_type": "버스정류장",
        "bus_name": "언남고교",
        "distance": 280.77963335033223,
        "walking_time": "약 5분"
      },
      {
        "bus_lat": 37.4730822,
        "bus_lon": 127.0389144,
        "bus_type": "버스정류장",
        "bus_name": "매헌시민의숲",
        "distance": 292.3486458634549,
        "walking_time": "약 5분"
      },
      {
        "bus_lat": 37.47296686,
        "bus_lon": 127.038544,
        "bus_type": "버스정류장",
        "bus_name": "매헌시민의숲",
        "distance": 327.0726047431709,
        "walking_time": "약 5분"
      },
      {
        "bus_lat": 37.473135,
        "bus_lon": 127.038353,
        "bus_type": "버스정류장",
        "bus_name": "매헌시민의숲",
        "distance": 333.44533435908386,
        "walking_time": "약 5분"
      },
      {
        "bus_lat": 37.47659509,
        "bus_lon": 127.0454402,
        "bus_type": "버스정류장",
        "bus_name": "동원산업",
        "distance": 404.5529432556724,
        "walking_time": "약 7분"
      },
      {
        "bus_lat": 37.47664737,
        "bus_lon": 127.0453961,
        "bus_type": "버스정류장",
        "bus_name": "동원산업앞",
        "distance": 404.98092833647655,
        "walking_time": "약 7분"
      },
      {
        "bus_lat": 37.471255,
        "bus_lon": 127.039043,
        "bus_type": "버스정류장",
        "bus_name": "매헌시민의숲.양재꽃시장",
        "distance": 425.8871279257218,
        "walking_time": "약 7분"
      },
      {
        "bus_lat": 37.47198673,
        "bus_lon": 127.0456986,
        "bus_type": "버스정류장",
        "bus_name": "언남중고교",
        "distance": 439.43398823563706,
        "walking_time": "약 7분"
      }
    ],
    "community_center": [
      {
        "community_center_lat": 37.47064502,
        "community_center_lon": 127.0412829,
        "community_center_type": "주민센터",
        "community_center_name": "양재2동 자치회관",
        "distance": 421.4008520843274,
        "walking_time": "약 7분"
      },
      {
        "community_center_lat": 37.47881995,
        "community_center_lon": 127.0516585,
        "community_center_type": "주민센터",
        "community_center_name": "개포4동 주민자치센터",
        "distance": 1000.6760036967328,
        "walking_time": "약 15분"
      },
      {
        "community_center_lat": 37.48372308,
        "community_center_lon": 127.046407,
        "community_center_type": "주민센터",
        "community_center_name": "도곡2동 주민자치센터",
        "distance": 1112.9571134517385,
        "walking_time": "약 17분"
      },
      {
        "community_center_lat": 37.48328034,
        "community_center_lon": 127.0543931,
        "community_center_type": "주민센터",
        "community_center_name": "개포1동 주민자치센터",
        "distance": 1487.4492256171643,
        "walking_time": "약 23분"
      },
      {
        "community_center_lat": 37.4883103,
        "community_center_lon": 127.0388804,
        "community_center_type": "주민센터",
        "community_center_name": "도곡1동 주민자치센터",
        "distance": 1565.9839408729013,
        "walking_time": "약 24분"
      }
    ],
    "convenience_store": [
      {
        "convenience_store_lat": 37.47382566,
        "convenience_store_lon": 127.0425985,
        "convenience_store_type": "편의점",
        "convenience_store_name": "CU 양재알뜰점",
        "distance": 98.183009881646,
        "walking_time": "약 2분"
      },
      {
        "convenience_store_lat": 37.47333279,
        "convenience_store_lon": 127.0411264,
        "convenience_store_type": "편의점",
        "convenience_store_name": "GS25 양재언남점",
        "distance": 133.0662547189967,
        "walking_time": "약 2분"
      },
      {
        "convenience_store_lat": 37.47385359,
        "convenience_store_lon": 127.0402889,
        "convenience_store_type": "편의점",
        "convenience_store_name": "세븐일레븐 양재7호점",
        "distance": 144.84590948015617,
        "walking_time": "약 3분"
      },
      {
        "convenience_store_lat": 37.47555081,
        "convenience_store_lon": 127.0426359,
        "convenience_store_type": "편의점",
        "convenience_store_name": "GS25 양재힐점",
        "distance": 147.6131385653537,
        "walking_time": "약 3분"
      },
      {
        "convenience_store_lat": 37.47565944,
        "convenience_store_lon": 127.0427286,
        "convenience_store_type": "편의점",
        "convenience_store_name": "GS25 양재힐점",
        "distance": 162.18422461872015,
        "walking_time": "약 3분"
      },
      {
        "convenience_store_lat": 37.47279955,
        "convenience_store_lon": 127.04171,
        "convenience_store_type": "편의점",
        "convenience_store_name": "세븐일레븐 양재근린공원점",
        "distance": 179.70786494540164,
        "walking_time": "약 3분"
      },
      {
        "convenience_store_lat": 37.47310137,
        "convenience_store_lon": 127.0394074,
        "convenience_store_type": "편의점",
        "convenience_store_name": "세븐일레븐 양재한영점",
        "distance": 254.5703494216445,
        "walking_time": "약 4분"
      },
      {
        "convenience_store_lat": 37.47638767,
        "convenience_store_lon": 127.0433817,
        "convenience_store_type": "편의점",
        "convenience_store_name": "CU 양재2동점",
        "distance": 261.4250106818057,
        "walking_time": "약 4분"
      },
      {
        "convenience_store_lat": 37.47633856,
        "convenience_store_lon": 127.0438692,
        "convenience_store_type": "편의점",
        "convenience_store_name": "미니스톱 양재점",
        "distance": 282.9576338211787,
        "walking_time": "약 5분"
      },
      {
        "convenience_store_lat": 37.47205431,
        "convenience_store_lon": 127.0404564,
        "convenience_store_type": "편의점",
        "convenience_store_name": "CU 양재공원점",
        "distance": 286.9542351042993,
        "walking_time": "약 5분"
      }
    ],
    "daycare": [
      {
        "daycare_lat": 37.47487447,
        "daycare_lon": 127.0425478,
        "daycare_type": "어린이집",
        "daycare_name": "하늘어린이집",
        "distance": 85.56570008314434,
        "walking_time": "약 2분"
      },
      {
        "daycare_lat": 37.47329254,
        "daycare_lon": 127.0423656,
        "daycare_type": "어린이집",
        "daycare_name": "근하어린이집",
        "distance": 135.42743814899552,
        "walking_time": "약 3분"
      },
      {
        "daycare_lat": 37.47469614,
        "daycare_lon": 127.0441688,
        "daycare_type": "어린이집",
        "daycare_name": "은혜어린이집",
        "distance": 213.9825555040476,
        "walking_time": "약 4분"
      },
      {
        "daycare_lat": 37.47330288,
        "daycare_lon": 127.0396431,
        "daycare_type": "어린이집",
        "daycare_name": "서초한별어린이집",
        "distance": 224.76965634810443,
        "walking_time": "약 4분"
      },
      {
        "daycare_lat": 37.47233010757976,
        "daycare_lon": 127.0430079,
        "daycare_type": "어린이집",
        "daycare_name": "언남해피어린이집",
        "distance": 256.2788360691377,
        "walking_time": "약 4분"
      },
      {
        "daycare_lat": 37.47395182,
        "daycare_lon": 127.0447789,
        "daycare_type": "어린이집",
        "daycare_name": "비테에어린이집",
        "distance": 270.47629626383326,
        "walking_time": "약 5분"
      },
      {
        "daycare_lat": 37.47208513,
        "daycare_lon": 127.0454843,
        "daycare_type": "어린이집",
        "daycare_name": "육영어린이집",
        "distance": 417.80099709120094,
        "walking_time": "약 7분"
      },
      {
        "daycare_lat": 37.47348208,
        "daycare_lon": 127.0464951,
        "daycare_type": "어린이집",
        "daycare_name": "서초구립 양재목련어린이집",
        "distance": 429.6889066631514,
        "walking_time": "약 7분"
      },
      {
        "daycare_lat": 37.47011923,
        "daycare_lon": 127.0436507,
        "daycare_type": "어린이집",
        "daycare_name": "열린비테에어린이집",
        "distance": 505.6806790109884,
        "walking_time": "약 8분"
      },
      {
        "daycare_lat": 37.47167998,
        "daycare_lon": 127.0468642,
        "daycare_type": "어린이집",
        "daycare_name": "양재키움어린이집",
        "distance": 542.7616921339478,
        "walking_time": "약 9분"
      }
    ],
    "education": [
      {
        "education_lat": 37.46958870025365,
        "education_lon": 127.03656401367662,
        "education_type": "박물관/기념관",
        "education_name": "매헌윤봉길의사기념관",
        "distance": 706.4545598621057,
        "walking_time": "약 11분"
      },
      {
        "education_lat": 37.47370134,
        "education_lon": 127.033606,
        "education_type": "도서관",
        "education_name": "서초구립양재도서관",
        "distance": 724.809823031597,
        "walking_time": "약 11분"
      },
      {
        "education_lat": 37.48048538,
        "education_lon": 127.0384175,
        "education_type": "공연장",
        "education_name": "영산양재홀",
        "distance": 736.9789732674801,
        "walking_time": "약 11분"
      },
      {
        "education_lat": 37.48182784,
        "education_lon": 127.0359572,
        "education_type": "문화예술회관",
        "education_name": "서초문화예술회관",
        "distance": 970.837755217456,
        "walking_time": "약 15분"
      },
      {
        "education_lat": 37.48182784,
        "education_lon": 127.0359572,
        "education_type": "문화원",
        "education_name": "서초문화원",
        "distance": 970.837755217456,
        "walking_time": "약 15분"
      },
      {
        "education_lat": 37.48372308,
        "education_lon": 127.046407,
        "education_type": "공연장",
        "education_name": "오유아트홀",
        "distance": 1112.9571134517385,
        "walking_time": "약 17분"
      },
      {
        "education_lat": 37.4883103,
        "education_lon": 127.0388804,
        "education_type": "도서관",
        "education_name": "강남구립도곡정보문화도서관",
        "distance": 1565.9839408729013,
        "walking_time": "약 24분"
      }
    ],
    "electric_gas_station": [
      {
        "electric_gas_station_lat": 37.46246735,
        "electric_gas_station_lon": 127.0369479,
        "electric_gas_station_type": "전기차 충전소",
        "electric_gas_station_name": "이마트 양재점",
        "distance": 1395.0162398004024,
        "walking_time": "약 21분"
      }
    ],
    "fitness": [
      {
        "fitness_lat": 37.47233002,
        "fitness_lon": 127.0430052,
        "fitness_type": "운동시설",
        "fitness_name": "언남문화체육센터",
        "distance": 256.18617340484496,
        "walking_time": "약 4분"
      },
      {
        "fitness_lat": 37.47476949,
        "fitness_lon": 127.0454595,
        "fitness_type": "운동시설",
        "fitness_name": "펄스그라운드",
        "distance": 327.964225549092,
        "walking_time": "약 5분"
      },
      {
        "fitness_lat": 37.47690394,
        "fitness_lon": 127.0438929,
        "fitness_type": "운동시설",
        "fitness_name": "(주)더 파스칼",
        "distance": 334.2001228463263,
        "walking_time": "약 5분"
      },
      {
        "fitness_lat": 37.47691766,
        "fitness_lon": 127.0447866,
        "fitness_type": "운동시설",
        "fitness_name": "더베스트짐",
        "distance": 385.1036552429967,
        "walking_time": "약 6분"
      },
      {
        "fitness_lat": 37.47218379,
        "fitness_lon": 127.0454116,
        "fitness_type": "운동시설",
        "fitness_name": "헐크짐",
        "distance": 405.9913012606981,
        "walking_time": "약 7분"
      },
      {
        "fitness_lat": 37.47155295,
        "fitness_lon": 127.0450431,
        "fitness_type": "운동시설",
        "fitness_name": "퍼스트짐",
        "distance": 429.7822539761134,
        "walking_time": "약 7분"
      },
      {
        "fitness_lat": 37.47788797,
        "fitness_lon": 127.0391803,
        "fitness_type": "운동시설",
        "fitness_name": "(주)올리바컴퍼니",
        "distance": 448.7287855149957,
        "walking_time": "약 7분"
      },
      {
        "fitness_lat": 37.47068257,
        "fitness_lon": 127.0397658,
        "fitness_type": "운동시설",
        "fitness_name": "오프더팻(OFF THE FAT)",
        "distance": 451.1433977274529,
        "walking_time": "약 7분"
      },
      {
        "fitness_lat": 37.47725401,
        "fitness_lon": 127.0454807,
        "fitness_type": "운동시설",
        "fitness_name": "알통맨 휘트니스크럽(119)",
        "distance": 454.841780706999,
        "walking_time": "약 7분"
      },
      {
        "fitness_lat": 37.47796407,
        "fitness_lon": 127.045069,
        "fitness_type": "운동시설",
        "fitness_name": "크로스핏 타키온",
        "distance": 490.3983990814923,
        "walking_time": "약 8분"
      }
    ],
    "gas_station": [
      {
        "gas_station_lat": 37.47355042,
        "gas_station_lon": 127.0396952,
        "gas_station_type": "주유소",
        "gas_station_name": "현대오일뱅크(주)직영양재현대주유소",
        "distance": 206.8006068796192,
        "walking_time": "약 4분"
      },
      {
        "gas_station_lat": 37.47808614,
        "gas_station_lon": 127.0395973,
        "gas_station_type": "주유소",
        "gas_station_name": "서울석유(주)양재주유소",
        "distance": 450.9960573070791,
        "walking_time": "약 7분"
      },
      {
        "gas_station_lat": 37.4815597,
        "gas_station_lon": 127.0422315,
        "gas_station_type": "주유소",
        "gas_station_name": "중앙주유소",
        "distance": 795.4974748667539,
        "walking_time": "약 12분"
      },
      {
        "gas_station_lat": 37.4723696,
        "gas_station_lon": 127.0517062,
        "gas_station_type": "주유소",
        "gas_station_name": "에스제이에너지산업(주)개포주유소",
        "distance": 905.8690379563224,
        "walking_time": "약 14분"
      },
      {
        "gas_station_lat": 37.48335989,
        "gas_station_lon": 127.0427929,
        "gas_station_type": "주유소",
        "gas_station_name": "현대오일뱅크㈜ 직영 유진주유소",
        "distance": 998.7136610360432,
        "walking_time": "약 15분"
      },
      {
        "gas_station_lat": 37.46719158,
        "gas_station_lon": 127.0347155,
        "gas_station_type": "주유소",
        "gas_station_name": "태건석유(주)양재최고주유소",
        "distance": 1016.2356393781564,
        "walking_time": "약 16분"
      },
      {
        "gas_station_lat": 37.4852151,
        "gas_station_lon": 127.0406579,
        "gas_station_type": "주유소",
        "gas_station_name": "말죽거리주유소",
        "distance": 1204.9190889387974,
        "walking_time": "약 18분"
      },
      {
        "gas_station_lat": 37.48541508,
        "gas_station_lon": 127.0433194,
        "gas_station_type": "주유소",
        "gas_station_name": "현대오일뱅크㈜직영 도곡셀프주유소",
        "distance": 1230.7704207054855,
        "walking_time": "약 19분"
      },
      {
        "gas_station_lat": 37.4858569,
        "gas_station_lon": 127.039564,
        "gas_station_type": "주유소",
        "gas_station_name": "오일프러스 셀프주유소",
        "distance": 1287.0863733869198,
        "walking_time": "약 20분"
      },
      {
        "gas_station_lat": 37.46283481,
        "gas_station_lon": 127.0371476,
        "gas_station_type": "주유소",
        "gas_station_name": "대신석유(주) 대우주유소",
        "distance": 1350.7343027290483,
        "walking_time": "약 21분"
      }
    ],
    "hospital": [
      {
        "hospital_lat": 37.47356692,
        "hospital_lon": 127.0391437,
        "hospital_type": "병원",
        "hospital_name": "한유외과의원",
        "distance": 250.215405143224,
        "walking_time": "약 4분"
      },
      {
        "hospital_lat": 37.4722164,
        "hospital_lon": 127.0407235,
        "hospital_type": "병원",
        "hospital_name": "서울성모비앤피(BNP)의원",
        "distance": 261.3350496583448,
        "walking_time": "약 4분"
      },
      {
        "hospital_lat": 37.47638778,
        "hospital_lon": 127.0400018,
        "hospital_type": "병원",
        "hospital_name": "10월10일한의원",
        "distance": 269.19797718145,
        "walking_time": "약 5분"
      },
      {
        "hospital_lat": 37.47631627,
        "hospital_lon": 127.0446963,
        "hospital_type": "병원",
        "hospital_name": "메트로치과의원",
        "distance": 333.73602792465346,
        "walking_time": "약 5분"
      },
      {
        "hospital_lat": 37.47640362,
        "hospital_lon": 127.0448344,
        "hospital_type": "병원",
        "hospital_name": "스마일치과의원",
        "distance": 349.3185031387439,
        "walking_time": "약 6분"
      },
      {
        "hospital_lat": 37.47666566,
        "hospital_lon": 127.0452238,
        "hospital_type": "병원",
        "hospital_name": "김동욱치과의원",
        "distance": 394.3651219322656,
        "walking_time": "약 6분"
      },
      {
        "hospital_lat": 37.47666566,
        "hospital_lon": 127.0452238,
        "hospital_type": "병원",
        "hospital_name": "양재온한의원",
        "distance": 394.3651219322656,
        "walking_time": "약 6분"
      },
      {
        "hospital_lat": 37.47654983,
        "hospital_lon": 127.0453488,
        "hospital_type": "병원",
        "hospital_name": "미시간순치과의원",
        "distance": 395.08090432355885,
        "walking_time": "약 6분"
      },
      {
        "hospital_lat": 37.47584524,
        "hospital_lon": 127.04605,
        "hospital_type": "병원",
        "hospital_name": "서울김내과의원",
        "distance": 409.8108795696736,
        "walking_time": "약 7분"
      },
      {
        "hospital_lat": 37.47756255,
        "hospital_lon": 127.0442142,
        "hospital_type": "병원",
        "hospital_name": "임플란티아치과의원",
        "distance": 411.11537445081,
        "walking_time": "약 7분"
      }
    ],
    "music_room": [
      {
        "music_room_lat": 37.47611278,
        "music_room_lon": 127.0431202,
        "music_room_type": "노래방",
        "music_room_name": "월드컵노래연습장",
        "distance": 223.24042013237224,
        "walking_time": "약 4분"
      },
      {
        "music_room_lat": 37.47609183,
        "music_room_lon": 127.0434716,
        "music_room_type": "노래방",
        "music_room_name": "모모노래연습장",
        "distance": 239.40207756609897,
        "walking_time": "약 4분"
      },
      {
        "music_room_lat": 37.47310137,
        "music_room_lon": 127.0394074,
        "music_room_type": "노래방",
        "music_room_name": "산노래연습장",
        "distance": 254.5703494216445,
        "walking_time": "약 4분"
      },
      {
        "music_room_lat": 37.47604672,
        "music_room_lon": 127.0438952,
        "music_room_type": "노래방",
        "music_room_name": "스타노래연습장",
        "distance": 260.94367893692925,
        "walking_time": "약 4분"
      },
      {
        "music_room_lat": 37.47638767,
        "music_room_lon": 127.0433817,
        "music_room_type": "노래방",
        "music_room_name": "코리아노래연습장",
        "distance": 261.4250106818057,
        "walking_time": "약 4분"
      },
      {
        "music_room_lat": 37.47652592,
        "music_room_lon": 127.0435257,
        "music_room_type": "노래방",
        "music_room_name": "VIP노래연습장",
        "distance": 281.2462764783114,
        "walking_time": "약 5분"
      },
      {
        "music_room_lat": 37.47498311,
        "music_room_lon": 127.0449942,
        "music_room_type": "노래방",
        "music_room_name": "지엠(GM)노래연습장",
        "distance": 291.45349660158166,
        "walking_time": "약 5분"
      },
      {
        "music_room_lat": 37.47617851,
        "music_room_lon": 127.0444491,
        "music_room_type": "노래방",
        "music_room_name": "코러스노래연습장",
        "distance": 307.1595879964479,
        "walking_time": "약 5분"
      },
      {
        "music_room_lat": 37.47587481,
        "music_room_lon": 127.0448512,
        "music_room_type": "노래방",
        "music_room_name": "본코인노래연습장",
        "distance": 316.6714940256893,
        "walking_time": "약 5분"
      },
      {
        "music_room_lat": 37.47205828,
        "music_room_lon": 127.0396233,
        "music_room_type": "노래방",
        "music_room_name": "해피노래연습장",
        "distance": 323.3599167017789,
        "walking_time": "약 5분"
      }
    ],
    "park": [
      {
        "park_lat": 37.471225,
        "park_lon": 127.035042,
        "park_type": "공원",
        "park_name": "매헌시민의숲",
        "distance": 691.6260108409184,
        "walking_time": "약 11분"
      },
      {
        "park_lat": 37.467654,
        "park_lon": 127.030517,
        "park_type": "공원",
        "park_name": "문화예술공원",
        "distance": 1245.55731239973,
        "walking_time": "약 19분"
      }
    ],
    "park_station": [
      {
        "park_station_lat": 37.47290949,
        "park_station_lon": 127.0431574,
        "park_station_type": "주차장",
        "park_station_name": "언남문화체육센터 공영주차장",
        "distance": 207.40020830247235,
        "walking_time": "약 4분"
      },
      {
        "park_station_lat": 37.47228054,
        "park_station_lon": 127.0432777,
        "park_station_type": "주차장",
        "park_station_name": "언남문화체육센터 공영주차장",
        "distance": 272.09125538203494,
        "walking_time": "약 5분"
      },
      {
        "park_station_lat": 37.47166296,
        "park_station_lon": 127.0423575,
        "park_station_type": "주차장",
        "park_station_name": "양재근린공원 공영주차장",
        "distance": 310.3738168272596,
        "walking_time": "약 5분"
      },
      {
        "park_station_lat": 37.47419274,
        "park_station_lon": 127.0459417,
        "park_station_type": "주차장",
        "park_station_name": "구룡공영주차빌딩",
        "distance": 368.96953922943527,
        "walking_time": "약 6분"
      },
      {
        "park_station_lat": 37.47254682,
        "park_station_lon": 127.0382402,
        "park_station_type": "주차장",
        "park_station_name": "시민의숲 동측 공영주차장[양재시민의숲역 4호점]",
        "distance": 374.4114408959746,
        "walking_time": "약 6분"
      },
      {
        "park_station_lat": 37.47065052,
        "park_station_lon": 127.0412757,
        "park_station_type": "주차장",
        "park_station_name": "양재2동주민센터 공영주차장",
        "distance": 420.8578583601513,
        "walking_time": "약 7분"
      },
      {
        "park_station_lat": 37.47859776,
        "park_station_lon": 127.0413543,
        "park_station_type": "주차장",
        "park_station_name": "양재주차빌딩",
        "distance": 466.5460822120528,
        "walking_time": "약 7분"
      },
      {
        "park_station_lat": 37.47009089,
        "park_station_lon": 127.0443089,
        "park_station_type": "주차장",
        "park_station_name": "동산마을 공영주차장",
        "distance": 530.4606890231659,
        "walking_time": "약 8분"
      },
      {
        "park_station_lat": 37.47015734,
        "park_station_lon": 127.0385197,
        "park_station_type": "주차장",
        "park_station_name": "양재시민의숲역 공영주차장",
        "distance": 553.5449344020739,
        "walking_time": "약 9분"
      },
      {
        "park_station_lat": 37.47154446,
        "park_station_lon": 127.0487307,
        "park_station_type": "주차장",
        "park_station_name": "구룡공원 공영주차장",
        "distance": 692.2525458224692,
        "walking_time": "약 11분"
      }
    ],
    "pc_room": [
      {
        "pc_room_lat": 37.475898394772,
        "pc_room_lon": 127.043453389273,
        "pc_room_type": "PC방",
        "pc_room_name": "놀토PC방",
        "distance": 221.9799202842784,
        "walking_time": "약 4분"
      },
      {
        "pc_room_lat": 37.4766148844181,
        "pc_room_lon": 127.043922527512,
        "pc_room_type": "PC방",
        "pc_room_name": "트윈PC방",
        "distance": 309.7071945203441,
        "walking_time": "약 5분"
      },
      {
        "pc_room_lat": 37.4758748066181,
        "pc_room_lon": 127.044851166001,
        "pc_room_type": "PC방",
        "pc_room_name": "덤프PC방 양재점",
        "distance": 316.66872513275075,
        "walking_time": "약 5분"
      },
      {
        "pc_room_lat": 37.4754634473284,
        "pc_room_lon": 127.045214384379,
        "pc_room_type": "PC방",
        "pc_room_name": "금강PC",
        "distance": 325.5454761426397,
        "walking_time": "약 5분"
      },
      {
        "pc_room_lat": 37.4748631378886,
        "pc_room_lon": 127.045829250229,
        "pc_room_type": "PC방",
        "pc_room_name": "프렌즈PC방",
        "distance": 361.665236549539,
        "walking_time": "약 6분"
      },
      {
        "pc_room_lat": 37.4763907495514,
        "pc_room_lon": 127.045493395099,
        "pc_room_type": "PC방",
        "pc_room_name": "골드 PC 게임랜드",
        "distance": 395.2547365219688,
        "walking_time": "약 6분"
      },
      {
        "pc_room_lat": 37.4740279127572,
        "pc_room_lon": 127.046263193186,
        "pc_room_type": "PC방",
        "pc_room_name": "잭PC",
        "distance": 398.8415364576077,
        "walking_time": "약 6분"
      },
      {
        "pc_room_lat": 37.4692386239733,
        "pc_room_lon": 127.040533696282,
        "pc_room_type": "PC방",
        "pc_room_name": "아이언피쉬",
        "distance": 585.8359731978466,
        "walking_time": "약 9분"
      },
      {
        "pc_room_lat": 37.4789414464188,
        "pc_room_lon": 127.047255591553,
        "pc_room_type": "PC방",
        "pc_room_name": "매직엔PC방",
        "distance": 698.3232516360025,
        "walking_time": "약 11분"
      },
      {
        "pc_room_lat": 37.4790268742332,
        "pc_room_lon": 127.048118503982,
        "pc_room_type": "PC방",
        "pc_room_name": "스타일 PC방",
        "distance": 759.4915307689139,
        "walking_time": "약 12분"
      }
    ],
    "police_office": [
      {
        "police_office_lat": 37.47977839,
        "police_office_lon": 127.0511676,
        "police_office_type": "경찰소",
        "police_office_name": "개포지구대",
        "distance": 1021.458883720611,
        "walking_time": "약 16분"
      },
      {
        "police_office_lat": 37.48454577,
        "police_office_lon": 127.0378555,
        "police_office_type": "경찰소",
        "police_office_name": "양재파출소",
        "distance": 1178.259338324527,
        "walking_time": "약 18분"
      }
    ],
    "post_office": [
      {
        "post_office_lat": 37.47015713,
        "post_office_lon": 127.0417698,
        "post_office_type": "우체국",
        "post_office_name": "서울서초우체국",
        "distance": 473.4535426414573,
        "walking_time": "약 8분"
      },
      {
        "post_office_lat": 37.47896264,
        "post_office_lon": 127.0465259,
        "post_office_type": "우체국",
        "post_office_name": "서울개포현대우편취급국",
        "distance": 657.1448026624723,
        "walking_time": "약 10분"
      },
      {
        "post_office_lat": 37.48124455,
        "post_office_lon": 127.0361898,
        "post_office_type": "우체국",
        "post_office_name": "서울가정행정법원출장소",
        "distance": 905.0839572829668,
        "walking_time": "약 14분"
      },
      {
        "post_office_lat": 37.4847179,
        "post_office_lon": 127.037764,
        "post_office_type": "우체국",
        "post_office_name": "서울양재동우체국",
        "distance": 1198.9271028012984,
        "walking_time": "약 18분"
      },
      {
        "post_office_lat": 37.48531785,
        "post_office_lon": 127.0448079,
        "post_office_type": "우체국",
        "post_office_name": "서울도곡한신우편취급국",
        "distance": 1241.6246173322895,
        "walking_time": "약 19분"
      },
      {
        "post_office_lat": 37.48910918,
        "post_office_lon": 127.0529141,
        "post_office_type": "우체국",
        "post_office_name": "군인공제회우편취급국",
        "distance": 1906.9981193127533,
        "walking_time": "약 29분"
      }
    ],
    "public_health_center": [
      {
        "public_health_center_lat": 37.48362486,
        "public_health_center_lon": 127.032683,
        "public_health_center_type": "보건소",
        "public_health_center_name": "서초구보건소",
        "distance": 1300.663718712652,
        "walking_time": "약 20분"
      }
    ],
    "school": [
      {
        "school_lat": 37.4723300184587,
        "school_lon": 127.043005236379,
        "school_type": "고등학교",
        "school_name": "언남고등학교",
        "distance": 256.1876945012216,
        "walking_time": "약 4분"
      },
      {
        "school_lat": 37.4723026220168,
        "school_lon": 127.043757102066,
        "school_type": "중학교",
        "school_name": "언남중학교",
        "distance": 293.12434621572515,
        "walking_time": "약 5분"
      },
      {
        "school_lat": 37.4712624819608,
        "school_lon": 127.042057861972,
        "school_type": "초등학교",
        "school_name": "서울매헌초등학교",
        "distance": 351.46328831309813,
        "walking_time": "약 6분"
      },
      {
        "school_lat": 37.4762397420077,
        "school_lon": 127.051213825746,
        "school_type": "고등학교",
        "school_name": "국립국악고등학교",
        "distance": 857.7245057897301,
        "walking_time": "약 13분"
      },
      {
        "school_lat": 37.4762397420077,
        "school_lon": 127.051213825746,
        "school_type": "중학교",
        "school_name": "국립국악중학교",
        "distance": 857.7245057897301,
        "walking_time": "약 13분"
      },
      {
        "school_lat": 37.4741653841614,
        "school_lon": 127.03189250195,
        "school_type": "초등학교",
        "school_name": "서울양재초등학교",
        "distance": 872.1036623840328,
        "walking_time": "약 14분"
      },
      {
        "school_lat": 37.4758166247606,
        "school_lon": 127.052045721323,
        "school_type": "초등학교",
        "school_name": "서울포이초등학교",
        "distance": 920.0899921054483,
        "walking_time": "약 14분"
      },
      {
        "school_lat": 37.4811973926876,
        "school_lon": 127.051771435538,
        "school_type": "초등학교",
        "school_name": "서울구룡초등학교",
        "distance": 1160.8947229259356,
        "walking_time": "약 18분"
      },
      {
        "school_lat": 37.4845775128634,
        "school_lon": 127.047065232332,
        "school_type": "중학교",
        "school_name": "대치중학교",
        "distance": 1222.81399071471,
        "walking_time": "약 19분"
      },
      {
        "school_lat": 37.4824216431127,
        "school_lon": 127.032079625373,
        "school_type": "고등학교",
        "school_name": "양재고등학교",
        "distance": 1234.434798301492,
        "walking_time": "약 19분"
      }
    ],
    "subway": [
      {
        "subway_lat": 37.4839347328908,
        "subway_lon": 127.034544193436,
        "subway_type": "지하철",
        "subway_name": "3호선-양재(서초구청)역",
        "distance": 1235.7481451617066,
        "walking_time": "약 19분"
      },
      {
        "subway_lat": 37.4869611285839,
        "subway_lon": 127.046614560925,
        "subway_type": "지하철",
        "subway_name": "3호선-매봉역",
        "distance": 1459.0921829282725,
        "walking_time": "약 22분"
      }
    ],
    "supermarket": [
      {
        "supermarket_lat": 37.48272718,
        "supermarket_lon": 127.0433634,
        "supermarket_type": "마트",
        "supermarket_name": "홈플러스익스프레스 도곡2점",
        "distance": 934.9058633825166,
        "walking_time": "약 14분"
      },
      {
        "supermarket_lat": 37.46246735,
        "supermarket_lon": 127.0369479,
        "supermarket_type": "마트",
        "supermarket_name": "(주)이마트 양재점",
        "distance": 1395.0162398004024,
        "walking_time": "약 21분"
      },
      {
        "supermarket_lat": 37.46246735,
        "supermarket_lon": 127.0369479,
        "supermarket_type": "마트",
        "supermarket_name": "하이브랜드",
        "distance": 1395.0162398004024,
        "walking_time": "약 21분"
      },
      {
        "supermarket_lat": 37.46197321,
        "supermarket_lon": 127.0361528,
        "supermarket_type": "마트",
        "supermarket_name": "코스트코코리아",
        "distance": 1469.6031225675758,
        "walking_time": "약 22분"
      },
      {
        "supermarket_lat": 37.48760335,
        "supermarket_lon": 127.0497551,
        "supermarket_type": "마트",
        "supermarket_name": "롯데슈퍼 도곡점",
        "distance": 1626.965641742732,
        "walking_time": "약 25분"
      },
      {
        "supermarket_lat": 37.48886577,
        "supermarket_lon": 127.0520146,
        "supermarket_type": "마트",
        "supermarket_name": "아카데미프라자",
        "distance": 1843.6739682581867,
        "walking_time": "약 28분"
      }
    ],
    "theater": [
      {
        "theater_lat": 37.4874807715334,
        "theater_lon": 127.04698960023,
        "theater_type": "영화관",
        "theater_name": "롯데컬처웍스㈜",
        "distance": 1524.1044929495065,
        "walking_time": "약 23분"
      }
    ]
  }
}