{
  "클러스터_위도": 37.57218500000001,
  "클러스터_경도": 126.815575,
  "클러스터_level": 3.0,
  "facilities": {
    "bus": [
      {
        "bus_lat": 37.57278556,
        "bus_lon": 126.8165347,
        "bus_type": "버스정류장",
        "bus_name": "신방화사거리",
        "distance": 107.76433671076305,
        "walking_time": "약 2분"
      },
      {
        "bus_lat": 37.572868,
        "bus_lon": 126.816922,
        "bus_type": "버스정류장",
        "bus_name": "신방화사거리",
        "distance": 140.92727985599646,
        "walking_time": "약 3분"
      },
      {
        "bus_lat": 37.573528,
        "bus_lon": 126.814217,
        "bus_type": "버스정류장",
        "bus_name": "방화동동부센트레빌아파트",
        "distance": 191.37540112531943,
        "walking_time": "약 3분"
      },
      {
        "bus_lat": 37.57352361,
        "bus_lon": 126.8142022,
        "bus_type": "버스정류장",
        "bus_name": "방화동동부센트레빌아파트",
        "distance": 191.8147539185214,
        "walking_time": "약 3분"
      },
      {
        "bus_lat": 37.57332251,
        "bus_lon": 126.8138644,
        "bus_type": "버스정류장",
        "bus_name": "방화동동부센트레빌아파트",
        "distance": 196.78947954592235,
        "walking_time": "약 3분"
      },
      {
        "bus_lat": 37.5733692,
        "bus_lon": 126.8138108,
        "bus_type": "버스정류장",
        "bus_name": "방화동동부센트레빌아파트",
        "distance": 203.747368055935,
        "walking_time": "약 4분"
      },
      {
        "bus_lat": 37.57298634,
        "bus_lon": 126.8181869,
        "bus_type": "버스정류장",
        "bus_name": "프라임마트",
        "distance": 246.83371013982105,
        "walking_time": "약 4분"
      },
      {
        "bus_lat": 37.57287379,
        "bus_lon": 126.8182381,
        "bus_type": "버스정류장",
        "bus_name": "프라임마트",
        "distance": 246.88261777229533,
        "walking_time": "약 4분"
      },
      {
        "bus_lat": 37.573256,
        "bus_lon": 126.81844,
        "bus_type": "버스정류장",
        "bus_name": "방화2단지아파트",
        "distance": 279.1703500535603,
        "walking_time": "약 5분"
      },
      {
        "bus_lat": 37.5736123,
        "bus_lon": 126.8129196,
        "bus_type": "버스정류장",
        "bus_name": "방신시장",
        "distance": 282.76275457242406,
        "walking_time": "약 5분"
      }
    ],
    "community_center": [
      {
        "community_center_lat": 37.57034251,
        "community_center_lon": 126.817051,
        "community_center_type": "주민센터",
        "community_center_name": "방화1동 자치회관",
        "distance": 242.6844916561434,
        "walking_time": "약 4분"
      },
      {
        "community_center_lat": 37.57871896,
        "community_center_lon": 126.8136575,
        "community_center_type": "주민센터",
        "community_center_name": "방화3동 자치회관",
        "distance": 745.9362417216463,
        "walking_time": "약 12분"
      },
      {
        "community_center_lat": 37.56671508,
        "community_center_lon": 126.8067403,
        "community_center_type": "주민센터",
        "community_center_name": "방화2동 자치회관",
        "distance": 988.0420652361188,
        "walking_time": "약 15분"
      }
    ],
    "convenience_store": [
      {
        "convenience_store_lat": 37.57258213,
        "convenience_store_lon": 126.8143527,
        "convenience_store_type": "편의점",
        "convenience_store_name": "CU 방화해피점",
        "distance": 116.42258590135816,
        "walking_time": "약 2분"
      },
      {
        "convenience_store_lat": 37.57222416,
        "convenience_store_lon": 126.8183466,
        "convenience_store_type": "편의점",
        "convenience_store_name": "CU 강서도레미점",
        "distance": 244.30405054682527,
        "walking_time": "약 4분"
      },
      {
        "convenience_store_lat": 37.57438257,
        "convenience_store_lon": 126.813656,
        "convenience_store_type": "편의점",
        "convenience_store_name": "CU 방화행운점",
        "distance": 297.17562691403214,
        "walking_time": "약 5분"
      },
      {
        "convenience_store_lat": 37.56915814,
        "convenience_store_lon": 126.8162862,
        "convenience_store_type": "편의점",
        "convenience_store_name": "세븐일레븐 신방화역점",
        "distance": 342.3582796466196,
        "walking_time": "약 6분"
      },
      {
        "convenience_store_lat": 37.56906249,
        "convenience_store_lon": 126.8154483,
        "convenience_store_type": "편의점",
        "convenience_store_name": "GS25 방화행복점",
        "distance": 347.3867862662789,
        "walking_time": "약 6분"
      },
      {
        "convenience_store_lat": 37.57023525,
        "convenience_store_lon": 126.8198989,
        "convenience_store_type": "편의점",
        "convenience_store_name": "CU 마곡미라클점",
        "distance": 438.4322093310586,
        "walking_time": "약 7분"
      },
      {
        "convenience_store_lat": 37.5676834,
        "convenience_store_lon": 126.8165246,
        "convenience_store_type": "편의점",
        "convenience_store_name": "CU 904신방화역점",
        "distance": 507.5034747033559,
        "walking_time": "약 8분"
      },
      {
        "convenience_store_lat": 37.57394596,
        "convenience_store_lon": 126.8100419,
        "convenience_store_type": "편의점",
        "convenience_store_name": "GS25 방화가온점",
        "distance": 525.4798792950749,
        "walking_time": "약 8분"
      },
      {
        "convenience_store_lat": 37.57650504,
        "convenience_store_lon": 126.813031,
        "convenience_store_type": "편의점",
        "convenience_store_name": "GS25 방화샤르망점",
        "distance": 530.1110030181275,
        "walking_time": "약 8분"
      },
      {
        "convenience_store_lat": 37.56849345,
        "convenience_store_lon": 126.8195404,
        "convenience_store_type": "편의점",
        "convenience_store_name": "GS25 김포공항역점",
        "distance": 539.1059201274829,
        "walking_time": "약 9분"
      }
    ],
    "daycare": [
      {
        "daycare_lat": 37.571966124707934,
        "daycare_lon": 126.8157737653584,
        "daycare_type": "어린이집",
        "daycare_name": "로뎀어린이집",
        "distance": 29.98654720497665,
        "walking_time": "약 1분"
      },
      {
        "daycare_lat": 37.57124742,
        "daycare_lon": 126.8176331,
        "daycare_type": "어린이집",
        "daycare_name": "꼬마별어린이집",
        "distance": 209.2111446912507,
        "walking_time": "약 4분"
      },
      {
        "daycare_lat": 37.57210911,
        "daycare_lon": 126.8130858,
        "daycare_type": "어린이집",
        "daycare_name": "혜화어린이집",
        "distance": 219.53931783587532,
        "walking_time": "약 4분"
      },
      {
        "daycare_lat": 37.57007958,
        "daycare_lon": 126.8160529,
        "daycare_type": "어린이집",
        "daycare_name": "푸른씨앗어린이집",
        "distance": 237.8705938450022,
        "walking_time": "약 4분"
      },
      {
        "daycare_lat": 37.57040402,
        "daycare_lon": 126.8138063,
        "daycare_type": "어린이집",
        "daycare_name": "잘자람어린이집",
        "distance": 252.0254572798093,
        "walking_time": "약 4분"
      },
      {
        "daycare_lat": 37.57453047,
        "daycare_lon": 126.8149107,
        "daycare_type": "어린이집",
        "daycare_name": "오즈 어린이집",
        "distance": 267.2946225904599,
        "walking_time": "약 4분"
      },
      {
        "daycare_lat": 37.57453047,
        "daycare_lon": 126.8149107,
        "daycare_type": "어린이집",
        "daycare_name": "우람키즈어린이집",
        "distance": 267.2946225904599,
        "walking_time": "약 4분"
      },
      {
        "daycare_lat": 37.57050186,
        "daycare_lon": 126.8133716,
        "daycare_type": "어린이집",
        "daycare_name": "새싹어린이집",
        "distance": 269.69949142076456,
        "walking_time": "약 5분"
      },
      {
        "daycare_lat": 37.57119184794047,
        "daycare_lon": 126.8184471,
        "daycare_type": "어린이집",
        "daycare_name": "은빛어린이집",
        "distance": 276.165561913587,
        "walking_time": "약 5분"
      },
      {
        "daycare_lat": 37.57443015,
        "daycare_lon": 126.8173949,
        "daycare_type": "어린이집",
        "daycare_name": "동화나라어린이집",
        "distance": 296.7307174906869,
        "walking_time": "약 5분"
      }
    ],
    "education": [
      {
        "education_lat": 37.57871896,
        "education_lon": 126.8136575,
        "education_type": "도서관",
        "education_name": "강서구립길꽃어린이도서관",
        "distance": 745.9362417216463,
        "walking_time": "약 12분"
      },
      {
        "education_lat": 37.56536299,
        "education_lon": 126.8293888,
        "education_type": "공연장",
        "education_name": "LG아트센터 서울",
        "distance": 1434.4710275993484,
        "walking_time": "약 22분"
      }
    ],
    "electric_gas_station": [
      {
        "electric_gas_station_lat": 37.56231321,
        "electric_gas_station_lon": 126.8012784,
        "electric_gas_station_type": "전기차 충전소",
        "electric_gas_station_name": "롯데마트 김포공항점",
        "distance": 1671.1350669426788,
        "walking_time": "약 25분"
      }
    ],
    "fitness": [
      {
        "fitness_lat": 37.57275854,
        "fitness_lon": 126.8179355,
        "fitness_type": "운동시설",
        "fitness_name": "팀스파르타짐",
        "distance": 217.5895501356777,
        "walking_time": "약 4분"
      },
      {
        "fitness_lat": 37.57313569,
        "fitness_lon": 126.818164,
        "fitness_type": "운동시설",
        "fitness_name": "라파리메디핏",
        "distance": 251.46973593225425,
        "walking_time": "약 4분"
      },
      {
        "fitness_lat": 37.57438179,
        "fitness_lon": 126.8135052,
        "fitness_type": "운동시설",
        "fitness_name": "조PT GYM",
        "distance": 304.865331934789,
        "walking_time": "약 5분"
      },
      {
        "fitness_lat": 37.57113789,
        "fitness_lon": 126.8122753,
        "fitness_type": "운동시설",
        "fitness_name": "그린헬스크럽",
        "distance": 313.2522039693032,
        "walking_time": "약 5분"
      },
      {
        "fitness_lat": 37.57321163,
        "fitness_lon": 126.8117771,
        "fitness_type": "운동시설",
        "fitness_name": "방화사거리점 스포애니 (주)케이디헬스케어",
        "distance": 353.6438540550266,
        "walking_time": "약 6분"
      },
      {
        "fitness_lat": 37.56886645,
        "fitness_lon": 126.8124813,
        "fitness_type": "운동시설",
        "fitness_name": "K-휘트니스1",
        "distance": 458.8115647711712,
        "walking_time": "약 7분"
      },
      {
        "fitness_lat": 37.56886645,
        "fitness_lon": 126.8124813,
        "fitness_type": "운동시설",
        "fitness_name": "K-휘트니스2",
        "distance": 458.8115647711712,
        "walking_time": "약 7분"
      },
      {
        "fitness_lat": 37.57425563,
        "fitness_lon": 126.8201679,
        "fitness_type": "운동시설",
        "fitness_name": "크로스핏 라이노",
        "distance": 465.6756009238605,
        "walking_time": "약 7분"
      },
      {
        "fitness_lat": 37.57088401,
        "fitness_lon": 126.8214094,
        "fitness_type": "운동시설",
        "fitness_name": "유나짐",
        "distance": 534.1611521973063,
        "walking_time": "약 8분"
      },
      {
        "fitness_lat": 37.57655856,
        "fitness_lon": 126.8126852,
        "fitness_type": "운동시설",
        "fitness_name": "짐박스피트니스 방화역점",
        "distance": 548.9665115677335,
        "walking_time": "약 9분"
      }
    ],
    "gas_station": [
      {
        "gas_station_lat": 37.57354729,
        "gas_station_lon": 126.8100535,
        "gas_station_type": "주유소",
        "gas_station_name": "개화주유소",
        "distance": 509.645966305883,
        "walking_time": "약 8분"
      },
      {
        "gas_station_lat": 37.57289809,
        "gas_station_lon": 126.82344,
        "gas_station_type": "주유소",
        "gas_station_name": "방화대성주유소",
        "distance": 697.67154868435,
        "walking_time": "약 11분"
      },
      {
        "gas_station_lat": 37.56556288,
        "gas_station_lon": 126.8124364,
        "gas_station_type": "주유소",
        "gas_station_name": "방화주유소",
        "distance": 786.5909403350895,
        "walking_time": "약 12분"
      },
      {
        "gas_station_lat": 37.5715222,
        "gas_station_lon": 126.8045259,
        "gas_station_type": "주유소",
        "gas_station_name": "스카이주유소",
        "distance": 976.5632454411513,
        "walking_time": "약 15분"
      },
      {
        "gas_station_lat": 37.57432667,
        "gas_station_lon": 126.8023876,
        "gas_station_type": "주유소",
        "gas_station_name": "행촌에너지 공항주유소",
        "distance": 1186.35633882585,
        "walking_time": "약 18분"
      }
    ],
    "hospital": [
      {
        "hospital_lat": 37.57323817,
        "hospital_lon": 126.8154029,
        "hospital_type": "병원",
        "hospital_name": "경희정함한의원",
        "distance": 118.0852866513773,
        "walking_time": "약 2분"
      },
      {
        "hospital_lat": 37.57323817,
        "hospital_lon": 126.8154029,
        "hospital_type": "병원",
        "hospital_name": "이한용치과의원",
        "distance": 118.0852866513773,
        "walking_time": "약 2분"
      },
      {
        "hospital_lat": 37.57320177,
        "hospital_lon": 126.8150587,
        "hospital_type": "병원",
        "hospital_name": "방화금맥한의원",
        "distance": 121.87255272989655,
        "walking_time": "약 2분"
      },
      {
        "hospital_lat": 37.5735734,
        "hospital_lon": 126.8144641,
        "hospital_type": "병원",
        "hospital_name": "조은경희한의원",
        "distance": 182.8097121398659,
        "walking_time": "약 3분"
      },
      {
        "hospital_lat": 37.5735734,
        "hospital_lon": 126.8144641,
        "hospital_type": "병원",
        "hospital_name": "조은경희한의원",
        "distance": 182.8097121398659,
        "walking_time": "약 3분"
      },
      {
        "hospital_lat": 37.5735734,
        "hospital_lon": 126.8144641,
        "hospital_type": "병원",
        "hospital_name": "조은이편한치과의원",
        "distance": 182.8097121398659,
        "walking_time": "약 3분"
      },
      {
        "hospital_lat": 37.57392776,
        "hospital_lon": 126.8151526,
        "hospital_type": "병원",
        "hospital_name": "성지한의원",
        "distance": 197.32926717600893,
        "walking_time": "약 3분"
      },
      {
        "hospital_lat": 37.57319151,
        "hospital_lon": 126.817845,
        "hospital_type": "병원",
        "hospital_name": "문소아청소년과의원",
        "distance": 229.23502543870148,
        "walking_time": "약 4분"
      },
      {
        "hospital_lat": 37.57319151,
        "hospital_lon": 126.817845,
        "hospital_type": "병원",
        "hospital_name": "푸른치과의원",
        "distance": 229.23502543870148,
        "walking_time": "약 4분"
      },
      {
        "hospital_lat": 37.57313569,
        "hospital_lon": 126.818164,
        "hospital_type": "병원",
        "hospital_name": "으뜸한의원",
        "distance": 251.46973593225425,
        "walking_time": "약 4분"
      }
    ],
    "music_room": [
      {
        "music_room_lat": 37.57353253,
        "music_room_lon": 126.815236,
        "music_room_type": "노래방",
        "music_room_name": "열창노래연습장",
        "distance": 152.78799043696648,
        "walking_time": "약 3분"
      },
      {
        "music_room_lat": 37.57325273,
        "music_room_lon": 126.8144034,
        "music_room_type": "노래방",
        "music_room_name": "락노래연습장",
        "distance": 157.34458605908668,
        "walking_time": "약 3분"
      },
      {
        "music_room_lat": 37.57325273,
        "music_room_lon": 126.8144034,
        "music_room_type": "노래방",
        "music_room_name": "맥스노래연습장",
        "distance": 157.34458605908668,
        "walking_time": "약 3분"
      },
      {
        "music_room_lat": 37.57299082,
        "music_room_lon": 126.8173528,
        "music_room_type": "노래방",
        "music_room_name": "팡팡노래연습장",
        "distance": 180.4913747339936,
        "walking_time": "약 3분"
      },
      {
        "music_room_lat": 37.57358471,
        "music_room_lon": 126.8142059,
        "music_room_type": "노래방",
        "music_room_name": "오디션노래연습장",
        "distance": 196.9334427931516,
        "walking_time": "약 3분"
      },
      {
        "music_room_lat": 37.57327936,
        "music_room_lon": 126.813689,
        "music_room_type": "노래방",
        "music_room_name": "파티파티노래연습장",
        "distance": 205.9979586453861,
        "walking_time": "약 4분"
      },
      {
        "music_room_lat": 37.57328291,
        "music_room_lon": 126.8135421,
        "music_room_type": "노래방",
        "music_room_name": "오즈노래연습장",
        "distance": 216.8012186279276,
        "walking_time": "약 4분"
      },
      {
        "music_room_lat": 37.57017425,
        "music_room_lon": 126.8155169,
        "music_room_type": "노래방",
        "music_room_name": "엔젤노래연습장",
        "distance": 223.6438255907024,
        "walking_time": "약 4분"
      },
      {
        "music_room_lat": 37.57331324,
        "music_room_lon": 126.8133512,
        "music_room_type": "노래방",
        "music_room_name": "발리노래연습장",
        "distance": 232.6996260003465,
        "walking_time": "약 4분"
      },
      {
        "music_room_lat": 37.57364225,
        "music_room_lon": 126.8132758,
        "music_room_type": "노래방",
        "music_room_name": "라이브노래연습장",
        "distance": 259.4522889192661,
        "walking_time": "약 4분"
      }
    ],
    "park": [
      {
        "park_lat": 37.5801585,
        "park_lon": 126.8157075,
        "park_type": "공원",
        "park_name": "꿩고개근린공원",
        "distance": 886.6896367259449,
        "walking_time": "약 14분"
      },
      {
        "park_lat": 37.5819812,
        "park_lon": 126.8132285,
        "park_type": "공원",
        "park_name": "방화근린공원",
        "distance": 1108.7419192040109,
        "walking_time": "약 17분"
      },
      {
        "park_lat": 37.5813917,
        "park_lon": 126.8068278,
        "park_type": "공원",
        "park_name": "개화근린공원",
        "distance": 1281.5067896733096,
        "walking_time": "약 20분"
      }
    ],
    "park_station": [
      {
        "park_station_lat": 37.57233851,
        "park_station_lon": 126.81333,
        "park_station_type": "주차장",
        "park_station_name": "방신시장 고객주차장",
        "distance": 198.59000075401065,
        "walking_time": "약 3분"
      },
      {
        "park_station_lat": 37.57729294,
        "park_station_lon": 126.8133031,
        "park_station_type": "주차장",
        "park_station_name": "방화역 공영주차장",
        "distance": 602.2338288173112,
        "walking_time": "약 9분"
      },
      {
        "park_station_lat": 37.56680192,
        "park_station_lon": 126.8177817,
        "park_station_type": "주차장",
        "park_station_name": "신방화역 공영주차장",
        "distance": 629.3747658733586,
        "walking_time": "약 10분"
      },
      {
        "park_station_lat": 37.57756927,
        "park_station_lon": 126.8121638,
        "park_station_type": "주차장",
        "park_station_name": "방화역 공영주차장",
        "distance": 669.9405134526736,
        "walking_time": "약 10분"
      },
      {
        "park_station_lat": 37.57850113,
        "park_station_lon": 126.8123087,
        "park_station_type": "주차장",
        "park_station_name": "공유) 22-29",
        "distance": 759.0219244326267,
        "walking_time": "약 12분"
      },
      {
        "park_station_lat": 37.57221097,
        "park_station_lon": 126.8052097,
        "park_station_type": "주차장",
        "park_station_name": "개화산역 공영주차장",
        "distance": 913.5139935665952,
        "walking_time": "약 14분"
      },
      {
        "park_station_lat": 37.56033825,
        "park_station_lon": 126.8106698,
        "park_station_type": "주차장",
        "park_station_name": "공항동",
        "distance": 1386.4309162389488,
        "walking_time": "약 21분"
      },
      {
        "park_station_lat": 37.58503721,
        "park_station_lon": 126.8195976,
        "park_station_type": "주차장",
        "park_station_name": "강서1주차장",
        "distance": 1472.409446402817,
        "walking_time": "약 22분"
      }
    ],
    "pc_room": [
      {
        "pc_room_lat": 37.5723334093735,
        "pc_room_lon": 126.81535591311,
        "pc_room_type": "PC방",
        "pc_room_name": "101성인PC",
        "distance": 25.399686210706083,
        "walking_time": "약 1분"
      },
      {
        "pc_room_lat": 37.572762239511,
        "pc_room_lon": 126.815616684601,
        "pc_room_type": "PC방",
        "pc_room_name": "스타PC",
        "distance": 64.2911521988732,
        "walking_time": "약 1분"
      },
      {
        "pc_room_lat": 37.5732017723721,
        "pc_room_lon": 126.815058656627,
        "pc_room_type": "PC방",
        "pc_room_name": "제로백PC 신방화점",
        "distance": 121.87422462814564,
        "walking_time": "약 2분"
      },
      {
        "pc_room_lat": 37.57322833374,
        "pc_room_lon": 126.814129331262,
        "pc_room_type": "PC방",
        "pc_room_name": "보물PC",
        "distance": 172.31347295990304,
        "walking_time": "약 3분"
      },
      {
        "pc_room_lat": 37.5708287655992,
        "pc_room_lon": 126.812507868932,
        "pc_room_type": "PC방",
        "pc_room_name": "돼지PC",
        "distance": 309.5349456189337,
        "walking_time": "약 5분"
      },
      {
        "pc_room_lat": 37.5737251867757,
        "pc_room_lon": 126.811826043779,
        "pc_room_type": "PC방",
        "pc_room_name": "레벨업PC방",
        "distance": 372.1464815633253,
        "walking_time": "약 6분"
      },
      {
        "pc_room_lat": 37.5725360231686,
        "pc_room_lon": 126.811016266626,
        "pc_room_type": "PC방",
        "pc_room_name": "원피스PC방",
        "distance": 403.6586722967685,
        "walking_time": "약 7분"
      },
      {
        "pc_room_lat": 37.5729228245554,
        "pc_room_lon": 126.811019251197,
        "pc_room_type": "PC방",
        "pc_room_name": "방화 PC",
        "distance": 409.7995226654611,
        "walking_time": "약 7분"
      },
      {
        "pc_room_lat": 37.5697765959981,
        "pc_room_lon": 126.811440135664,
        "pc_room_type": "PC방",
        "pc_room_name": "잭팟 PC",
        "distance": 452.2370739396272,
        "walking_time": "약 7분"
      },
      {
        "pc_room_lat": 37.5683752306978,
        "pc_room_lon": 126.812938605108,
        "pc_room_type": "PC방",
        "pc_room_name": "팡팡PC랜드",
        "distance": 483.165489903388,
        "walking_time": "약 8분"
      }
    ],
    "police_office": [
      {
        "police_office_lat": 37.57980537,
        "police_office_lon": 126.8146821,
        "police_office_type": "경찰소",
        "police_office_name": "방화3파출소",
        "distance": 850.992337672777,
        "walking_time": "약 13분"
      },
      {
        "police_office_lat": 37.567244,
        "police_office_lon": 126.8242311,
        "police_office_type": "경찰소",
        "police_office_name": "마곡지구대",
        "distance": 940.1452416693676,
        "walking_time": "약 15분"
      },
      {
        "police_office_lat": 37.56236965,
        "police_office_lon": 126.8082785,
        "police_office_type": "경찰소",
        "police_office_name": "공항지구대",
        "distance": 1266.7916907418012,
        "walking_time": "약 19분"
      }
    ],
    "post_office": [
      {
        "post_office_lat": 37.57249129,
        "post_office_lon": 126.8232035,
        "post_office_type": "우체국",
        "post_office_name": "서울마곡동우편취급국",
        "distance": 673.1719771861993,
        "walking_time": "약 11분"
      },
      {
        "post_office_lat": 37.57979305,
        "post_office_lon": 126.8149803,
        "post_office_type": "우체국",
        "post_office_name": "서울방화동우체국",
        "distance": 847.5984074121709,
        "walking_time": "약 13분"
      },
      {
        "post_office_lat": 37.56721765,
        "post_office_lon": 126.8246323,
        "post_office_type": "우체국",
        "post_office_name": "서울마곡나루우체국",
        "distance": 970.7231073068174,
        "walking_time": "약 15분"
      }
    ],
    "public_health_center": [
      {
        "public_health_center_lat": 37.57957912,
        "public_health_center_lon": 126.8139843,
        "public_health_center_type": "보건소",
        "public_health_center_name": "방화보건지소",
        "distance": 834.05374772072,
        "walking_time": "약 13분"
      }
    ],
    "school": [
      {
        "school_lat": 37.5704610944881,
        "school_lon": 126.81851983357,
        "school_type": "고등학교",
        "school_name": "공항고등학교",
        "distance": 322.65094809169983,
        "walking_time": "약 5분"
      },
      {
        "school_lat": 37.5692177821112,
        "school_lon": 126.817040800626,
        "school_type": "고등학교",
        "school_name": "서울항공비즈니스고등학교",
        "distance": 354.3290774158712,
        "walking_time": "약 6분"
      },
      {
        "school_lat": 37.5759191517213,
        "school_lon": 126.814645646553,
        "school_type": "초등학교",
        "school_name": "서울치현초등학교",
        "distance": 423.21949061649946,
        "walking_time": "약 7분"
      },
      {
        "school_lat": 37.5760340875363,
        "school_lon": 126.816181657979,
        "school_type": "고등학교",
        "school_name": "강서공업고등학교",
        "distance": 431.3253774641888,
        "walking_time": "약 7분"
      },
      {
        "school_lat": 37.5681504658023,
        "school_lon": 126.818032939459,
        "school_type": "초등학교",
        "school_name": "서울송화초등학교",
        "distance": 498.18396937962336,
        "walking_time": "약 8분"
      },
      {
        "school_lat": 37.5769596950152,
        "school_lon": 126.818932773167,
        "school_type": "초등학교",
        "school_name": "서울정곡초등학교",
        "distance": 607.8193732189035,
        "walking_time": "약 10분"
      },
      {
        "school_lat": 37.5680344018763,
        "school_lon": 126.821325984502,
        "school_type": "중학교",
        "school_name": "마곡중학교",
        "distance": 685.4997171872915,
        "walking_time": "약 11분"
      },
      {
        "school_lat": 37.5747927037293,
        "school_lon": 126.808143937842,
        "school_type": "고등학교",
        "school_name": "한서고등학교",
        "distance": 716.2205509018203,
        "walking_time": "약 11분"
      },
      {
        "school_lat": 37.5757386006668,
        "school_lon": 126.808220414193,
        "school_type": "중학교",
        "school_name": "방원중학교",
        "distance": 759.106587276577,
        "walking_time": "약 12분"
      },
      {
        "school_lat": 37.5687040876215,
        "school_lon": 126.807498167739,
        "school_type": "초등학교",
        "school_name": "서울방화초등학교",
        "distance": 810.2663804303073,
        "walking_time": "약 13분"
      }
    ],
    "subway": [
      {
        "subway_lat": 37.5770031079469,
        "subway_lon": 126.81262993382,
        "subway_type": "지하철",
        "subway_name": "5호선-방화역",
        "distance": 595.3071793860623,
        "walking_time": "약 9분"
      },
      {
        "subway_lat": 37.572270024754,
        "subway_lon": 126.806001672732,
        "subway_type": "지하철",
        "subway_name": "5호선-개화산역",
        "distance": 843.764319793207,
        "walking_time": "약 13분"
      },
      {
        "subway_lat": 37.5614775483136,
        "subway_lon": 126.811055407613,
        "subway_type": "지하철",
        "subway_name": "5호선-송정역",
        "distance": 1255.485116277578,
        "walking_time": "약 19분"
      },
      {
        "subway_lat": 37.5601984535897,
        "subway_lon": 126.825547992125,
        "subway_type": "지하철",
        "subway_name": "5호선-마곡역",
        "distance": 1596.59692635408,
        "walking_time": "약 24분"
      },
      {
        "subway_lat": 37.562313207852,
        "subway_lon": 126.801278424065,
        "subway_type": "지하철",
        "subway_name": "5호선-김포공항역",
        "distance": 1671.1336245556388,
        "walking_time": "약 25분"
      }
    ],
    "supermarket": [
      {
        "supermarket_lat": 37.57197863,
        "supermarket_lon": 126.8118953,
        "supermarket_type": "마트",
        "supermarket_name": "삼정프라자",
        "distance": 325.1088444847022,
        "walking_time": "약 5분"
      },
      {
        "supermarket_lat": 37.5710637,
        "supermarket_lon": 126.8209514,
        "supermarket_type": "마트",
        "supermarket_name": "롯데쇼핑(주)롯데슈퍼 방화점",
        "distance": 489.9635992462537,
        "walking_time": "약 8분"
      },
      {
        "supermarket_lat": 37.57199747,
        "supermarket_lon": 126.8077043,
        "supermarket_type": "마트",
        "supermarket_name": "롯데쇼핑(주)롯데슈퍼개화산점",
        "distance": 693.9709418225676,
        "walking_time": "약 11분"
      },
      {
        "supermarket_lat": 37.5680891,
        "supermarket_lon": 126.8254241,
        "supermarket_type": "마트",
        "supermarket_name": "이마트에브리데이 마곡점",
        "distance": 980.2662837964176,
        "walking_time": "약 15분"
      },
      {
        "supermarket_lat": 37.57136958,
        "supermarket_lon": 126.8029601,
        "supermarket_type": "마트",
        "supermarket_name": "롯데몰 김포공항",
        "distance": 1115.467507149498,
        "walking_time": "약 17분"
      },
      {
        "supermarket_lat": 37.56267069,
        "supermarket_lon": 126.8236056,
        "supermarket_type": "마트",
        "supermarket_name": "노브랜드 강서마곡점",
        "distance": 1272.8770358051572,
        "walking_time": "약 19분"
      },
      {
        "supermarket_lat": 37.5608751,
        "supermarket_lon": 126.824696,
        "supermarket_type": "마트",
        "supermarket_name": "원그로브몰",
        "distance": 1492.5935687344056,
        "walking_time": "약 23분"
      }
    ],
    "tax_office": [
      {
        "tax_office_lat": 37.56213928,
        "tax_office_lon": 126.8215026,
        "tax_office_type": "세무서",
        "tax_office_name": "강서세무서",
        "distance": 1233.170812863571,
        "walking_time": "약 19분"
      }
    ],
    "theater": [
      {
        "theater_lat": 37.5713695798026,
        "theater_lon": 126.802960133589,
        "theater_type": "영화관",
        "theater_name": "롯데시네마 김포공항",
        "distance": 1115.4645584655016,
        "walking_time": "약 17분"
      }
    ]
  }
}