{
  "클러스터_위도": 37.589187,
  "클러스터_경도": 127.01128099999998,
  "클러스터_level": 3.0,
  "facilities": {
    "bus": [
      {
        "bus_lat": 37.58864214,
        "bus_lon": 127.0116236,
        "bus_type": "버스정류장",
        "bus_name": "본교회앞",
        "distance": 67.68960419183442,
        "walking_time": "약 2분"
      },
      {
        "bus_lat": 37.58881169,
        "bus_lon": 127.0100293,
        "bus_type": "버스정류장",
        "bus_name": "삼영탕앞",
        "distance": 117.92089851739308,
        "walking_time": "약 2분"
      },
      {
        "bus_lat": 37.5881656,
        "bus_lon": 127.0101255,
        "bus_type": "버스정류장",
        "bus_name": "성북세무서앞",
        "distance": 152.52913580538126,
        "walking_time": "약 3분"
      },
      {
        "bus_lat": 37.58792226,
        "bus_lon": 127.0105659,
        "bus_type": "버스정류장",
        "bus_name": "성북세무서앞",
        "distance": 154.1028269009492,
        "walking_time": "약 3분"
      },
      {
        "bus_lat": 37.58787632,
        "bus_lon": 127.0104481,
        "bus_type": "버스정류장",
        "bus_name": "성북세무서앞",
        "distance": 163.17573167067258,
        "walking_time": "약 3분"
      },
      {
        "bus_lat": 37.59043362,
        "bus_lon": 127.0102798,
        "bus_type": "버스정류장",
        "bus_name": "수협동소문동지점",
        "distance": 164.3077314776247,
        "walking_time": "약 3분"
      },
      {
        "bus_lat": 37.58963444,
        "bus_lon": 127.009282,
        "bus_type": "버스정류장",
        "bus_name": "녹십자약국",
        "distance": 183.0262345345461,
        "walking_time": "약 3분"
      },
      {
        "bus_lat": 37.58992275,
        "bus_lon": 127.0093609,
        "bus_type": "버스정류장",
        "bus_name": "삼선교.한성대학교",
        "distance": 187.9245749109595,
        "walking_time": "약 3분"
      },
      {
        "bus_lat": 37.59107576,
        "bus_lon": 127.012138,
        "bus_type": "버스정류장",
        "bus_name": "돈암초교입구",
        "distance": 223.1825689724272,
        "walking_time": "약 4분"
      },
      {
        "bus_lat": 37.58814495,
        "bus_lon": 127.0091097,
        "bus_type": "버스정류장",
        "bus_name": "삼선시장",
        "distance": 223.6703781094706,
        "walking_time": "약 4분"
      }
    ],
    "community_center": [
      {
        "community_center_lat": 37.59084573,
        "community_center_lon": 127.0146418,
        "community_center_type": "주민센터",
        "community_center_name": "삼선동 자치회관",
        "distance": 348.86516805398537,
        "walking_time": "약 6분"
      },
      {
        "community_center_lat": 37.59105175,
        "community_center_lon": 127.0032478,
        "community_center_type": "주민센터",
        "community_center_name": "성북동 자치회관",
        "distance": 737.553978145785,
        "walking_time": "약 12분"
      },
      {
        "community_center_lat": 37.59398014,
        "community_center_lon": 127.0204087,
        "community_center_type": "주민센터",
        "community_center_name": "동선동 자치회관",
        "distance": 964.8022872186144,
        "walking_time": "약 15분"
      },
      {
        "community_center_lat": 37.58582076,
        "community_center_lon": 127.0213756,
        "community_center_type": "주민센터",
        "community_center_name": "안암동 자치회관",
        "distance": 965.0196005472674,
        "walking_time": "약 15분"
      },
      {
        "community_center_lat": 37.58685154,
        "community_center_lon": 127.0006231,
        "community_center_type": "주민센터",
        "community_center_name": "혜화동 자치회관",
        "distance": 974.3423362126464,
        "walking_time": "약 15분"
      },
      {
        "community_center_lat": 37.59801698,
        "community_center_lon": 127.010539,
        "community_center_type": "주민센터",
        "community_center_name": "돈암2동 자치회관",
        "distance": 984.0230065220088,
        "walking_time": "약 15분"
      },
      {
        "community_center_lat": 37.57802956,
        "community_center_lon": 127.0145586,
        "community_center_type": "주민센터",
        "community_center_name": "창신제3동 자치회관",
        "distance": 1273.8244111117458,
        "walking_time": "약 20분"
      },
      {
        "community_center_lat": 37.57782273,
        "community_center_lon": 127.0156281,
        "community_center_type": "주민센터",
        "community_center_name": "숭인제1동 자치회관",
        "distance": 1320.4328296343265,
        "walking_time": "약 20분"
      },
      {
        "community_center_lat": 37.58037354,
        "community_center_lon": 127.0228035,
        "community_center_type": "주민센터",
        "community_center_name": "보문동 자치회관",
        "distance": 1411.1362883428603,
        "walking_time": "약 22분"
      },
      {
        "community_center_lat": 37.57697973,
        "community_center_lon": 127.0043465,
        "community_center_type": "주민센터",
        "community_center_name": "이화동 자치회관",
        "distance": 1488.5867894524722,
        "walking_time": "약 23분"
      }
    ],
    "convenience_store": [
      {
        "convenience_store_lat": 37.58995893,
        "convenience_store_lon": 127.0108879,
        "convenience_store_type": "편의점",
        "convenience_store_name": "GS25 동소문제일점",
        "distance": 92.5595832491208,
        "walking_time": "약 2분"
      },
      {
        "convenience_store_lat": 37.58791065,
        "convenience_store_lon": 127.0104201,
        "convenience_store_type": "편의점",
        "convenience_store_name": "GS25 삼선푸르지오점",
        "distance": 160.92363174064874,
        "walking_time": "약 3분"
      },
      {
        "convenience_store_lat": 37.58937764,
        "convenience_store_lon": 127.0132203,
        "convenience_store_type": "편의점",
        "convenience_store_name": "CU 삼선동4가점",
        "distance": 172.18407763960363,
        "walking_time": "약 3분"
      },
      {
        "convenience_store_lat": 37.5900755,
        "convenience_store_lon": 127.0089097,
        "convenience_store_type": "편의점",
        "convenience_store_name": "CU 동소문태양점",
        "distance": 231.11810719604665,
        "walking_time": "약 4분"
      },
      {
        "convenience_store_lat": 37.59121781,
        "convenience_store_lon": 127.0106852,
        "convenience_store_type": "편의점",
        "convenience_store_name": "GS25 성북동소문점",
        "distance": 231.83743625356124,
        "walking_time": "약 4분"
      },
      {
        "convenience_store_lat": 37.58835318,
        "convenience_store_lon": 127.008661,
        "convenience_store_type": "편의점",
        "convenience_store_name": "CU 성북삼선교점",
        "distance": 248.7760650418166,
        "walking_time": "약 4분"
      },
      {
        "convenience_store_lat": 37.58880867,
        "convenience_store_lon": 127.0081375,
        "convenience_store_type": "편의점",
        "convenience_store_name": "CU 성북삼선교점",
        "distance": 280.15538225367106,
        "walking_time": "약 5분"
      },
      {
        "convenience_store_lat": 37.58999878,
        "convenience_store_lon": 127.0082657,
        "convenience_store_type": "편의점",
        "convenience_store_name": "CU 동소문점",
        "distance": 280.59618767042383,
        "walking_time": "약 5분"
      },
      {
        "convenience_store_lat": 37.58721339,
        "convenience_store_lon": 127.0091092,
        "convenience_store_type": "편의점",
        "convenience_store_name": "세븐일레븐 한성대사랑점",
        "distance": 291.17078106623865,
        "walking_time": "약 5분"
      },
      {
        "convenience_store_lat": 37.59183685,
        "convenience_store_lon": 127.0119205,
        "convenience_store_type": "편의점",
        "convenience_store_name": "세븐일레븐 성북동소문점",
        "distance": 299.9890788872217,
        "walking_time": "약 5분"
      }
    ],
    "daycare": [
      {
        "daycare_lat": 37.58905176,
        "daycare_lon": 127.0115523,
        "daycare_type": "어린이집",
        "daycare_name": "자람어린이집",
        "distance": 28.24134231094804,
        "walking_time": "약 1분"
      },
      {
        "daycare_lat": 37.58772770054275,
        "daycare_lon": 127.01170246878505,
        "daycare_type": "어린이집",
        "daycare_name": "키즈몬테소리 어린이집",
        "distance": 166.4620230681429,
        "walking_time": "약 3분"
      },
      {
        "daycare_lat": 37.59035042930217,
        "daycare_lon": 127.01247752593636,
        "daycare_type": "어린이집",
        "daycare_name": "행복가득한어린이집",
        "distance": 166.8853832259248,
        "walking_time": "약 3분"
      },
      {
        "daycare_lat": 37.58828286,
        "daycare_lon": 127.0138836,
        "daycare_type": "어린이집",
        "daycare_name": "제나어린이집",
        "distance": 250.38999817571303,
        "walking_time": "약 4분"
      },
      {
        "daycare_lat": 37.58821386,
        "daycare_lon": 127.0141449,
        "daycare_type": "어린이집",
        "daycare_name": "뉴제나어린이집",
        "distance": 274.56592325400555,
        "walking_time": "약 5분"
      },
      {
        "daycare_lat": 37.59182709,
        "daycare_lon": 127.0111385,
        "daycare_type": "어린이집",
        "daycare_name": "내또래어린이집",
        "distance": 293.83299148680106,
        "walking_time": "약 5분"
      },
      {
        "daycare_lat": 37.58704776,
        "daycare_lon": 127.0091761,
        "daycare_type": "어린이집",
        "daycare_name": "예나 어린이집",
        "distance": 301.63204858015115,
        "walking_time": "약 5분"
      },
      {
        "daycare_lat": 37.59228898,
        "daycare_lon": 127.010453,
        "daycare_type": "어린이집",
        "daycare_name": "엔젤 어린이집",
        "distance": 352.5553264906593,
        "walking_time": "약 6분"
      },
      {
        "daycare_lat": 37.58638773,
        "daycare_lon": 127.013638,
        "daycare_type": "어린이집",
        "daycare_name": "삼선뜰어린이집",
        "distance": 374.1893462172396,
        "walking_time": "약 6분"
      },
      {
        "daycare_lat": 37.5855458,
        "daycare_lon": 127.0108796,
        "daycare_type": "어린이집",
        "daycare_name": "SK키즈몬테소리어린이집",
        "distance": 406.4248605890637,
        "walking_time": "약 7분"
      }
    ],
    "education": [
      {
        "education_lat": 37.58938075,
        "education_lon": 127.0087818,
        "education_type": "공연장",
        "education_name": "공간222",
        "distance": 221.25907141580453,
        "walking_time": "약 4분"
      },
      {
        "education_lat": 37.58971314,
        "education_lon": 127.0057498,
        "education_type": "문화원",
        "education_name": "성북문화원",
        "distance": 490.8589438912328,
        "walking_time": "약 8분"
      },
      {
        "education_lat": 37.594046935524666,
        "education_lon": 127.01056735667494,
        "education_type": "도서관",
        "education_name": "해오름도서관",
        "distance": 544.0459519149006,
        "walking_time": "약 9분"
      },
      {
        "education_lat": 37.58894239,
        "education_lon": 127.0046529,
        "education_type": "공연장",
        "education_name": "여행자극장",
        "distance": 584.6451109325304,
        "walking_time": "약 9분"
      },
      {
        "education_lat": 37.59164697,
        "education_lon": 127.0173509,
        "education_type": "공연장",
        "education_name": "성북마을극장",
        "distance": 600.7103007519709,
        "walking_time": "약 9분"
      },
      {
        "education_lat": 37.59005225,
        "education_lon": 127.004123,
        "education_type": "미술관/갤러리",
        "education_name": "성북예술창작터",
        "distance": 637.9938776798654,
        "walking_time": "약 10분"
      },
      {
        "education_lat": 37.58492375,
        "education_lon": 127.01617601720145,
        "education_type": "도서관",
        "education_name": "보문숲길도서관",
        "distance": 640.9066006955375,
        "walking_time": "약 10분"
      },
      {
        "education_lat": 37.58860934,
        "education_lon": 127.0030123,
        "education_type": "박물관/기념관",
        "education_name": "한양도성 혜화동 전시안내센터",
        "distance": 731.3954861504455,
        "walking_time": "약 11분"
      },
      {
        "education_lat": 37.58760122,
        "education_lon": 127.0032055,
        "education_type": "공연장",
        "education_name": "소극장 공유",
        "distance": 733.074011706686,
        "walking_time": "약 11분"
      },
      {
        "education_lat": 37.58500811051911,
        "education_lon": 127.00464760285244,
        "education_type": "박물관/기념관",
        "education_name": "가톨릭대학교 전례박물관",
        "distance": 746.6946917375246,
        "walking_time": "약 12분"
      }
    ],
    "fitness": [
      {
        "fitness_lat": 37.59033652,
        "fitness_lon": 127.0110107,
        "fitness_type": "운동시설",
        "fitness_name": "백퍼센트짐",
        "distance": 130.02066077314203,
        "walking_time": "약 2분"
      },
      {
        "fitness_lat": 37.59062771,
        "fitness_lon": 127.0101479,
        "fitness_type": "운동시설",
        "fitness_name": "백퍼센트짐 3호점",
        "distance": 188.76324313376008,
        "walking_time": "약 3분"
      },
      {
        "fitness_lat": 37.58915005,
        "fitness_lon": 127.008289,
        "fitness_type": "운동시설",
        "fitness_name": "챠밍여성헬스",
        "distance": 263.6613622093366,
        "walking_time": "약 4분"
      },
      {
        "fitness_lat": 37.58980632,
        "fitness_lon": 127.0083771,
        "fitness_type": "운동시설",
        "fitness_name": "짐포레스트",
        "distance": 264.97099630284725,
        "walking_time": "약 4분"
      },
      {
        "fitness_lat": 37.58672812,
        "fitness_lon": 127.010158,
        "fitness_type": "운동시설",
        "fitness_name": "프리원핏 한성대점",
        "distance": 290.7696652978771,
        "walking_time": "약 5분"
      },
      {
        "fitness_lat": 37.58876516,
        "fitness_lon": 127.0079823,
        "fitness_type": "운동시설",
        "fitness_name": "건강한 PT studio",
        "distance": 294.414484257436,
        "walking_time": "약 5분"
      },
      {
        "fitness_lat": 37.58940607,
        "fitness_lon": 127.0075324,
        "fitness_type": "운동시설",
        "fitness_name": "본피트니스",
        "distance": 331.19092296416324,
        "walking_time": "약 5분"
      },
      {
        "fitness_lat": 37.58873277,
        "fitness_lon": 127.0073336,
        "fitness_type": "운동시설",
        "fitness_name": "H.M.A.C (HUMAN MOVEMENT ACTIVATION CENTER)",
        "distance": 351.460139007082,
        "walking_time": "약 6분"
      },
      {
        "fitness_lat": 37.58746945,
        "fitness_lon": 127.007871,
        "fitness_type": "운동시설",
        "fitness_name": "봄핏 바른체형운동&PT",
        "distance": 356.02338180416695,
        "walking_time": "약 6분"
      },
      {
        "fitness_lat": 37.59161293,
        "fitness_lon": 127.0153122,
        "fitness_type": "운동시설",
        "fitness_name": "돈암헬스",
        "distance": 446.0098433399697,
        "walking_time": "약 7분"
      }
    ],
    "gas_station": [
      {
        "gas_station_lat": 37.58798513,
        "gas_station_lon": 127.0055411,
        "gas_station_type": "주유소",
        "gas_station_name": "삼선주유소",
        "distance": 523.1136742385409,
        "walking_time": "약 8분"
      },
      {
        "gas_station_lat": 37.58767101,
        "gas_station_lon": 127.0183894,
        "gas_station_type": "주유소",
        "gas_station_name": "(주)성북주유소",
        "distance": 648.6250887778589,
        "walking_time": "약 10분"
      },
      {
        "gas_station_lat": 37.58606542,
        "gas_station_lon": 127.0010786,
        "gas_station_type": "주유소",
        "gas_station_name": "㈜중앙에너비스 혜화지점",
        "distance": 963.6502833922488,
        "walking_time": "약 15분"
      },
      {
        "gas_station_lat": 37.58295795,
        "gas_station_lon": 127.0203742,
        "gas_station_type": "주유소",
        "gas_station_name": "동일주유소",
        "distance": 1059.1255110379768,
        "walking_time": "약 16분"
      },
      {
        "gas_station_lat": 37.57794807,
        "gas_station_lon": 127.0228008,
        "gas_station_type": "주유소",
        "gas_station_name": "이케이에너지 주식회사",
        "distance": 1610.0349714290346,
        "walking_time": "약 25분"
      },
      {
        "gas_station_lat": 37.57004131,
        "gas_station_lon": 127.0273918,
        "gas_station_type": "주유소",
        "gas_station_name": "청계로주유소",
        "distance": 2558.8780347981565,
        "walking_time": "약 39분"
      }
    ],
    "hospital": [
      {
        "hospital_lat": 37.58942364,
        "hospital_lon": 127.0098775,
        "hospital_type": "병원",
        "hospital_name": "효담한의원",
        "distance": 126.43260062550952,
        "walking_time": "약 2분"
      },
      {
        "hospital_lat": 37.58994251,
        "hospital_lon": 127.0100952,
        "hospital_type": "병원",
        "hospital_name": "연세효상의원",
        "distance": 134.06703975482918,
        "walking_time": "약 3분"
      },
      {
        "hospital_lat": 37.58982233,
        "hospital_lon": 127.0098764,
        "hospital_type": "병원",
        "hospital_name": "구복한의원",
        "distance": 142.50439126840496,
        "walking_time": "약 3분"
      },
      {
        "hospital_lat": 37.58982233,
        "hospital_lon": 127.0098764,
        "hospital_type": "병원",
        "hospital_name": "맘편한내과의원",
        "distance": 142.50439126840496,
        "walking_time": "약 3분"
      },
      {
        "hospital_lat": 37.58982233,
        "hospital_lon": 127.0098764,
        "hospital_type": "병원",
        "hospital_name": "정안한의원",
        "distance": 142.50439126840496,
        "walking_time": "약 3분"
      },
      {
        "hospital_lat": 37.58975414,
        "hospital_lon": 127.0097057,
        "hospital_type": "병원",
        "hospital_name": "삼선서울내과의원",
        "distance": 152.45578681978512,
        "walking_time": "약 3분"
      },
      {
        "hospital_lat": 37.58965136,
        "hospital_lon": 127.0094099,
        "hospital_type": "병원",
        "hospital_name": "서울바른소아치과의원",
        "distance": 172.76137180054465,
        "walking_time": "약 3분"
      },
      {
        "hospital_lat": 37.58960119,
        "hospital_lon": 127.0092714,
        "hospital_type": "병원",
        "hospital_name": "종각한의원",
        "distance": 182.9597552623134,
        "walking_time": "약 3분"
      },
      {
        "hospital_lat": 37.59062771,
        "hospital_lon": 127.0101479,
        "hospital_type": "병원",
        "hospital_name": "정의원",
        "distance": 188.76324313376008,
        "walking_time": "약 3분"
      },
      {
        "hospital_lat": 37.59090102,
        "hospital_lon": 127.0107286,
        "hospital_type": "병원",
        "hospital_name": "속편한내과의원",
        "distance": 196.7070245738873,
        "walking_time": "약 3분"
      }
    ],
    "music_room": [
      {
        "music_room_lat": 37.58811674,
        "music_room_lon": 127.0100914,
        "music_room_type": "노래방",
        "music_room_name": "휴 노래연습장",
        "distance": 158.58627762490187,
        "walking_time": "약 3분"
      },
      {
        "music_room_lat": 37.58823636,
        "music_room_lon": 127.0093429,
        "music_room_type": "노래방",
        "music_room_name": "새서울 노래연습장",
        "distance": 200.8386126598455,
        "walking_time": "약 3분"
      },
      {
        "music_room_lat": 37.58803119,
        "music_room_lon": 127.0094934,
        "music_room_type": "노래방",
        "music_room_name": "임프 노래연습장",
        "distance": 203.2893870163288,
        "walking_time": "약 4분"
      },
      {
        "music_room_lat": 37.58798084,
        "music_room_lon": 127.009371,
        "music_room_type": "노래방",
        "music_room_name": "MBC 노래연습장",
        "distance": 215.19940298615617,
        "walking_time": "약 4분"
      },
      {
        "music_room_lat": 37.59097853,
        "music_room_lon": 127.0131312,
        "music_room_type": "노래방",
        "music_room_name": "칭찬 노래연습장",
        "distance": 257.4108196070508,
        "walking_time": "약 4분"
      },
      {
        "music_room_lat": 37.58888236,
        "music_room_lon": 127.0082493,
        "music_room_type": "노래방",
        "music_room_name": "도레미 노래연습장",
        "distance": 269.267089135058,
        "walking_time": "약 5분"
      },
      {
        "music_room_lat": 37.5890076,
        "music_room_lon": 127.0081939,
        "music_room_type": "노래방",
        "music_room_name": "팝콘 노래연습장",
        "distance": 272.7395008054321,
        "walking_time": "약 5분"
      },
      {
        "music_room_lat": 37.59022645,
        "music_room_lon": 127.0140855,
        "music_room_type": "노래방",
        "music_room_name": "뉴필립스 노래연습장",
        "distance": 272.80176915256664,
        "walking_time": "약 5분"
      },
      {
        "music_room_lat": 37.58709786,
        "music_room_lon": 127.0094719,
        "music_room_type": "노래방",
        "music_room_name": "SBS노래연습장",
        "distance": 281.7337820674939,
        "walking_time": "약 5분"
      },
      {
        "music_room_lat": 37.58721339,
        "music_room_lon": 127.0091092,
        "music_room_type": "노래방",
        "music_room_name": "리코스타 코인노래연습장",
        "distance": 291.17078106623865,
        "walking_time": "약 5분"
      }
    ],
    "park": [
      {
        "park_lat": 37.5948509,
        "park_lon": 127.0078625,
        "park_type": "공원",
        "park_name": "성북근린공원",
        "distance": 698.1146202287608,
        "walking_time": "약 11분"
      },
      {
        "park_lat": 37.580477,
        "park_lon": 127.007587,
        "park_type": "공원",
        "park_name": "낙산근린공원",
        "distance": 1021.7432513333092,
        "walking_time": "약 16분"
      },
      {
        "park_lat": 37.5802295,
        "park_lon": 127.0027886,
        "park_type": "공원",
        "park_name": "마로니에공원",
        "distance": 1245.8165991713834,
        "walking_time": "약 19분"
      },
      {
        "park_lat": 37.5965837,
        "park_lon": 127.0252858,
        "park_type": "공원",
        "park_name": "개운산근린공원",
        "distance": 1482.9117377338555,
        "walking_time": "약 23분"
      },
      {
        "park_lat": 37.5764419,
        "park_lon": 127.0178267,
        "park_type": "공원",
        "park_name": "숭인근린공원",
        "distance": 1530.0742340072256,
        "walking_time": "약 23분"
      }
    ],
    "park_station": [
      {
        "park_station_lat": 37.5857462,
        "park_station_lon": 127.0146177,
        "park_station_type": "주차장",
        "park_station_name": "경동고",
        "distance": 482.5174896203861,
        "walking_time": "약 8분"
      },
      {
        "park_station_lat": 37.58023405,
        "park_station_lon": 127.0087948,
        "park_station_type": "주차장",
        "park_station_name": "낙산성곽 버스전용 주차장",
        "distance": 1019.3426571352508,
        "walking_time": "약 16분"
      },
      {
        "park_station_lat": 37.59917503,
        "park_station_lon": 127.0147062,
        "park_station_type": "주차장",
        "park_station_name": "시네마빌딩공영주차장",
        "distance": 1150.8881012726963,
        "walking_time": "약 18분"
      },
      {
        "park_station_lat": 37.57738318,
        "park_station_lon": 127.01221,
        "park_station_type": "주차장",
        "park_station_name": "낙산공영",
        "distance": 1315.075280380158,
        "walking_time": "약 20분"
      },
      {
        "park_station_lat": 37.57629006,
        "park_station_lon": 127.0125354,
        "park_station_type": "주차장",
        "park_station_name": "창삼공영",
        "distance": 1438.3279906293478,
        "walking_time": "약 22분"
      },
      {
        "park_station_lat": 37.57732181,
        "park_station_lon": 127.018529,
        "park_station_type": "주차장",
        "park_station_name": "종로63가길 이륜차 주차장",
        "distance": 1465.8092074264646,
        "walking_time": "약 22분"
      },
      {
        "park_station_lat": 37.57598437,
        "park_station_lon": 127.0123679,
        "park_station_type": "주차장",
        "park_station_name": "공유) 창신동 49번~53번",
        "distance": 1471.1864006595747,
        "walking_time": "약 22분"
      },
      {
        "park_station_lat": 37.57653377,
        "park_station_lon": 127.0055642,
        "park_station_type": "주차장",
        "park_station_name": "이화공영",
        "distance": 1494.439939575349,
        "walking_time": "약 23분"
      },
      {
        "park_station_lat": 37.5968653,
        "park_station_lon": 127.0263303,
        "park_station_type": "주차장",
        "park_station_name": "개운산",
        "distance": 1577.0503129425642,
        "walking_time": "약 24분"
      },
      {
        "park_station_lat": 37.57487593,
        "park_station_lon": 127.0150568,
        "park_station_type": "주차장",
        "park_station_name": "창신1동공영주차장",
        "distance": 1625.730222899199,
        "walking_time": "약 25분"
      }
    ],
    "pc_room": [
      {
        "pc_room_lat": 37.5870978553531,
        "pc_room_lon": 127.009471864277,
        "pc_room_type": "PC방",
        "pc_room_name": "3POP 피시방",
        "distance": 281.7359890637217,
        "walking_time": "약 5분"
      },
      {
        "pc_room_lat": 37.5908139536716,
        "pc_room_lon": 127.017694871938,
        "pc_room_type": "PC방",
        "pc_room_name": "헬리우스",
        "distance": 593.3791813690144,
        "walking_time": "약 9분"
      },
      {
        "pc_room_lat": 37.590493096497,
        "pc_room_lon": 127.004312680521,
        "pc_room_type": "PC방",
        "pc_room_name": "긱스타 PC방",
        "distance": 630.925650704879,
        "walking_time": "약 10분"
      },
      {
        "pc_room_lat": 37.5925747617089,
        "pc_room_lon": 127.017088831326,
        "pc_room_type": "PC방",
        "pc_room_name": "브리즈 pc 카페",
        "distance": 635.4260349366344,
        "walking_time": "약 10분"
      },
      {
        "pc_room_lat": 37.5908419743847,
        "pc_room_lon": 127.01885953079,
        "pc_room_type": "PC방",
        "pc_room_name": "해피 PC방",
        "distance": 692.6411689875155,
        "walking_time": "약 11분"
      },
      {
        "pc_room_lat": 37.5935007844555,
        "pc_room_lon": 127.018398672357,
        "pc_room_type": "PC방",
        "pc_room_name": "이스포츠PC방 - 158대",
        "distance": 789.5416705761152,
        "walking_time": "약 12분"
      },
      {
        "pc_room_lat": 37.5935007844555,
        "pc_room_lon": 127.018398672357,
        "pc_room_type": "PC방",
        "pc_room_name": "이스포츠PC방",
        "distance": 789.5416705761152,
        "walking_time": "약 12분"
      },
      {
        "pc_room_lat": 37.5935007844555,
        "pc_room_lon": 127.018398672357,
        "pc_room_type": "PC방",
        "pc_room_name": "로제PC방",
        "distance": 789.5416705761152,
        "walking_time": "약 12분"
      },
      {
        "pc_room_lat": 37.5956412381816,
        "pc_room_lon": 127.01615614302,
        "pc_room_type": "PC방",
        "pc_room_name": "일프로 PC 아레나",
        "distance": 836.399742284374,
        "walking_time": "약 13분"
      },
      {
        "pc_room_lat": 37.583713478664,
        "pc_room_lon": 127.020603298681,
        "pc_room_type": "PC방",
        "pc_room_name": "앤유PC",
        "distance": 1022.3387579332912,
        "walking_time": "약 16분"
      }
    ],
    "police_office": [
      {
        "police_office_lat": 37.58672153,
        "police_office_lon": 127.0165984,
        "police_office_type": "경찰소",
        "police_office_name": "안암지구대",
        "distance": 542.8430192755699,
        "walking_time": "약 9분"
      },
      {
        "police_office_lat": 37.59732258,
        "police_office_lon": 127.0124034,
        "police_office_type": "경찰소",
        "police_office_name": "돈암지구대",
        "distance": 910.0243281871692,
        "walking_time": "약 14분"
      },
      {
        "police_office_lat": 37.5861084,
        "police_office_lon": 127.0014075,
        "police_office_type": "경찰소",
        "police_office_name": "혜화파출소",
        "distance": 934.9125694433768,
        "walking_time": "약 14분"
      },
      {
        "police_office_lat": 37.57849369,
        "police_office_lon": 127.013542,
        "police_office_type": "경찰소",
        "police_office_name": "창신파출소",
        "distance": 1205.6179761991084,
        "walking_time": "약 18분"
      },
      {
        "police_office_lat": 37.57861171,
        "police_office_lon": 127.0060453,
        "police_office_type": "경찰소",
        "police_office_name": "대학로파출소",
        "distance": 1263.1846107242184,
        "walking_time": "약 19분"
      },
      {
        "police_office_lat": 37.57598518,
        "police_office_lon": 127.0105262,
        "police_office_type": "경찰소",
        "police_office_name": "덕산파출소",
        "distance": 1469.4814357779833,
        "walking_time": "약 22분"
      },
      {
        "police_office_lat": 37.57294307,
        "police_office_lon": 127.0048665,
        "police_office_type": "경찰소",
        "police_office_name": "효제파출소",
        "distance": 1892.6231471844603,
        "walking_time": "약 29분"
      },
      {
        "police_office_lat": 37.57269632,
        "police_office_lon": 127.0171175,
        "police_office_type": "경찰소",
        "police_office_name": "동묘파출소",
        "distance": 1904.443829695004,
        "walking_time": "약 29분"
      },
      {
        "police_office_lat": 37.57073671,
        "police_office_lon": 127.0016317,
        "police_office_type": "경찰소",
        "police_office_name": "종로5가파출소",
        "distance": 2220.814413207255,
        "walking_time": "약 34분"
      }
    ],
    "post_office": [
      {
        "post_office_lat": 37.58964925,
        "post_office_lon": 127.0073916,
        "post_office_type": "우체국",
        "post_office_name": "서울동소문동우체국",
        "distance": 346.53255304805515,
        "walking_time": "약 6분"
      },
      {
        "post_office_lat": 37.59019237,
        "post_office_lon": 127.0157069,
        "post_office_type": "우체국",
        "post_office_name": "서울돈암동우체국",
        "distance": 405.6768763459723,
        "walking_time": "약 7분"
      },
      {
        "post_office_lat": 37.58323585,
        "post_office_lon": 127.01039,
        "post_office_type": "우체국",
        "post_office_name": "한성대학교우편취급국",
        "distance": 666.3787574091639,
        "walking_time": "약 10분"
      },
      {
        "post_office_lat": 37.59264968,
        "post_office_lon": 127.0018981,
        "post_office_type": "우체국",
        "post_office_name": "서울성북2동우편취급국",
        "distance": 911.9856513517888,
        "walking_time": "약 14분"
      },
      {
        "post_office_lat": 37.58039622,
        "post_office_lon": 127.0110117,
        "post_office_type": "우체국",
        "post_office_name": "서울창신2동우편취급국",
        "distance": 977.7781301338882,
        "walking_time": "약 15분"
      },
      {
        "post_office_lat": 37.58588676,
        "post_office_lon": 127.0007091,
        "post_office_type": "우체국",
        "post_office_name": "서울혜화동우체국",
        "distance": 1001.2025939496232,
        "walking_time": "약 15분"
      },
      {
        "post_office_lat": 37.57800483,
        "post_office_lon": 127.0155694,
        "post_office_type": "우체국",
        "post_office_name": "서울숭인동우체국",
        "distance": 1299.5546399788443,
        "walking_time": "약 20분"
      },
      {
        "post_office_lat": 37.57919549,
        "post_office_lon": 127.0032909,
        "post_office_type": "우체국",
        "post_office_name": "한국방송통신대학교우편취급국",
        "distance": 1315.3104729271834,
        "walking_time": "약 20분"
      },
      {
        "post_office_lat": 37.5818354,
        "post_office_lon": 127.0246137,
        "post_office_type": "우체국",
        "post_office_name": "서울삼익아파트우편취급국",
        "distance": 1431.239210625156,
        "walking_time": "약 22분"
      },
      {
        "post_office_lat": 37.5728892,
        "post_office_lon": 127.0065961,
        "post_office_type": "우체국",
        "post_office_name": "서울종로6가우편취급국",
        "distance": 1858.6615304482689,
        "walking_time": "약 28분"
      }
    ],
    "public_health_center": [
      {
        "public_health_center_lat": 37.59360802,
        "public_health_center_lon": 127.015754,
        "public_health_center_type": "보건소",
        "public_health_center_name": "동선보건지소",
        "distance": 630.0704417507178,
        "walking_time": "약 10분"
      }
    ],
    "school": [
      {
        "school_lat": 37.5871415236472,
        "school_lon": 127.012671844176,
        "school_type": "초등학교",
        "school_name": "서울삼선초등학교",
        "distance": 258.3615209904268,
        "walking_time": "약 4분"
      },
      {
        "school_lat": 37.5917443908697,
        "school_lon": 127.007872876935,
        "school_type": "중학교",
        "school_name": "삼선중학교",
        "distance": 413.5690177024055,
        "walking_time": "약 7분"
      },
      {
        "school_lat": 37.5859418116443,
        "school_lon": 127.01457927632,
        "school_type": "고등학교",
        "school_name": "경동고등학교부설방송통신고등학교",
        "distance": 463.32796413821086,
        "walking_time": "약 7분"
      },
      {
        "school_lat": 37.5859418116443,
        "school_lon": 127.01457927632,
        "school_type": "고등학교",
        "school_name": "경동고등학교",
        "distance": 463.32796413821086,
        "walking_time": "약 7분"
      },
      {
        "school_lat": 37.5937262094153,
        "school_lon": 127.013004275409,
        "school_type": "초등학교",
        "school_name": "서울돈암초등학교",
        "distance": 527.080198748352,
        "walking_time": "약 8분"
      },
      {
        "school_lat": 37.5941065881018,
        "school_lon": 127.008215538987,
        "school_type": "고등학교",
        "school_name": "서울동구고등학교",
        "distance": 610.0783966944756,
        "walking_time": "약 10분"
      },
      {
        "school_lat": 37.5941065881018,
        "school_lon": 127.008215538987,
        "school_type": "중학교",
        "school_name": "동구여자중학교",
        "distance": 610.0783966944756,
        "walking_time": "약 10분"
      },
      {
        "school_lat": 37.583064896247,
        "school_lon": 127.011742675693,
        "school_type": "고등학교",
        "school_name": "한성여자고등학교",
        "distance": 681.9613035425635,
        "walking_time": "약 11분"
      },
      {
        "school_lat": 37.5956408923336,
        "school_lon": 127.011400646113,
        "school_type": "초등학교",
        "school_name": "우촌초등학교",
        "distance": 717.7175064539483,
        "walking_time": "약 11분"
      },
      {
        "school_lat": 37.5819996035219,
        "school_lon": 127.011312749775,
        "school_type": "중학교",
        "school_name": "한성여자중학교",
        "distance": 799.2069208023064,
        "walking_time": "약 12분"
      }
    ],
    "self_laundromat": [
      {
        "self_laundromat_lat": 37.58984395,
        "self_laundromat_lon": 127.0127563,
        "self_laundromat_type": "셀프 빨래방",
        "self_laundromat_name": "코런셀프빨래방 한성대점",
        "distance": 149.10959925882614,
        "walking_time": "약 3분"
      },
      {
        "self_laundromat_lat": 37.58984395,
        "self_laundromat_lon": 127.0127563,
        "self_laundromat_type": "셀프 빨래방",
        "self_laundromat_name": "코런셀프빨래방 한성대점",
        "distance": 149.10959925882614,
        "walking_time": "약 3분"
      },
      {
        "self_laundromat_lat": 37.59212832,
        "self_laundromat_lon": 127.0128115,
        "self_laundromat_type": "셀프 빨래방",
        "self_laundromat_name": "워시프렌즈 셀프빨래방 동소문동점",
        "distance": 353.7699341087952,
        "walking_time": "약 6분"
      },
      {
        "self_laundromat_lat": 37.59212832,
        "self_laundromat_lon": 127.0128115,
        "self_laundromat_type": "셀프 빨래방",
        "self_laundromat_name": "워시프렌즈 셀프빨래방 동소문동점",
        "distance": 353.7699341087952,
        "walking_time": "약 6분"
      },
      {
        "self_laundromat_lat": 37.58633535,
        "self_laundromat_lon": 127.0094068,
        "self_laundromat_type": "셀프 빨래방",
        "self_laundromat_name": "셀프빨래방24시 한성대점",
        "distance": 357.5152691567192,
        "walking_time": "약 6분"
      },
      {
        "self_laundromat_lat": 37.58633535,
        "self_laundromat_lon": 127.0094068,
        "self_laundromat_type": "셀프 빨래방",
        "self_laundromat_name": "셀프빨래방24시 한성대점",
        "distance": 357.5152691567192,
        "walking_time": "약 6분"
      },
      {
        "self_laundromat_lat": 37.588235,
        "self_laundromat_lon": 127.0154408,
        "self_laundromat_type": "셀프 빨래방",
        "self_laundromat_name": "코인워시365 성북구청점",
        "distance": 381.5084266395111,
        "walking_time": "약 6분"
      },
      {
        "self_laundromat_lat": 37.588235,
        "self_laundromat_lon": 127.0154408,
        "self_laundromat_type": "셀프 빨래방",
        "self_laundromat_name": "코인워시365 성북구청점",
        "distance": 381.5084266395111,
        "walking_time": "약 6분"
      },
      {
        "self_laundromat_lat": 37.59267591,
        "self_laundromat_lon": 127.0122857,
        "self_laundromat_type": "셀프 빨래방",
        "self_laundromat_name": "크린토피아 코인워시 돈암초교점",
        "distance": 397.9207169621038,
        "walking_time": "약 6분"
      },
      {
        "self_laundromat_lat": 37.59267591,
        "self_laundromat_lon": 127.0122857,
        "self_laundromat_type": "셀프 빨래방",
        "self_laundromat_name": "크린토피아 코인워시 돈암초교점",
        "distance": 397.9207169621038,
        "walking_time": "약 6분"
      }
    ],
    "subway": [
      {
        "subway_lat": 37.5883948842004,
        "subway_lon": 127.00595033342,
        "subway_type": "지하철",
        "subway_name": "4호선-한성대입구(삼선교)역",
        "distance": 477.8820974206571,
        "walking_time": "약 8분"
      },
      {
        "subway_lat": 37.5927179261346,
        "subway_lon": 127.016477649743,
        "subway_type": "지하철",
        "subway_name": "4호선-성신여대입구(돈암)역",
        "distance": 603.1576512059314,
        "walking_time": "약 10분"
      },
      {
        "subway_lat": 37.5855493513282,
        "subway_lon": 127.019489277672,
        "subway_type": "지하철",
        "subway_name": "6호선-보문역",
        "distance": 828.6834524973151,
        "walking_time": "약 13분"
      },
      {
        "subway_lat": 37.5800168892429,
        "subway_lon": 127.015211194258,
        "subway_type": "지하철",
        "subway_name": "6호선-창신역",
        "distance": 1076.8757619702803,
        "walking_time": "약 17분"
      },
      {
        "subway_lat": 37.5818758763205,
        "subway_lon": 127.002292683609,
        "subway_type": "지하철",
        "subway_name": "4호선-혜화역",
        "distance": 1134.9831155472623,
        "walking_time": "약 17분"
      },
      {
        "subway_lat": 37.5864696091911,
        "subway_lon": 127.0291828742,
        "subway_type": "지하철",
        "subway_name": "6호선-안암(고대병원앞)역",
        "distance": 1606.0675812494153,
        "walking_time": "약 24분"
      },
      {
        "subway_lat": 37.5733722075697,
        "subway_lon": 127.01675118037,
        "subway_type": "지하철",
        "subway_name": "1호선-동묘앞역",
        "distance": 1823.39467895292,
        "walking_time": "약 28분"
      },
      {
        "subway_lat": 37.5722005208773,
        "subway_lon": 127.015678133819,
        "subway_type": "지하철",
        "subway_name": "6호선-동묘앞역",
        "distance": 1928.145865755661,
        "walking_time": "약 29분"
      },
      {
        "subway_lat": 37.5716332944196,
        "subway_lon": 127.01140072111,
        "subway_type": "지하철",
        "subway_name": "1호선-동대문역",
        "distance": 1951.911515916418,
        "walking_time": "약 30분"
      },
      {
        "subway_lat": 37.5747187974165,
        "subway_lon": 127.025093714935,
        "subway_type": "지하철",
        "subway_name": "1호선-신설동역",
        "distance": 2017.355824507728,
        "walking_time": "약 31분"
      }
    ],
    "supermarket": [
      {
        "supermarket_lat": 37.58793012,
        "supermarket_lon": 127.0065937,
        "supermarket_type": "마트",
        "supermarket_name": "홈플러스익스프레스 삼선점",
        "distance": 436.0138819421861,
        "walking_time": "약 7분"
      },
      {
        "supermarket_lat": 37.59153653,
        "supermarket_lon": 127.0159183,
        "supermarket_type": "마트",
        "supermarket_name": "돈암시장",
        "distance": 484.9767377160606,
        "walking_time": "약 8분"
      },
      {
        "supermarket_lat": 37.59447253,
        "supermarket_lon": 127.012706,
        "supermarket_type": "마트",
        "supermarket_name": "동소문스카이상가",
        "distance": 600.9854554316479,
        "walking_time": "약 9분"
      },
      {
        "supermarket_lat": 37.59447253,
        "supermarket_lon": 127.012706,
        "supermarket_type": "마트",
        "supermarket_name": "동소문스카이상가",
        "distance": 600.9854554316479,
        "walking_time": "약 9분"
      },
      {
        "supermarket_lat": 37.59447253,
        "supermarket_lon": 127.012706,
        "supermarket_type": "마트",
        "supermarket_name": "GS슈퍼마켓 동소문점",
        "distance": 600.9854554316479,
        "walking_time": "약 9분"
      },
      {
        "supermarket_lat": 37.59257476,
        "supermarket_lon": 127.0170888,
        "supermarket_type": "마트",
        "supermarket_name": "유타쇼핑몰",
        "distance": 635.4236995029872,
        "walking_time": "약 10분"
      },
      {
        "supermarket_lat": 37.5858003,
        "supermarket_lon": 127.0188005,
        "supermarket_type": "마트",
        "supermarket_name": "GS THE FRESH 보문역사거리점",
        "distance": 762.1106584936489,
        "walking_time": "약 12분"
      },
      {
        "supermarket_lat": 37.58287311,
        "supermarket_lon": 127.0178911,
        "supermarket_type": "마트",
        "supermarket_name": "(주)지에스리테일 성북보문점",
        "distance": 912.2245469521074,
        "walking_time": "약 14분"
      },
      {
        "supermarket_lat": 37.59738598,
        "supermarket_lon": 127.019323,
        "supermarket_type": "마트",
        "supermarket_name": "GS슈퍼마켓 돈암점",
        "distance": 1154.649962913034,
        "walking_time": "약 18분"
      },
      {
        "supermarket_lat": 37.58077519,
        "supermarket_lon": 127.0214395,
        "supermarket_type": "마트",
        "supermarket_name": "홈플러스익스프레스 보문점",
        "distance": 1294.6577566881197,
        "walking_time": "약 20분"
      }
    ],
    "tax_office": [
      {
        "tax_office_lat": 37.58790069,
        "tax_office_lon": 127.0109264,
        "tax_office_type": "세무서",
        "tax_office_name": "성북세무서",
        "distance": 146.40400220261296,
        "walking_time": "약 3분"
      }
    ],
    "theater": [
      {
        "theater_lat": 37.5925747617089,
        "theater_lon": 127.017088831326,
        "theater_type": "영화관",
        "theater_name": "CGV 성신여대입구",
        "distance": 635.4260349366344,
        "walking_time": "약 10분"
      }
    ],
    "university": [
      {
        "university_lat": 37.5832358514072,
        "university_lon": 127.010390004805,
        "university_type": "대학교",
        "university_name": "한성대학교",
        "distance": 666.3785521430601,
        "walking_time": "약 10분"
      },
      {
        "university_lat": 37.5849009775207,
        "university_lon": 127.004770664086,
        "university_type": "대학교",
        "university_name": "가톨릭대학교",
        "distance": 745.793567437006,
        "walking_time": "약 12분"
      },
      {
        "university_lat": 37.5946591280857,
        "university_lon": 127.019888420673,
        "university_type": "대학교",
        "university_name": "성신여자대학교",
        "distance": 972.3093276089188,
        "walking_time": "약 15분"
      },
      {
        "university_lat": 37.5791954862382,
        "university_lon": 127.003290880975,
        "university_type": "대학교",
        "university_name": "한국방송통신대학교",
        "distance": 1315.3117236263051,
        "walking_time": "약 20분"
      }
    ]
  }
}