{
  "클러스터_위도": 37.625311,
  "클러스터_경도": 127.071238,
  "클러스터_level": 3.0,
  "facilities": {
    "bus": [
      {
        "bus_lat": 37.62539155,
        "bus_lon": 127.0713065,
        "bus_type": "버스정류장",
        "bus_name": "공릉신도2차아파트",
        "distance": 10.7989268432427,
        "walking_time": "약 1분"
      },
      {
        "bus_lat": 37.62541227,
        "bus_lon": 127.0715005,
        "bus_type": "버스정류장",
        "bus_name": "공릉신도2차아파트",
        "distance": 25.714689299171543,
        "walking_time": "약 1분"
      },
      {
        "bus_lat": 37.62524187,
        "bus_lon": 127.0718695,
        "bus_type": "버스정류장",
        "bus_name": "건민약국앞",
        "distance": 56.14406411798512,
        "walking_time": "약 1분"
      },
      {
        "bus_lat": 37.62501383,
        "bus_lon": 127.0719758,
        "bus_type": "버스정류장",
        "bus_name": "건민약국앞",
        "distance": 72.8966559019583,
        "walking_time": "약 2분"
      },
      {
        "bus_lat": 37.62660953,
        "bus_lon": 127.072313,
        "bus_type": "버스정류장",
        "bus_name": "공릉역4번출구",
        "distance": 172.6598399760148,
        "walking_time": "약 3분"
      },
      {
        "bus_lat": 37.62687062,
        "bus_lon": 127.071052,
        "bus_type": "버스정류장",
        "bus_name": "공릉대동2차아파트",
        "distance": 174.1937293583329,
        "walking_time": "약 3분"
      },
      {
        "bus_lat": 37.62669038,
        "bus_lon": 127.0727039,
        "bus_type": "버스정류장",
        "bus_name": "공릉역1번출구",
        "distance": 200.4791372719893,
        "walking_time": "약 3분"
      },
      {
        "bus_lat": 37.62712923,
        "bus_lon": 127.0707518,
        "bus_type": "버스정류장",
        "bus_name": "공릉대동2차아파트",
        "distance": 206.662387357204,
        "walking_time": "약 4분"
      },
      {
        "bus_lat": 37.62598959,
        "bus_lon": 127.0736172,
        "bus_type": "버스정류장",
        "bus_name": "공릉역",
        "distance": 222.70424419199503,
        "walking_time": "약 4분"
      },
      {
        "bus_lat": 37.62299041,
        "bus_lon": 127.0713043,
        "bus_type": "버스정류장",
        "bus_name": "공릉대아2차아파트",
        "distance": 258.1038910724697,
        "walking_time": "약 4분"
      }
    ],
    "community_center": [
      {
        "community_center_lat": 37.62477801,
        "community_center_lon": 127.0737505,
        "community_center_type": "주민센터",
        "community_center_name": "공릉1동 자치회관",
        "distance": 229.07258749373327,
        "walking_time": "약 4분"
      },
      {
        "community_center_lat": 37.62100498,
        "community_center_lon": 127.0692318,
        "community_center_type": "주민센터",
        "community_center_name": "월계3동 자치회관",
        "distance": 510.3679785622479,
        "walking_time": "약 8분"
      },
      {
        "community_center_lat": 37.63204326,
        "community_center_lon": 127.0679518,
        "community_center_type": "주민센터",
        "community_center_name": "하계2동 자치회관",
        "distance": 802.5851302245503,
        "walking_time": "약 12분"
      },
      {
        "community_center_lat": 37.61999186,
        "community_center_lon": 127.0628833,
        "community_center_type": "주민센터",
        "community_center_name": "월계1동 자치회관",
        "distance": 944.059071695025,
        "walking_time": "약 15분"
      },
      {
        "community_center_lat": 37.62128712,
        "community_center_lon": 127.0833787,
        "community_center_type": "주민센터",
        "community_center_name": "공릉2동 자치회관",
        "distance": 1159.0857500314437,
        "walking_time": "약 18분"
      },
      {
        "community_center_lat": 37.61241458,
        "community_center_lon": 127.0784793,
        "community_center_type": "주민센터",
        "community_center_name": "묵1동 자치회관",
        "distance": 1569.45051332077,
        "walking_time": "약 24분"
      },
      {
        "community_center_lat": 37.61297096,
        "community_center_lon": 127.0614241,
        "community_center_type": "주민센터",
        "community_center_name": "석관동 자치회관",
        "distance": 1621.7051727564271,
        "walking_time": "약 25분"
      }
    ],
    "convenience_store": [
      {
        "convenience_store_lat": 37.62547692,
        "convenience_store_lon": 127.0730052,
        "convenience_store_type": "편의점",
        "convenience_store_name": "GS25 S공릉역점",
        "distance": 156.72438797386653,
        "walking_time": "약 3분"
      },
      {
        "convenience_store_lat": 37.62614199,
        "convenience_store_lon": 127.0730666,
        "convenience_store_type": "편의점",
        "convenience_store_name": "세븐일레븐 공릉역점",
        "distance": 185.66751192882225,
        "walking_time": "약 3분"
      },
      {
        "convenience_store_lat": 37.62525727,
        "convenience_store_lon": 127.0734318,
        "convenience_store_type": "편의점",
        "convenience_store_name": "CU 공릉사거리점",
        "distance": 193.29733720639413,
        "walking_time": "약 3분"
      },
      {
        "convenience_store_lat": 37.62553621,
        "convenience_store_lon": 127.0735762,
        "convenience_store_type": "편의점",
        "convenience_store_name": "GS25 S공릉역점",
        "distance": 207.43881670346127,
        "walking_time": "약 4분"
      },
      {
        "convenience_store_lat": 37.62617032,
        "convenience_store_lon": 127.0738705,
        "convenience_store_type": "편의점",
        "convenience_store_name": "GS25 공릉점",
        "distance": 250.75812611910504,
        "walking_time": "약 4분"
      },
      {
        "convenience_store_lat": 37.62766279,
        "convenience_store_lon": 127.0696059,
        "convenience_store_type": "편의점",
        "convenience_store_name": "CU 공릉신도점",
        "distance": 298.40505906336614,
        "walking_time": "약 5분"
      },
      {
        "convenience_store_lat": 37.62849889,
        "convenience_store_lon": 127.0718707,
        "convenience_store_type": "편의점",
        "convenience_store_name": "세븐일레븐 공릉제일점",
        "distance": 358.82973571356723,
        "walking_time": "약 6분"
      },
      {
        "convenience_store_lat": 37.62293008,
        "convenience_store_lon": 127.0741967,
        "convenience_store_type": "편의점",
        "convenience_store_name": "세븐일레븐 공릉시장점",
        "distance": 371.46834323230127,
        "walking_time": "약 6분"
      },
      {
        "convenience_store_lat": 37.62805406,
        "convenience_store_lon": 127.0685738,
        "convenience_store_type": "편의점",
        "convenience_store_name": "CU 공릉라이프점",
        "distance": 384.81694723472594,
        "walking_time": "약 6분"
      },
      {
        "convenience_store_lat": 37.62674851,
        "convenience_store_lon": 127.0752537,
        "convenience_store_type": "편의점",
        "convenience_store_name": "CU 공릉스타점",
        "distance": 388.0991898056901,
        "walking_time": "약 6분"
      }
    ],
    "daycare": [
      {
        "daycare_lat": 37.62559278,
        "daycare_lon": 127.0719775,
        "daycare_type": "어린이집",
        "daycare_name": "해와달어린이집",
        "distance": 72.27172104080601,
        "walking_time": "약 2분"
      },
      {
        "daycare_lat": 37.62660159,
        "daycare_lon": 127.0699881,
        "daycare_type": "어린이집",
        "daycare_name": "아가사랑어린이집",
        "distance": 180.8618308667272,
        "walking_time": "약 3분"
      },
      {
        "daycare_lat": 37.62477998,
        "daycare_lon": 127.0738036,
        "daycare_type": "어린이집",
        "daycare_name": "꿈나무방과후교실",
        "distance": 233.53747381813145,
        "walking_time": "약 4분"
      },
      {
        "daycare_lat": 37.62763105,
        "daycare_lon": 127.0699345,
        "daycare_type": "어린이집",
        "daycare_name": "창의스쿨어린이집",
        "distance": 282.3660371025356,
        "walking_time": "약 5분"
      },
      {
        "daycare_lat": 37.62763105,
        "daycare_lon": 127.0699345,
        "daycare_type": "어린이집",
        "daycare_name": "공릉꿈나무어린이집",
        "distance": 282.3660371025356,
        "walking_time": "약 5분"
      },
      {
        "daycare_lat": 37.6228624,
        "daycare_lon": 127.0724045,
        "daycare_type": "어린이집",
        "daycare_name": "예뜨랑어린이집",
        "distance": 291.00894182221793,
        "walking_time": "약 5분"
      },
      {
        "daycare_lat": 37.62304093,
        "daycare_lon": 127.0731081,
        "daycare_type": "어린이집",
        "daycare_name": "꿈의숲어린이집",
        "distance": 301.3999937168952,
        "walking_time": "약 5분"
      },
      {
        "daycare_lat": 37.62728847,
        "daycare_lon": 127.0685397,
        "daycare_type": "어린이집",
        "daycare_name": "푸르니어린이집",
        "distance": 323.75668766368784,
        "walking_time": "약 5분"
      },
      {
        "daycare_lat": 37.62277486,
        "daycare_lon": 127.0742227,
        "daycare_type": "어린이집",
        "daycare_name": "리틀어린이집",
        "distance": 385.5181086980496,
        "walking_time": "약 6분"
      },
      {
        "daycare_lat": 37.62862005,
        "daycare_lon": 127.0726389,
        "daycare_type": "어린이집",
        "daycare_name": "아이누리어린이집",
        "distance": 388.08205070468233,
        "walking_time": "약 6분"
      }
    ],
    "education": [
      {
        "education_lat": 37.62879899,
        "education_lon": 127.0698009,
        "education_type": "문화원",
        "education_name": "노원문화원",
        "distance": 407.9738670887279,
        "walking_time": "약 7분"
      },
      {
        "education_lat": 37.62017392,
        "education_lon": 127.0769362,
        "education_type": "박물관/기념관",
        "education_name": "서울생활사박물관",
        "distance": 760.3567829494514,
        "walking_time": "약 12분"
      },
      {
        "education_lat": 37.63307893,
        "education_lon": 127.0767947,
        "education_type": "미술관/갤러리",
        "education_name": "서울과학기술대학교 미술관",
        "distance": 992.7388703968326,
        "walking_time": "약 15분"
      },
      {
        "education_lat": 37.61348164414527,
        "education_lon": 127.06543951524604,
        "education_type": "도서관",
        "education_name": "석관동미리내도서관",
        "distance": 1411.0290942458446,
        "walking_time": "약 22분"
      },
      {
        "education_lat": 37.63951386,
        "education_lon": 127.0678213,
        "education_type": "도서관",
        "education_name": "서울특별시교육청 노원평생학습관",
        "distance": 1607.690927446792,
        "walking_time": "약 24분"
      },
      {
        "education_lat": 37.61517057,
        "education_lon": 127.0869064,
        "education_type": "도서관",
        "education_name": "중랑구립정보도서관",
        "distance": 1782.0687767975292,
        "walking_time": "약 27분"
      },
      {
        "education_lat": 37.61517057,
        "education_lon": 127.0869064,
        "education_type": "도서관",
        "education_name": "중랑구립정보도서관",
        "distance": 1782.0687767975292,
        "walking_time": "약 27분"
      }
    ],
    "fitness": [
      {
        "fitness_lat": 37.62605156,
        "fitness_lon": 127.0724374,
        "fitness_type": "운동시설",
        "fitness_name": "카인드짐 공릉역 2호점",
        "distance": 133.9344108623448,
        "walking_time": "약 2분"
      },
      {
        "fitness_lat": 37.62614199,
        "fitness_lon": 127.0730666,
        "fitness_type": "운동시설",
        "fitness_name": "S&C 트레이닝 센터",
        "distance": 185.66751192882225,
        "walking_time": "약 3분"
      },
      {
        "fitness_lat": 37.62825426,
        "fitness_lon": 127.0710099,
        "fitness_type": "운동시설",
        "fitness_name": "카인드짐휘트니스&스쿼시",
        "distance": 327.8914987653112,
        "walking_time": "약 5분"
      },
      {
        "fitness_lat": 37.62668094,
        "fitness_lon": 127.0751054,
        "fitness_type": "운동시설",
        "fitness_name": "리얼리햅 맞춤운동센터",
        "distance": 373.106429585234,
        "walking_time": "약 6분"
      },
      {
        "fitness_lat": 37.62715484,
        "fitness_lon": 127.0762692,
        "fitness_type": "운동시설",
        "fitness_name": "뉴크로핏",
        "distance": 488.2213559871428,
        "walking_time": "약 8분"
      },
      {
        "fitness_lat": 37.62195341,
        "fitness_lon": 127.0753261,
        "fitness_type": "운동시설",
        "fitness_name": "부르스타짐 공릉점",
        "distance": 518.6692400756128,
        "walking_time": "약 8분"
      },
      {
        "fitness_lat": 37.62706167,
        "fitness_lon": 127.0771013,
        "fitness_type": "운동시설",
        "fitness_name": "스포애니 공릉점",
        "distance": 551.841610983478,
        "walking_time": "약 9분"
      },
      {
        "fitness_lat": 37.62751291,
        "fitness_lon": 127.077198,
        "fitness_type": "운동시설",
        "fitness_name": "위너블 헬스피티 앤 필라",
        "distance": 579.1782359530029,
        "walking_time": "약 9분"
      },
      {
        "fitness_lat": 37.62217797,
        "fitness_lon": 127.0766725,
        "fitness_type": "운동시설",
        "fitness_name": "프리원핏",
        "distance": 591.9819707301255,
        "walking_time": "약 9분"
      },
      {
        "fitness_lat": 37.62887637,
        "fitness_lon": 127.0763821,
        "fitness_type": "운동시설",
        "fitness_name": "공릉 라이크짐",
        "distance": 601.9992993286035,
        "walking_time": "약 9분"
      }
    ],
    "gas_station": [
      {
        "gas_station_lat": 37.62697563,
        "gas_station_lon": 127.0719676,
        "gas_station_type": "주유소",
        "gas_station_name": "한신주유소",
        "distance": 195.9337027035578,
        "walking_time": "약 3분"
      },
      {
        "gas_station_lat": 37.63358901,
        "gas_station_lon": 127.072325,
        "gas_station_type": "주유소",
        "gas_station_name": "하계삼호주유소",
        "distance": 925.4368381608928,
        "walking_time": "약 14분"
      },
      {
        "gas_station_lat": 37.61859616,
        "gas_station_lon": 127.0791755,
        "gas_station_type": "주유소",
        "gas_station_name": "㈜이엠석유 배꽃나라주유소",
        "distance": 1022.8405858152868,
        "walking_time": "약 16분"
      },
      {
        "gas_station_lat": 37.61957693,
        "gas_station_lon": 127.0808357,
        "gas_station_type": "주유소",
        "gas_station_name": "화랑대주유소",
        "distance": 1058.794634872237,
        "walking_time": "약 16분"
      },
      {
        "gas_station_lat": 37.62595629,
        "gas_station_lon": 127.0855496,
        "gas_station_type": "주유소",
        "gas_station_name": "유한책임회사동하석유 태릉솔밭지점",
        "distance": 1262.4379867253615,
        "walking_time": "약 19분"
      },
      {
        "gas_station_lat": 37.61363831,
        "gas_station_lon": 127.0602167,
        "gas_station_type": "주유소",
        "gas_station_name": "현대오일뱅크(주)직영 장삼주유소",
        "distance": 1620.7806772953256,
        "walking_time": "약 25분"
      },
      {
        "gas_station_lat": 37.61261571,
        "gas_station_lon": 127.0614001,
        "gas_station_type": "주유소",
        "gas_station_name": "우리주유소",
        "distance": 1656.3682233964944,
        "walking_time": "약 25분"
      }
    ],
    "hospital": [
      {
        "hospital_lat": 37.62509941,
        "hospital_lon": 127.0713777,
        "hospital_type": "병원",
        "hospital_name": "김대현내과의원",
        "distance": 26.55038749117042,
        "walking_time": "약 1분"
      },
      {
        "hospital_lat": 37.6257737,
        "hospital_lon": 127.0725799,
        "hospital_type": "병원",
        "hospital_name": "지음치과의원",
        "distance": 128.89275967060826,
        "walking_time": "약 2분"
      },
      {
        "hospital_lat": 37.62605156,
        "hospital_lon": 127.0724374,
        "hospital_type": "병원",
        "hospital_name": "더조은내과의원",
        "distance": 133.9344108623448,
        "walking_time": "약 2분"
      },
      {
        "hospital_lat": 37.62605156,
        "hospital_lon": 127.0724374,
        "hospital_type": "병원",
        "hospital_name": "두리이비인후과의원",
        "distance": 133.9344108623448,
        "walking_time": "약 2분"
      },
      {
        "hospital_lat": 37.62605156,
        "hospital_lon": 127.0724374,
        "hospital_type": "병원",
        "hospital_name": "연세거뜬정형외과의원",
        "distance": 133.9344108623448,
        "walking_time": "약 2분"
      },
      {
        "hospital_lat": 37.62605156,
        "hospital_lon": 127.0724374,
        "hospital_type": "병원",
        "hospital_name": "연세준치과의원",
        "distance": 133.9344108623448,
        "walking_time": "약 2분"
      },
      {
        "hospital_lat": 37.62519754,
        "hospital_lon": 127.0728341,
        "hospital_type": "병원",
        "hospital_name": "공릉한의원",
        "distance": 141.13144458015668,
        "walking_time": "약 3분"
      },
      {
        "hospital_lat": 37.62519754,
        "hospital_lon": 127.0728341,
        "hospital_type": "병원",
        "hospital_name": "김연성치과의원",
        "distance": 141.13144458015668,
        "walking_time": "약 3분"
      },
      {
        "hospital_lat": 37.62669876,
        "hospital_lon": 127.0721061,
        "hospital_type": "병원",
        "hospital_name": "바이블치과의원",
        "distance": 172.21210117158515,
        "walking_time": "약 3분"
      },
      {
        "hospital_lat": 37.62453008,
        "hospital_lon": 127.0729871,
        "hospital_type": "병원",
        "hospital_name": "퀸스메디산부인과의원",
        "distance": 176.8304880885265,
        "walking_time": "약 3분"
      }
    ],
    "music_room": [
      {
        "music_room_lat": 37.62509941,
        "music_room_lon": 127.0713777,
        "music_room_type": "노래방",
        "music_room_name": "즐거운",
        "distance": 26.55038749117042,
        "walking_time": "약 1분"
      },
      {
        "music_room_lat": 37.62479984,
        "music_room_lon": 127.0718067,
        "music_room_type": "노래방",
        "music_room_name": "팡팡 노래연습장",
        "distance": 75.75678033952123,
        "walking_time": "약 2분"
      },
      {
        "music_room_lat": 37.62491854,
        "music_room_lon": 127.0729205,
        "music_room_type": "노래방",
        "music_room_name": "해성노래연습장",
        "distance": 154.46839999270162,
        "walking_time": "약 3분"
      },
      {
        "music_room_lat": 37.62468335,
        "music_room_lon": 127.0729681,
        "music_room_type": "노래방",
        "music_room_name": "코리아나노래연습장",
        "distance": 167.59147965912692,
        "walking_time": "약 3분"
      },
      {
        "music_room_lat": 37.62525727,
        "music_room_lon": 127.0734318,
        "music_room_type": "노래방",
        "music_room_name": "첼로 노래연습장",
        "distance": 193.29733720639413,
        "walking_time": "약 3분"
      },
      {
        "music_room_lat": 37.6271391,
        "music_room_lon": 127.0710157,
        "music_room_type": "노래방",
        "music_room_name": "스카이",
        "distance": 204.21601730567104,
        "walking_time": "약 4분"
      },
      {
        "music_room_lat": 37.62490709,
        "music_room_lon": 127.073507,
        "music_room_type": "노래방",
        "music_room_name": "뽀",
        "distance": 204.81325789122147,
        "walking_time": "약 4분"
      },
      {
        "music_room_lat": 37.62402856,
        "music_room_lon": 127.0731931,
        "music_room_type": "노래방",
        "music_room_name": "펑키",
        "distance": 223.5675954839249,
        "walking_time": "약 4분"
      },
      {
        "music_room_lat": 37.627334,
        "music_room_lon": 127.0709875,
        "music_room_type": "노래방",
        "music_room_name": "씨티노래연습장",
        "distance": 226.02651824410583,
        "walking_time": "약 4분"
      },
      {
        "music_room_lat": 37.62770192,
        "music_room_lon": 127.0716637,
        "music_room_type": "노래방",
        "music_room_name": "토마토",
        "distance": 268.4885175841934,
        "walking_time": "약 5분"
      }
    ],
    "outdoor_sports": [
      {
        "outdoor_sports_lat": 37.6174857389557,
        "outdoor_sports_lon": 127.077195979289,
        "outdoor_sports_type": "야외 체육시설",
        "outdoor_sports_name": "묵동천 제방 산책로",
        "distance": 1016.1080693217264,
        "walking_time": "약 16분"
      },
      {
        "outdoor_sports_lat": 37.6184024603499,
        "outdoor_sports_lon": 127.081009777604,
        "outdoor_sports_type": "야외 체육시설",
        "outdoor_sports_name": "묵동브라운스톤A",
        "distance": 1153.6036818526366,
        "walking_time": "약 18분"
      },
      {
        "outdoor_sports_lat": 37.6153032238014,
        "outdoor_sports_lon": 127.078096097168,
        "outdoor_sports_type": "야외 체육시설",
        "outdoor_sports_name": "묵동소공원",
        "distance": 1266.175159409347,
        "walking_time": "약 19분"
      },
      {
        "outdoor_sports_lat": 37.6147980994094,
        "outdoor_sports_lon": 127.078549074829,
        "outdoor_sports_type": "야외 체육시설",
        "outdoor_sports_name": "정자목마을마당",
        "distance": 1334.5981592383705,
        "walking_time": "약 20분"
      },
      {
        "outdoor_sports_lat": 37.6180483805077,
        "outdoor_sports_lon": 127.083326859732,
        "outdoor_sports_type": "야외 체육시설",
        "outdoor_sports_name": "원묵분수공원",
        "distance": 1336.320290135311,
        "walking_time": "약 20분"
      },
      {
        "outdoor_sports_lat": 37.6151688817533,
        "outdoor_sports_lon": 127.079452856775,
        "outdoor_sports_type": "야외 체육시설",
        "outdoor_sports_name": "자투리녹지",
        "distance": 1339.8904795029716,
        "walking_time": "약 20분"
      },
      {
        "outdoor_sports_lat": 37.612808292361,
        "outdoor_sports_lon": 127.072745680998,
        "outdoor_sports_type": "야외 체육시설",
        "outdoor_sports_name": "수림대공원 옆 미포장면",
        "distance": 1396.5650982531452,
        "walking_time": "약 21분"
      },
      {
        "outdoor_sports_lat": 37.6172115102861,
        "outdoor_sports_lon": 127.083627782035,
        "outdoor_sports_type": "야외 체육시설",
        "outdoor_sports_name": "봉화마을마당",
        "distance": 1414.8710984439963,
        "walking_time": "약 22분"
      },
      {
        "outdoor_sports_lat": 37.61197198,
        "outdoor_sports_lon": 127.0718858,
        "outdoor_sports_type": "야외 체육시설",
        "outdoor_sports_name": "수림대공원 데크",
        "distance": 1484.328340281097,
        "walking_time": "약 23분"
      },
      {
        "outdoor_sports_lat": 37.6167374084338,
        "outdoor_sports_lon": 127.08476704839,
        "outdoor_sports_type": "야외 체육시설",
        "outdoor_sports_name": "원묵어린이공원(묵동)",
        "distance": 1525.993418602781,
        "walking_time": "약 23분"
      }
    ],
    "park": [
      {
        "park_lat": 37.627077,
        "park_lon": 127.076482,
        "park_type": "공원",
        "park_name": "경춘선숲길",
        "distance": 501.8414109137912,
        "walking_time": "약 8분"
      }
    ],
    "park_station": [
      {
        "park_station_lat": 37.61909794,
        "park_station_lon": 127.0775052,
        "park_station_type": "주차장",
        "park_station_name": "북부지법주변",
        "distance": 884.2826252987928,
        "walking_time": "약 14분"
      },
      {
        "park_station_lat": 37.61565507,
        "park_station_lon": 127.065157,
        "park_station_type": "주차장",
        "park_station_name": "석계역 앞",
        "distance": 1199.857100879934,
        "walking_time": "약 18분"
      },
      {
        "park_station_lat": 37.61544723,
        "park_station_lon": 127.0624695,
        "park_station_type": "주차장",
        "park_station_name": "석계역 공영주차장",
        "distance": 1341.413623764238,
        "walking_time": "약 21분"
      },
      {
        "park_station_lat": 37.63731977,
        "park_station_lon": 127.073265,
        "park_station_type": "주차장",
        "park_station_name": "가재울 공영주차장",
        "distance": 1347.1921760543098,
        "walking_time": "약 21분"
      },
      {
        "park_station_lat": 37.6146818,
        "park_station_lon": 127.0803891,
        "park_station_type": "주차장",
        "park_station_name": "숙선옹주로 5공영",
        "distance": 1430.5684243405724,
        "walking_time": "약 22분"
      },
      {
        "park_station_lat": 37.63967475,
        "park_station_lon": 127.0744388,
        "park_station_type": "주차장",
        "park_station_name": "한신동성아파트옆",
        "distance": 1621.8564054505994,
        "walking_time": "약 25분"
      },
      {
        "park_station_lat": 37.63957022,
        "park_station_lon": 127.0651678,
        "park_station_type": "주차장",
        "park_station_name": "건영백화점앞",
        "distance": 1673.2346094311447,
        "walking_time": "약 25분"
      },
      {
        "park_station_lat": 37.61538417,
        "park_station_lon": 127.0860709,
        "park_station_type": "주차장",
        "park_station_name": "원묵 고등학교 공용 지하주차장",
        "distance": 1710.2878757301053,
        "walking_time": "약 26분"
      }
    ],
    "pc_room": [
      {
        "pc_room_lat": 37.6253252165218,
        "pc_room_lon": 127.07164570234,
        "pc_room_type": "PC방",
        "pc_room_name": "PCCUS",
        "distance": 35.940556310228686,
        "walking_time": "약 1분"
      },
      {
        "pc_room_lat": 37.6266532971327,
        "pc_room_lon": 127.07130486782,
        "pc_room_type": "PC방",
        "pc_room_name": "제로백PC",
        "distance": 149.37275900940924,
        "walking_time": "약 3분"
      },
      {
        "pc_room_lat": 37.6233418210089,
        "pc_room_lon": 127.071880999099,
        "pc_room_type": "PC방",
        "pc_room_name": "놀이터PC",
        "distance": 226.16695010928908,
        "walking_time": "약 4분"
      },
      {
        "pc_room_lat": 37.6234059297882,
        "pc_room_lon": 127.073411876507,
        "pc_room_type": "PC방",
        "pc_room_name": "에이스PC방",
        "distance": 285.53082667515554,
        "walking_time": "약 5분"
      },
      {
        "pc_room_lat": 37.6236617520042,
        "pc_room_lon": 127.073937845108,
        "pc_room_type": "PC방",
        "pc_room_name": "욜로PC공릉점",
        "distance": 300.2794560582348,
        "walking_time": "약 5분"
      },
      {
        "pc_room_lat": 37.6238126999489,
        "pc_room_lon": 127.076153237632,
        "pc_room_type": "PC방",
        "pc_room_name": "공릉PC",
        "distance": 463.8361162704438,
        "walking_time": "약 7분"
      },
      {
        "pc_room_lat": 37.6227280196366,
        "pc_room_lon": 127.076543157312,
        "pc_room_type": "PC방",
        "pc_room_name": "깡통로봇 PC방",
        "distance": 548.4452041609698,
        "walking_time": "약 9분"
      },
      {
        "pc_room_lat": 37.6282993079139,
        "pc_room_lon": 127.077315687829,
        "pc_room_type": "PC방",
        "pc_room_name": "리얼(REAL)PC방",
        "distance": 629.9983434428316,
        "walking_time": "약 10분"
      },
      {
        "pc_room_lat": 37.6217579633396,
        "pc_room_lon": 127.077316162454,
        "pc_room_type": "PC방",
        "pc_room_name": "놀이터PC방",
        "distance": 665.3139843562716,
        "walking_time": "약 10분"
      },
      {
        "pc_room_lat": 37.6236591971724,
        "pc_room_lon": 127.063970855033,
        "pc_room_type": "PC방",
        "pc_room_name": "시크릿PC카페",
        "distance": 665.8482904353616,
        "walking_time": "약 10분"
      }
    ],
    "police_office": [
      {
        "police_office_lat": 37.62256817,
        "police_office_lon": 127.0745978,
        "police_office_type": "경찰소",
        "police_office_name": "화랑지구대",
        "distance": 424.9399986457871,
        "walking_time": "약 7분"
      },
      {
        "police_office_lat": 37.6146248,
        "police_office_lon": 127.0815324,
        "police_office_type": "경찰소",
        "police_office_name": "먹골파출소",
        "distance": 1494.659541649774,
        "walking_time": "약 23분"
      }
    ],
    "post_office": [
      {
        "post_office_lat": 37.62090624,
        "post_office_lon": 127.0690603,
        "post_office_type": "우체국",
        "post_office_name": "서울월계3동우체국",
        "distance": 525.9997222526218,
        "walking_time": "약 8분"
      },
      {
        "post_office_lat": 37.62499145,
        "post_office_lon": 127.0799903,
        "post_office_type": "우체국",
        "post_office_name": "서울공릉2동우편취급국",
        "distance": 771.6230879269677,
        "walking_time": "약 12분"
      },
      {
        "post_office_lat": 37.61846246,
        "post_office_lon": 127.0757204,
        "post_office_type": "우체국",
        "post_office_name": "서울공릉동우체국",
        "distance": 857.7680022163373,
        "walking_time": "약 13분"
      },
      {
        "post_office_lat": 37.63307893,
        "post_office_lon": 127.0767947,
        "post_office_type": "우체국",
        "post_office_name": "서울과학기술대우편취급국",
        "distance": 992.7388703968326,
        "walking_time": "약 15분"
      },
      {
        "post_office_lat": 37.63097668,
        "post_office_lon": 127.0610256,
        "post_office_type": "우체국",
        "post_office_name": "서울월계시영우편취급국",
        "distance": 1098.0608365430674,
        "walking_time": "약 17분"
      },
      {
        "post_office_lat": 37.63543136,
        "post_office_lon": 127.0727291,
        "post_office_type": "우체국",
        "post_office_name": "서울하계시영우편취급국",
        "distance": 1132.9677916721566,
        "walking_time": "약 17분"
      },
      {
        "post_office_lat": 37.61165278,
        "post_office_lon": 127.0621684,
        "post_office_type": "우체국",
        "post_office_name": "서울석관1동우편취급국",
        "distance": 1715.99504821251,
        "walking_time": "약 26분"
      },
      {
        "post_office_lat": 37.61036795,
        "post_office_lon": 127.0774411,
        "post_office_type": "우체국",
        "post_office_name": "서울묵동우체국",
        "distance": 1749.1105533052778,
        "walking_time": "약 27분"
      }
    ],
    "public_health_center": [
      {
        "public_health_center_lat": 37.62478808,
        "public_health_center_lon": 127.080003,
        "public_health_center_type": "보건소",
        "public_health_center_name": "공릉보건지소",
        "distance": 774.1109329252585,
        "walking_time": "약 12분"
      },
      {
        "public_health_center_lat": 37.63145003,
        "public_health_center_lon": 127.0615911,
        "public_health_center_type": "보건소",
        "public_health_center_name": "월계보건지소",
        "distance": 1089.8276465191395,
        "walking_time": "약 17분"
      },
      {
        "public_health_center_lat": 37.61047326,
        "public_health_center_lon": 127.0634208,
        "public_health_center_type": "보건소",
        "public_health_center_name": "장위석관보건지소",
        "distance": 1787.7825859345576,
        "walking_time": "약 27분"
      }
    ],
    "school": [
      {
        "school_lat": 37.62719482311,
        "school_lon": 127.074030837547,
        "school_type": "초등학교",
        "school_name": "서울공연초등학교",
        "distance": 323.0693057220447,
        "walking_time": "약 5분"
      },
      {
        "school_lat": 37.6207501680548,
        "school_lon": 127.069258063469,
        "school_type": "초등학교",
        "school_name": "서울한천초등학교",
        "distance": 536.2827840862561,
        "walking_time": "약 9분"
      },
      {
        "school_lat": 37.6299301501593,
        "school_lon": 127.068936691961,
        "school_type": "초등학교",
        "school_name": "서울용원초등학교",
        "distance": 552.1643994906141,
        "walking_time": "약 9분"
      },
      {
        "school_lat": 37.6307779754887,
        "school_lon": 127.073998366297,
        "school_type": "고등학교",
        "school_name": "서울동산고등학교",
        "distance": 654.7032808880679,
        "walking_time": "약 10분"
      },
      {
        "school_lat": 37.6312721593711,
        "school_lon": 127.072117818679,
        "school_type": "중학교",
        "school_name": "한천중학교",
        "distance": 667.363749749558,
        "walking_time": "약 10분"
      },
      {
        "school_lat": 37.6285101097035,
        "school_lon": 127.063134105063,
        "school_type": "초등학교",
        "school_name": "서울녹천초등학교",
        "distance": 797.4234130542748,
        "walking_time": "약 12분"
      },
      {
        "school_lat": 37.6186120126537,
        "school_lon": 127.074614270574,
        "school_type": "초등학교",
        "school_name": "서울공릉초등학교",
        "distance": 802.0519208076963,
        "walking_time": "약 12분"
      },
      {
        "school_lat": 37.6322400488783,
        "school_lon": 127.074928451599,
        "school_type": "고등학교",
        "school_name": "경기기계공업고등학교",
        "distance": 836.2149331791836,
        "walking_time": "약 13분"
      },
      {
        "school_lat": 37.632255170053,
        "school_lon": 127.066056635951,
        "school_type": "초등학교",
        "school_name": "서울중현초등학교",
        "distance": 896.9002358892194,
        "walking_time": "약 14분"
      },
      {
        "school_lat": 37.6344239191317,
        "school_lon": 127.072522941451,
        "school_type": "초등학교",
        "school_name": "서울연촌초등학교",
        "distance": 1019.6088518091424,
        "walking_time": "약 16분"
      }
    ],
    "self_laundromat": [
      {
        "self_laundromat_lat": 37.6145997,
        "self_laundromat_lon": 127.0809575,
        "self_laundromat_type": "셀프 빨래방",
        "self_laundromat_name": "셀프빨래방 중랑하늘점",
        "distance": 1466.7630240849264,
        "walking_time": "약 22분"
      },
      {
        "self_laundromat_lat": 37.6145997,
        "self_laundromat_lon": 127.0809575,
        "self_laundromat_type": "셀프 빨래방",
        "self_laundromat_name": "셀프빨래방 중랑하늘점",
        "distance": 1466.7630240849264,
        "walking_time": "약 22분"
      },
      {
        "self_laundromat_lat": 37.61101318,
        "self_laundromat_lon": 127.0619897,
        "self_laundromat_type": "셀프 빨래방",
        "self_laundromat_name": "워시콥셀프빨래방석관동얼음왕국",
        "distance": 1786.3707725795691,
        "walking_time": "약 27분"
      },
      {
        "self_laundromat_lat": 37.61101318,
        "self_laundromat_lon": 127.0619897,
        "self_laundromat_type": "셀프 빨래방",
        "self_laundromat_name": "워시콥셀프빨래방석관동얼음왕국",
        "distance": 1786.3707725795691,
        "walking_time": "약 27분"
      }
    ],
    "subway": [
      {
        "subway_lat": 37.6254769202851,
        "subway_lon": 127.073005201049,
        "subway_type": "지하철",
        "subway_name": "7호선-공릉(서울과학기술대)역",
        "distance": 156.72448344685554,
        "walking_time": "약 3분"
      },
      {
        "subway_lat": 37.6185137762138,
        "subway_lon": 127.075368429731,
        "subway_type": "지하철",
        "subway_name": "6호선-태릉입구역",
        "distance": 838.8047127679255,
        "walking_time": "약 13분"
      },
      {
        "subway_lat": 37.6185137762138,
        "subway_lon": 127.075368429731,
        "subway_type": "지하철",
        "subway_name": "7호선-태릉입구역",
        "distance": 838.8047127679255,
        "walking_time": "약 13분"
      },
      {
        "subway_lat": 37.6150480846952,
        "subway_lon": 127.066118430844,
        "subway_type": "지하철",
        "subway_name": "6호선-석계역",
        "distance": 1227.0354565369255,
        "walking_time": "약 19분"
      },
      {
        "subway_lat": 37.6198943887187,
        "subway_lon": 127.083744624338,
        "subway_type": "지하철",
        "subway_name": "6호선-화랑대(서울여대입구)역",
        "distance": 1255.3985878005628,
        "walking_time": "약 19분"
      },
      {
        "subway_lat": 37.6364521240646,
        "subway_lon": 127.067988537404,
        "subway_type": "지하철",
        "subway_name": "7호선-하계역",
        "distance": 1271.4558718838657,
        "walking_time": "약 19분"
      },
      {
        "subway_lat": 37.6106250591244,
        "subway_lon": 127.077764798784,
        "subway_type": "지하철",
        "subway_name": "7호선-먹골역",
        "distance": 1731.231708964106,
        "walking_time": "약 26분"
      }
    ],
    "supermarket": [
      {
        "supermarket_lat": 37.62825426,
        "supermarket_lon": 127.0710099,
        "supermarket_type": "마트",
        "supermarket_name": "홈플러스(주)익스프레스 공릉점",
        "distance": 327.8914987653112,
        "walking_time": "약 5분"
      },
      {
        "supermarket_lat": 37.62195341,
        "supermarket_lon": 127.0753261,
        "supermarket_type": "마트",
        "supermarket_name": "공릉종합상가",
        "distance": 518.6692400756128,
        "walking_time": "약 8분"
      },
      {
        "supermarket_lat": 37.62262021,
        "supermarket_lon": 127.0794891,
        "supermarket_type": "마트",
        "supermarket_name": "롯데쇼핑(주) 롯데슈퍼공릉점",
        "distance": 785.8626072943237,
        "walking_time": "약 12분"
      },
      {
        "supermarket_lat": 37.61872537,
        "supermarket_lon": 127.0670846,
        "supermarket_type": "마트",
        "supermarket_name": "(주)지에스리테일 GS슈퍼 노원월계점",
        "distance": 818.5698288702027,
        "walking_time": "약 13분"
      },
      {
        "supermarket_lat": 37.62650936,
        "supermarket_lon": 127.0619798,
        "supermarket_type": "마트",
        "supermarket_name": "이마트타운 월계점",
        "distance": 826.1670298637865,
        "walking_time": "약 13분"
      },
      {
        "supermarket_lat": 37.62082546,
        "supermarket_lon": 127.0836357,
        "supermarket_type": "마트",
        "supermarket_name": "(주)이마트에브리데이 공릉동점",
        "distance": 1200.406271600637,
        "walking_time": "약 18분"
      },
      {
        "supermarket_lat": 37.63662358,
        "supermarket_lon": 127.0689153,
        "supermarket_type": "마트",
        "supermarket_name": "세이브존",
        "distance": 1274.4227604115952,
        "walking_time": "약 20분"
      },
      {
        "supermarket_lat": 37.61383489,
        "supermarket_lon": 127.077545,
        "supermarket_type": "마트",
        "supermarket_name": "주식회사 이마트 묵동점",
        "distance": 1391.748672513498,
        "walking_time": "약 21분"
      },
      {
        "supermarket_lat": 37.63985808,
        "supermarket_lon": 127.068668,
        "supermarket_type": "마트",
        "supermarket_name": "홈플러스(주) 중계점",
        "distance": 1633.316653494053,
        "walking_time": "약 25분"
      }
    ],
    "theater": [
      {
        "theater_lat": 37.6151499459916,
        "theater_lon": 127.076057076024,
        "theater_type": "영화관",
        "theater_name": "롯데시네마 중랑관",
        "distance": 1206.9491346974023,
        "walking_time": "약 19분"
      },
      {
        "theater_lat": 37.6391097783726,
        "theater_lon": 127.064915087375,
        "theater_type": "영화관",
        "theater_name": "CGV 하계",
        "distance": 1632.2582947920328,
        "walking_time": "약 25분"
      },
      {
        "theater_lat": 37.6398580838556,
        "theater_lon": 127.068668049616,
        "theater_type": "영화관",
        "theater_name": "CGV 중계",
        "distance": 1633.316472687333,
        "walking_time": "약 25분"
      }
    ],
    "university": [
      {
        "university_lat": 37.6330789279387,
        "university_lon": 127.076794742851,
        "university_type": "대학교",
        "university_name": "서울과학기술대학교",
        "distance": 992.7405310957872,
        "walking_time": "약 15분"
      },
      {
        "university_lat": 37.6330789279387,
        "university_lon": 127.076794742851,
        "university_type": "대학교",
        "university_name": "서울과학기술대학교",
        "distance": 992.7405310957872,
        "walking_time": "약 15분"
      },
      {
        "university_lat": 37.6129860183722,
        "university_lon": 127.0614007785,
        "university_type": "대학교",
        "university_name": "한국예술종합학교",
        "distance": 1621.385326069057,
        "walking_time": "약 25분"
      }
    ]
  }
}