{
  "클러스터_위도": 37.49264599999999,
  "클러스터_경도": 127.145052,
  "클러스터_level": 3.0,
  "facilities": {
    "bus": [
      {
        "bus_lat": 37.49290375,
        "bus_lon": 127.1456767,
        "bus_type": "버스정류장",
        "bus_name": "거여역5번출구",
        "distance": 62.12102578738781,
        "walking_time": "약 1분"
      },
      {
        "bus_lat": 37.49313922,
        "bus_lon": 127.1456918,
        "bus_type": "버스정류장",
        "bus_name": "거여역4번출구",
        "distance": 78.70213612144191,
        "walking_time": "약 2분"
      },
      {
        "bus_lat": 37.492387,
        "bus_lon": 127.143927,
        "bus_type": "버스정류장",
        "bus_name": "거여역7번출구",
        "distance": 103.34771937625167,
        "walking_time": "약 2분"
      },
      {
        "bus_lat": 37.49195738,
        "bus_lon": 127.1440918,
        "bus_type": "버스정류장",
        "bus_name": "거여역6번출구",
        "distance": 114.19143444952904,
        "walking_time": "약 2분"
      },
      {
        "bus_lat": 37.49428075,
        "bus_lon": 127.1450942,
        "bus_type": "버스정류장",
        "bus_name": "거여역3번출구.현대2차아파트",
        "distance": 181.8140297948972,
        "walking_time": "약 3분"
      },
      {
        "bus_lat": 37.49431196,
        "bus_lon": 127.1447634,
        "bus_type": "버스정류장",
        "bus_name": "거여역2번출구",
        "distance": 186.98792819794772,
        "walking_time": "약 3분"
      },
      {
        "bus_lat": 37.49080385,
        "bus_lon": 127.1433758,
        "bus_type": "버스정류장",
        "bus_name": "체육문화회관",
        "distance": 252.6432616091563,
        "walking_time": "약 4분"
      },
      {
        "bus_lat": 37.49381766,
        "bus_lon": 127.1424783,
        "bus_type": "버스정류장",
        "bus_name": "거여역현대아파트",
        "distance": 261.7857464646161,
        "walking_time": "약 4분"
      },
      {
        "bus_lat": 37.49405409,
        "bus_lon": 127.1426662,
        "bus_type": "버스정류장",
        "bus_name": "거여역1번출구",
        "distance": 262.3347502330509,
        "walking_time": "약 4분"
      },
      {
        "bus_lat": 37.49046389,
        "bus_lon": 127.1435753,
        "bus_type": "버스정류장",
        "bus_name": "거여아파트단지앞",
        "distance": 275.4052072891643,
        "walking_time": "약 5분"
      }
    ],
    "community_center": [
      {
        "community_center_lat": 37.49354898,
        "community_center_lon": 127.1468223,
        "community_center_type": "주민센터",
        "community_center_name": "거여2동 자치회관",
        "distance": 185.67498990940263,
        "walking_time": "약 3분"
      },
      {
        "community_center_lat": 37.49692999,
        "community_center_lon": 127.1433145,
        "community_center_type": "주민센터",
        "community_center_name": "거여1동 자치회관",
        "distance": 500.4137877060461,
        "walking_time": "약 8분"
      },
      {
        "community_center_lat": 37.49677988,
        "community_center_lon": 127.1485638,
        "community_center_type": "주민센터",
        "community_center_name": "마천2동 자치회관",
        "distance": 554.3310398442765,
        "walking_time": "약 9분"
      },
      {
        "community_center_lat": 37.49600092,
        "community_center_lon": 127.149952,
        "community_center_type": "주민센터",
        "community_center_name": "마천1동 자치회관",
        "distance": 571.0041753994234,
        "walking_time": "약 9분"
      },
      {
        "community_center_lat": 37.48696583,
        "community_center_lon": 127.1324383,
        "community_center_type": "주민센터",
        "community_center_name": "장지동 자치회관",
        "distance": 1279.6316039830338,
        "walking_time": "약 20분"
      },
      {
        "community_center_lat": 37.48114953,
        "community_center_lon": 127.1439356,
        "community_center_type": "주민센터",
        "community_center_name": "위례동 자치회관",
        "distance": 1282.138556971942,
        "walking_time": "약 20분"
      }
    ],
    "convenience_store": [
      {
        "convenience_store_lat": 37.49195738,
        "convenience_store_lon": 127.1445354,
        "convenience_store_type": "편의점",
        "convenience_store_name": "세븐일레븐 송파거여점",
        "distance": 89.10913038272382,
        "walking_time": "약 2분"
      },
      {
        "convenience_store_lat": 37.49320733,
        "convenience_store_lon": 127.1440323,
        "convenience_store_type": "편의점",
        "convenience_store_name": "세븐일레븐 거여역점",
        "distance": 109.495552138473,
        "walking_time": "약 2분"
      },
      {
        "convenience_store_lat": 37.49240116,
        "convenience_store_lon": 127.1469163,
        "convenience_store_type": "편의점",
        "convenience_store_name": "세븐일레븐 거여쌍용점",
        "distance": 166.71711402366034,
        "walking_time": "약 3분"
      },
      {
        "convenience_store_lat": 37.4941352,
        "convenience_store_lon": 127.1442441,
        "convenience_store_type": "편의점",
        "convenience_store_name": "세븐일레븐 거여센터점",
        "distance": 180.28008723557548,
        "walking_time": "약 3분"
      },
      {
        "convenience_store_lat": 37.49248964,
        "convenience_store_lon": 127.1475659,
        "convenience_store_type": "편의점",
        "convenience_store_name": "GS25 거여우리점",
        "distance": 222.47088129187588,
        "walking_time": "약 4분"
      },
      {
        "convenience_store_lat": 37.49290941,
        "convenience_store_lon": 127.1419818,
        "convenience_store_type": "편의점",
        "convenience_store_name": "미니스톱 송파거여점",
        "distance": 272.4486112098408,
        "walking_time": "약 5분"
      },
      {
        "convenience_store_lat": 37.48999231,
        "convenience_store_lon": 127.1447303,
        "convenience_store_type": "편의점",
        "convenience_store_name": "CU 송파거여점",
        "distance": 296.4387489170268,
        "walking_time": "약 5분"
      },
      {
        "convenience_store_lat": 37.49484088,
        "convenience_store_lon": 127.1428966,
        "convenience_store_type": "편의점",
        "convenience_store_name": "GS25 거여센타점",
        "distance": 309.3951024337378,
        "walking_time": "약 5분"
      },
      {
        "convenience_store_lat": 37.49482975,
        "convenience_store_lon": 127.1424915,
        "convenience_store_type": "편의점",
        "convenience_store_name": "CU 거여공원점",
        "distance": 331.6511646346279,
        "walking_time": "약 5분"
      },
      {
        "convenience_store_lat": 37.49576016,
        "convenience_store_lon": 127.1443212,
        "convenience_store_type": "편의점",
        "convenience_store_name": "GS25 송파우리점",
        "distance": 352.2298750754022,
        "walking_time": "약 6분"
      }
    ],
    "daycare": [
      {
        "daycare_lat": 37.49351342,
        "daycare_lon": 127.1463138,
        "daycare_type": "어린이집",
        "daycare_name": "거여2동 주민자치센터 방과후교실",
        "distance": 147.29491258275297,
        "walking_time": "약 3분"
      },
      {
        "daycare_lat": 37.49276768,
        "daycare_lon": 127.1467339,
        "daycare_type": "어린이집",
        "daycare_name": "안데르센어린이집",
        "distance": 149.00201805446673,
        "walking_time": "약 3분"
      },
      {
        "daycare_lat": 37.49217183,
        "daycare_lon": 127.143338,
        "daycare_type": "어린이집",
        "daycare_name": "거여열린어린이집",
        "distance": 160.14732941959335,
        "walking_time": "약 3분"
      },
      {
        "daycare_lat": 37.49161424,
        "daycare_lon": 127.146349,
        "daycare_type": "어린이집",
        "daycare_name": "요엘행복한어린이집",
        "distance": 162.03776443063526,
        "walking_time": "약 3분"
      },
      {
        "daycare_lat": 37.49139743,
        "daycare_lon": 127.1462712,
        "daycare_type": "어린이집",
        "daycare_name": "혜윰어린이집",
        "distance": 175.62857264400654,
        "walking_time": "약 3분"
      },
      {
        "daycare_lat": 37.49277140075604,
        "daycare_lon": 127.14704752731149,
        "daycare_type": "어린이집",
        "daycare_name": "미소어린이집",
        "distance": 176.60768158087373,
        "walking_time": "약 3분"
      },
      {
        "daycare_lat": 37.49139379761029,
        "daycare_lon": 127.1462928675852,
        "daycare_type": "어린이집",
        "daycare_name": "거원어린이집",
        "distance": 177.1231789154615,
        "walking_time": "약 3분"
      },
      {
        "daycare_lat": 37.49431553,
        "daycare_lon": 127.1445925,
        "daycare_type": "어린이집",
        "daycare_name": "애솔어린이집",
        "distance": 190.0180202232517,
        "walking_time": "약 3분"
      },
      {
        "daycare_lat": 37.49091479,
        "daycare_lon": 127.1445653,
        "daycare_type": "어린이집",
        "daycare_name": "거여새싹어린이집",
        "distance": 197.232765778624,
        "walking_time": "약 3분"
      },
      {
        "daycare_lat": 37.49089535,
        "daycare_lon": 127.1445015,
        "daycare_type": "어린이집",
        "daycare_name": "새싹어린이집",
        "distance": 200.6309069688074,
        "walking_time": "약 3분"
      }
    ],
    "education": [
      {
        "education_lat": 37.49354898,
        "education_lon": 127.1468223,
        "education_type": "도서관",
        "education_name": "거마도서관",
        "distance": 185.67498990940263,
        "walking_time": "약 3분"
      },
      {
        "education_lat": 37.49234687,
        "education_lon": 127.1566367,
        "education_type": "도서관",
        "education_name": "소나무언덕3호도서관",
        "distance": 1022.6097058967345,
        "walking_time": "약 16분"
      },
      {
        "education_lat": 37.49999535,
        "education_lon": 127.1348515,
        "education_type": "도서관",
        "education_name": "서울특별시교육청 송파도서관",
        "distance": 1215.5878300977176,
        "walking_time": "약 19분"
      },
      {
        "education_lat": 37.48114953,
        "education_lon": 127.1439356,
        "education_type": "도서관",
        "education_name": "송파위례도서관",
        "distance": 1282.138556971942,
        "walking_time": "약 20분"
      },
      {
        "education_lat": 37.48083422,
        "education_lon": 127.1304779,
        "education_type": "도서관",
        "education_name": "송파글마루도서관",
        "distance": 1838.09946014482,
        "walking_time": "약 28분"
      }
    ],
    "fitness": [
      {
        "fitness_lat": 37.49286218,
        "fitness_lon": 127.1450418,
        "fitness_type": "운동시설",
        "fitness_name": "크로스핏거여 앤 탑스포츠클럽",
        "distance": 24.054957816955472,
        "walking_time": "약 1분"
      },
      {
        "fitness_lat": 37.49240337,
        "fitness_lon": 127.1443924,
        "fitness_type": "운동시설",
        "fitness_name": "AR휘트니스",
        "distance": 64.14344710579363,
        "walking_time": "약 1분"
      },
      {
        "fitness_lat": 37.49323439,
        "fitness_lon": 127.1451824,
        "fitness_type": "운동시설",
        "fitness_name": "커브스거여클럽",
        "distance": 66.42976966079857,
        "walking_time": "약 1분"
      },
      {
        "fitness_lat": 37.49213941,
        "fitness_lon": 127.1442945,
        "fitness_type": "운동시설",
        "fitness_name": "탈로스 역도 전문 체육관",
        "distance": 87.4041730349592,
        "walking_time": "약 2분"
      },
      {
        "fitness_lat": 37.49357107,
        "fitness_lon": 127.145422,
        "fitness_type": "운동시설",
        "fitness_name": "민스맞춤운동센터",
        "distance": 107.91847572345264,
        "walking_time": "약 2분"
      },
      {
        "fitness_lat": 37.49366338,
        "fitness_lon": 127.1451667,
        "fitness_type": "운동시설",
        "fitness_name": "제로짐",
        "distance": 113.57918957519696,
        "walking_time": "약 2분"
      },
      {
        "fitness_lat": 37.49309696,
        "fitness_lon": 127.1465182,
        "fitness_type": "운동시설",
        "fitness_name": "더블짐휘트니스",
        "distance": 138.73507302643924,
        "walking_time": "약 3분"
      },
      {
        "fitness_lat": 37.49402285,
        "fitness_lon": 127.1453398,
        "fitness_type": "운동시설",
        "fitness_name": "Rock Body GYM",
        "distance": 155.18997888613384,
        "walking_time": "약 3분"
      },
      {
        "fitness_lat": 37.49308098,
        "fitness_lon": 127.1471266,
        "fitness_type": "운동시설",
        "fitness_name": "크로스핏 에이블 거여",
        "distance": 189.31510370245687,
        "walking_time": "약 3분"
      },
      {
        "fitness_lat": 37.49408877,
        "fitness_lon": 127.1428563,
        "fitness_type": "운동시설",
        "fitness_name": "박제성 운동케어 CHI & FIT 퍼스널 트레이닝",
        "distance": 251.52109619802044,
        "walking_time": "약 4분"
      }
    ],
    "gas_station": [
      {
        "gas_station_lat": 37.49557765,
        "gas_station_lon": 127.1403238,
        "gas_station_type": "주유소",
        "gas_station_name": "정직한 주유소 (셀프)",
        "distance": 529.4068767067128,
        "walking_time": "약 8분"
      },
      {
        "gas_station_lat": 37.48781616,
        "gas_station_lon": 127.1426941,
        "gas_station_type": "주유소",
        "gas_station_name": "위례제일주유소(셀프)",
        "distance": 575.9381274463476,
        "walking_time": "약 9분"
      },
      {
        "gas_station_lat": 37.49321423,
        "gas_station_lon": 127.1363979,
        "gas_station_type": "주유소",
        "gas_station_name": "서울주유소",
        "distance": 766.1198109967955,
        "walking_time": "약 12분"
      },
      {
        "gas_station_lat": 37.50004786,
        "gas_station_lon": 127.1431357,
        "gas_station_type": "주유소",
        "gas_station_name": "대성주유소",
        "distance": 840.2325922727795,
        "walking_time": "약 13분"
      },
      {
        "gas_station_lat": 37.50012695,
        "gas_station_lon": 127.1478376,
        "gas_station_type": "주유소",
        "gas_station_name": "상아주유소 (셀프)",
        "distance": 867.3847985116026,
        "walking_time": "약 13분"
      },
      {
        "gas_station_lat": 37.5019415,
        "gas_station_lon": 127.1379916,
        "gas_station_type": "주유소",
        "gas_station_name": "(주)남경석유 세영주유소",
        "distance": 1206.7810024654243,
        "walking_time": "약 19분"
      },
      {
        "gas_station_lat": 37.50452233,
        "gas_station_lon": 127.1383827,
        "gas_station_type": "주유소",
        "gas_station_name": "(주)유진주유소",
        "distance": 1445.722791058144,
        "walking_time": "약 22분"
      },
      {
        "gas_station_lat": 37.50973796,
        "gas_station_lon": 127.1318627,
        "gas_station_type": "주유소",
        "gas_station_name": "올림픽셀프주유소 (셀프)",
        "distance": 2228.4034530383897,
        "walking_time": "약 34분"
      }
    ],
    "hospital": [
      {
        "hospital_lat": 37.49286218,
        "hospital_lon": 127.1450418,
        "hospital_type": "병원",
        "hospital_name": "삼성항외과의원",
        "distance": 24.054957816955472,
        "walking_time": "약 1분"
      },
      {
        "hospital_lat": 37.49286218,
        "hospital_lon": 127.1450418,
        "hospital_type": "병원",
        "hospital_name": "우비뇨기과의원",
        "distance": 24.054957816955472,
        "walking_time": "약 1분"
      },
      {
        "hospital_lat": 37.49286218,
        "hospital_lon": 127.1450418,
        "hospital_type": "병원",
        "hospital_name": "정마음정신건강의학과의원",
        "distance": 24.054957816955472,
        "walking_time": "약 1분"
      },
      {
        "hospital_lat": 37.49281474,
        "hospital_lon": 127.1448573,
        "hospital_type": "병원",
        "hospital_name": "거여연세치과의원",
        "distance": 25.4385088895378,
        "walking_time": "약 1분"
      },
      {
        "hospital_lat": 37.49281474,
        "hospital_lon": 127.1448573,
        "hospital_type": "병원",
        "hospital_name": "그랜드피부과의원",
        "distance": 25.4385088895378,
        "walking_time": "약 1분"
      },
      {
        "hospital_lat": 37.49281474,
        "hospital_lon": 127.1448573,
        "hospital_type": "병원",
        "hospital_name": "유당한의원",
        "distance": 25.4385088895378,
        "walking_time": "약 1분"
      },
      {
        "hospital_lat": 37.49281474,
        "hospital_lon": 127.1448573,
        "hospital_type": "병원",
        "hospital_name": "하나의원",
        "distance": 25.4385088895378,
        "walking_time": "약 1분"
      },
      {
        "hospital_lat": 37.4928541,
        "hospital_lon": 127.1446474,
        "hospital_type": "병원",
        "hospital_name": "경희홍한의원",
        "distance": 42.53997120275887,
        "walking_time": "약 1분"
      },
      {
        "hospital_lat": 37.4928541,
        "hospital_lon": 127.1446474,
        "hospital_type": "병원",
        "hospital_name": "김학원소아과의원",
        "distance": 42.53997120275887,
        "walking_time": "약 1분"
      },
      {
        "hospital_lat": 37.4928541,
        "hospital_lon": 127.1446474,
        "hospital_type": "병원",
        "hospital_name": "신재식마취통증의학과의원",
        "distance": 42.53997120275887,
        "walking_time": "약 1분"
      }
    ],
    "music_room": [
      {
        "music_room_lat": 37.4928541,
        "music_room_lon": 127.1446474,
        "music_room_type": "노래방",
        "music_room_name": "텐코인코인노래연습장",
        "distance": 42.53997120275887,
        "walking_time": "약 1분"
      },
      {
        "music_room_lat": 37.49321291,
        "music_room_lon": 127.1448489,
        "music_room_type": "노래방",
        "music_room_name": "Kstar 코인노래연습장",
        "distance": 65.53474310959625,
        "walking_time": "약 1분"
      },
      {
        "music_room_lat": 37.4935447,
        "music_room_lon": 127.1451096,
        "music_room_type": "노래방",
        "music_room_name": "산들",
        "distance": 100.06000795013796,
        "walking_time": "약 2분"
      },
      {
        "music_room_lat": 37.49299045,
        "music_room_lon": 127.14389,
        "music_room_type": "노래방",
        "music_room_name": "스타노래연습장",
        "distance": 109.43895451500477,
        "walking_time": "약 2분"
      },
      {
        "music_room_lat": 37.49311602,
        "music_room_lon": 127.1463342,
        "music_room_type": "노래방",
        "music_room_name": "수",
        "distance": 124.61218829956248,
        "walking_time": "약 2분"
      },
      {
        "music_room_lat": 37.49395542,
        "music_room_lon": 127.1438995,
        "music_room_type": "노래방",
        "music_room_name": "엔젤노래연습장",
        "distance": 177.5900950435325,
        "walking_time": "약 3분"
      },
      {
        "music_room_lat": 37.4941352,
        "music_room_lon": 127.1442441,
        "music_room_type": "노래방",
        "music_room_name": "오렌지코인노래연습장",
        "distance": 180.28008723557548,
        "walking_time": "약 3분"
      },
      {
        "music_room_lat": 37.49372623,
        "music_room_lon": 127.1435048,
        "music_room_type": "노래방",
        "music_room_name": "일번출구 노래연습장",
        "distance": 181.8256321549197,
        "walking_time": "약 3분"
      },
      {
        "music_room_lat": 37.49340028,
        "music_room_lon": 127.1431002,
        "music_room_type": "노래방",
        "music_room_name": "모아노래연습장",
        "distance": 191.5374678924642,
        "walking_time": "약 3분"
      },
      {
        "music_room_lat": 37.49306279,
        "music_room_lon": 127.1473344,
        "music_room_type": "노래방",
        "music_room_name": "앵콜",
        "distance": 206.62984863418043,
        "walking_time": "약 4분"
      }
    ],
    "park": [
      {
        "park_lat": 37.4957083,
        "park_lon": 127.1387,
        "park_type": "공원",
        "park_name": "장지근린공원",
        "distance": 655.7389953894216,
        "walking_time": "약 10분"
      },
      {
        "park_lat": 37.5005173,
        "park_lon": 127.1586644,
        "park_type": "공원",
        "park_name": "천마근린공원",
        "distance": 1486.0069800600093,
        "walking_time": "약 23분"
      },
      {
        "park_lat": 37.5038715,
        "park_lon": 127.1323957,
        "park_type": "공원",
        "park_name": "오금근린공원",
        "distance": 1674.717355923604,
        "walking_time": "약 25분"
      }
    ],
    "park_station": [
      {
        "park_station_lat": 37.493986,
        "park_station_lon": 127.146035,
        "park_station_type": "주차장",
        "park_station_name": "거여동 거주자상생주차장",
        "distance": 172.4023596323897,
        "walking_time": "약 3분"
      },
      {
        "park_station_lat": 37.49224535,
        "park_station_lon": 127.150374,
        "park_station_type": "주차장",
        "park_station_name": "거여동",
        "distance": 471.6464105563617,
        "walking_time": "약 8분"
      },
      {
        "park_station_lat": 37.49613731,
        "park_station_lon": 127.1498317,
        "park_station_type": "주차장",
        "park_station_name": "마천동3",
        "distance": 573.1729162857922,
        "walking_time": "약 9분"
      },
      {
        "park_station_lat": 37.49653744,
        "park_station_lon": 127.1501866,
        "park_station_type": "주차장",
        "park_station_name": "송파주차장",
        "distance": 626.4483288764218,
        "walking_time": "약 10분"
      },
      {
        "park_station_lat": 37.49729007,
        "park_station_lon": 127.1409581,
        "park_station_type": "주차장",
        "park_station_name": "송파구 거여동 11-1",
        "distance": 630.1694457126493,
        "walking_time": "약 10분"
      },
      {
        "park_station_lat": 37.49978377,
        "park_station_lon": 127.1429216,
        "park_station_type": "주차장",
        "park_station_name": "06월 28일",
        "distance": 815.6334772564912,
        "walking_time": "약 13분"
      },
      {
        "park_station_lat": 37.50020877,
        "park_station_lon": 127.1433733,
        "park_station_type": "주차장",
        "park_station_name": "송파구 마천동 27-3",
        "distance": 853.8826100524208,
        "walking_time": "약 13분"
      },
      {
        "park_station_lat": 37.49199658,
        "park_station_lon": 127.1553897,
        "park_station_type": "주차장",
        "park_station_name": "송파구 마천동 376-31",
        "distance": 914.9075245515222,
        "walking_time": "약 14분"
      },
      {
        "park_station_lat": 37.491055,
        "park_station_lon": 127.1348718,
        "park_station_type": "주차장",
        "park_station_name": "장지동공영",
        "distance": 915.4206417871396,
        "walking_time": "약 14분"
      },
      {
        "park_station_lat": 37.49118682,
        "park_station_lon": 127.134715,
        "park_station_type": "주차장",
        "park_station_name": "문정 공영주차장",
        "distance": 926.317285210834,
        "walking_time": "약 14분"
      }
    ],
    "pc_room": [
      {
        "pc_room_lat": 37.493062789198,
        "pc_room_lon": 127.147334414767,
        "pc_room_type": "PC방",
        "pc_room_name": "3POP PC방",
        "distance": 206.631098262908,
        "walking_time": "약 4분"
      },
      {
        "pc_room_lat": 37.4939943343576,
        "pc_room_lon": 127.143012725972,
        "pc_room_type": "PC방",
        "pc_room_name": "아이팝",
        "distance": 234.1956425571473,
        "walking_time": "약 4분"
      },
      {
        "pc_room_lat": 37.4943492306914,
        "pc_room_lon": 127.142349617166,
        "pc_room_type": "PC방",
        "pc_room_name": "유니넷 PC방 거여동점",
        "distance": 304.4851938665494,
        "walking_time": "약 5분"
      },
      {
        "pc_room_lat": 37.4975066077838,
        "pc_room_lon": 127.145982383873,
        "pc_room_type": "PC방",
        "pc_room_name": "PC헤카",
        "distance": 546.6721411003025,
        "walking_time": "약 9분"
      },
      {
        "pc_room_lat": 37.4974574670409,
        "pc_room_lon": 127.147534389311,
        "pc_room_type": "PC방",
        "pc_room_name": "물라PC",
        "distance": 578.0993348994426,
        "walking_time": "약 9분"
      },
      {
        "pc_room_lat": 37.4974748895631,
        "pc_room_lon": 127.148371257876,
        "pc_room_type": "PC방",
        "pc_room_name": "스피드",
        "distance": 611.6084276200982,
        "walking_time": "약 10분"
      },
      {
        "pc_room_lat": 37.4980805219712,
        "pc_room_lon": 127.146149512256,
        "pc_room_type": "PC방",
        "pc_room_name": "Raid PC",
        "distance": 611.9992173878222,
        "walking_time": "약 10분"
      },
      {
        "pc_room_lat": 37.4982195708627,
        "pc_room_lon": 127.144297873134,
        "pc_room_type": "PC방",
        "pc_room_name": "메카",
        "distance": 623.3136301411251,
        "walking_time": "약 10분"
      },
      {
        "pc_room_lat": 37.4973420111008,
        "pc_room_lon": 127.148999750435,
        "pc_room_type": "PC방",
        "pc_room_name": "망고톡PC방",
        "distance": 627.6657161598487,
        "walking_time": "약 10분"
      },
      {
        "pc_room_lat": 37.4969665742871,
        "pc_room_lon": 127.149631601697,
        "pc_room_type": "PC방",
        "pc_room_name": "제노 PC cafe",
        "distance": 627.7310435955574,
        "walking_time": "약 10분"
      }
    ],
    "police_office": [
      {
        "police_office_lat": 37.49702675,
        "police_office_lon": 127.1482101,
        "police_office_type": "경찰소",
        "police_office_name": "마천파출소",
        "distance": 561.1689115182257,
        "walking_time": "약 9분"
      }
    ],
    "post_office": [
      {
        "post_office_lat": 37.48956065,
        "post_office_lon": 127.1425721,
        "post_office_type": "우체국",
        "post_office_name": "서울거여동우체국",
        "distance": 406.90529801361225,
        "walking_time": "약 7분"
      },
      {
        "post_office_lat": 37.49649927,
        "post_office_lon": 127.14981,
        "post_office_type": "우체국",
        "post_office_name": "서울마천동우체국",
        "distance": 599.8210218008093,
        "walking_time": "약 9분"
      },
      {
        "post_office_lat": 37.4958025,
        "post_office_lon": 127.1314297,
        "post_office_type": "우체국",
        "post_office_name": "서울가락극동우편취급국",
        "distance": 1252.0135616190312,
        "walking_time": "약 19분"
      }
    ],
    "public_health_center": [
      {
        "public_health_center_lat": 37.48977029,
        "public_health_center_lon": 127.142671,
        "public_health_center_type": "보건소",
        "public_health_center_name": "송파구보건지소",
        "distance": 382.5941312281108,
        "walking_time": "약 6분"
      }
    ],
    "school": [
      {
        "school_lat": 37.4916482412209,
        "school_lon": 127.142085431868,
        "school_type": "고등학교",
        "school_name": "서울인공지능고등학교",
        "distance": 284.27266901610045,
        "walking_time": "약 5분"
      },
      {
        "school_lat": 37.4961862376383,
        "school_lon": 127.143214689204,
        "school_type": "초등학교",
        "school_name": "서울영풍초등학교",
        "distance": 425.7227399110986,
        "walking_time": "약 7분"
      },
      {
        "school_lat": 37.4876385082093,
        "school_lon": 127.144815961872,
        "school_type": "초등학교",
        "school_name": "서울거원초등학교",
        "distance": 557.1969920293055,
        "walking_time": "약 9분"
      },
      {
        "school_lat": 37.4876964764281,
        "school_lon": 127.146542554504,
        "school_type": "중학교",
        "school_name": "거원중학교",
        "distance": 565.8559381281664,
        "walking_time": "약 9분"
      },
      {
        "school_lat": 37.4973626123965,
        "school_lon": 127.139888149341,
        "school_type": "초등학교",
        "school_name": "서울개롱초등학교",
        "distance": 694.6978633514301,
        "walking_time": "약 11분"
      },
      {
        "school_lat": 37.4975692004431,
        "school_lon": 127.139517839227,
        "school_type": "고등학교",
        "school_name": "보인고등학교",
        "distance": 733.5268419428256,
        "walking_time": "약 11분"
      },
      {
        "school_lat": 37.4975692004431,
        "school_lon": 127.139517839227,
        "school_type": "중학교",
        "school_name": "보인중학교",
        "distance": 733.5268419428256,
        "walking_time": "약 11분"
      },
      {
        "school_lat": 37.495437509372,
        "school_lon": 127.152704624882,
        "school_type": "초등학교",
        "school_name": "서울마천초등학교",
        "distance": 743.0809069958098,
        "walking_time": "약 12분"
      },
      {
        "school_lat": 37.4872591125777,
        "school_lon": 127.150354996473,
        "school_type": "중학교",
        "school_name": "위례솔중학교",
        "distance": 760.0677955942405,
        "walking_time": "약 12분"
      },
      {
        "school_lat": 37.4855916213524,
        "school_lon": 127.1470595726,
        "school_type": "고등학교",
        "school_name": "덕수고등학교",
        "distance": 804.1610378906706,
        "walking_time": "약 13분"
      }
    ],
    "self_laundromat": [
      {
        "self_laundromat_lat": 37.49979152,
        "self_laundromat_lon": 127.1372233,
        "self_laundromat_type": "셀프 빨래방",
        "self_laundromat_name": "셀빨래방 오금점",
        "distance": 1052.7638037545748,
        "walking_time": "약 16분"
      },
      {
        "self_laundromat_lat": 37.49979152,
        "self_laundromat_lon": 127.1372233,
        "self_laundromat_type": "셀프 빨래방",
        "self_laundromat_name": "셀빨래방 오금점",
        "distance": 1052.7638037545748,
        "walking_time": "약 16분"
      },
      {
        "self_laundromat_lat": 37.50268585,
        "self_laundromat_lon": 127.1388139,
        "self_laundromat_type": "셀프 빨래방",
        "self_laundromat_name": "워시피플 셀프빨래방 송파오금동점",
        "distance": 1244.6527163036835,
        "walking_time": "약 19분"
      },
      {
        "self_laundromat_lat": 37.50268585,
        "self_laundromat_lon": 127.1388139,
        "self_laundromat_type": "셀프 빨래방",
        "self_laundromat_name": "워시피플 셀프빨래방 송파오금동점",
        "distance": 1244.6527163036835,
        "walking_time": "약 19분"
      },
      {
        "self_laundromat_lat": 37.50523245,
        "self_laundromat_lon": 127.1336582,
        "self_laundromat_type": "셀프 빨래방",
        "self_laundromat_name": "오금동셀프빨래방",
        "distance": 1723.091438988797,
        "walking_time": "약 26분"
      },
      {
        "self_laundromat_lat": 37.50523245,
        "self_laundromat_lon": 127.1336582,
        "self_laundromat_type": "셀프 빨래방",
        "self_laundromat_name": "오금동셀프빨래방",
        "distance": 1723.091438988797,
        "walking_time": "약 26분"
      }
    ],
    "subway": [
      {
        "subway_lat": 37.4932073280335,
        "subway_lon": 127.144032331306,
        "subway_type": "지하철",
        "subway_name": "5호선-거여역",
        "distance": 109.49315821740306,
        "walking_time": "약 2분"
      },
      {
        "subway_lat": 37.4946515873808,
        "subway_lon": 127.151986088287,
        "subway_type": "지하철",
        "subway_name": "5호선-마천역",
        "distance": 651.1365776291053,
        "walking_time": "약 10분"
      },
      {
        "subway_lat": 37.4978146566399,
        "subway_lon": 127.135158595127,
        "subway_type": "지하철",
        "subway_name": "5호선-개롱역",
        "distance": 1045.0498033484728,
        "walking_time": "약 16분"
      }
    ],
    "supermarket": [
      {
        "supermarket_lat": 37.49272965,
        "supermarket_lon": 127.1455473,
        "supermarket_type": "마트",
        "supermarket_name": "홈플러스(주)익스프레스 거여점",
        "distance": 44.6770674823869,
        "walking_time": "약 1분"
      },
      {
        "supermarket_lat": 37.49704548,
        "supermarket_lon": 127.1472821,
        "supermarket_type": "마트",
        "supermarket_name": "GS THE FRESH 송파시그니처점",
        "distance": 527.2812272604161,
        "walking_time": "약 8분"
      },
      {
        "supermarket_lat": 37.49500164,
        "supermarket_lon": 127.1510614,
        "supermarket_type": "마트",
        "supermarket_name": "송파쇼핑센타",
        "distance": 591.3500050656689,
        "walking_time": "약 9분"
      },
      {
        "supermarket_lat": 37.4980668,
        "supermarket_lon": 127.1506865,
        "supermarket_type": "마트",
        "supermarket_name": "마천시장",
        "distance": 781.296048904075,
        "walking_time": "약 12분"
      },
      {
        "supermarket_lat": 37.4953843,
        "supermarket_lon": 127.1345089,
        "supermarket_type": "마트",
        "supermarket_name": "롯데프레시송파가락가맹점",
        "distance": 978.722239749998,
        "walking_time": "약 15분"
      },
      {
        "supermarket_lat": 37.4937245,
        "supermarket_lon": 127.1330492,
        "supermarket_type": "마트",
        "supermarket_name": "(주)지에스리테일 송파가락점",
        "distance": 1065.7149723183636,
        "walking_time": "약 16분"
      }
    ]
  }
}