{
  "클러스터_위도": 37.62289199999999,
  "클러스터_경도": 127.076754,
  "클러스터_level": 3.0,
  "facilities": {
    "bus": [
      {
        "bus_lat": 37.62274084,
        "bus_lon": 127.0741782,
        "bus_type": "버스정류장",
        "bus_name": "공릉시장",
        "distance": 227.47656474895192,
        "walking_time": "약 4분"
      },
      {
        "bus_lat": 37.62345785,
        "bus_lon": 127.079519,
        "bus_type": "버스정류장",
        "bus_name": "안마을",
        "distance": 251.51394800022345,
        "walking_time": "약 4분"
      },
      {
        "bus_lat": 37.62138706,
        "bus_lon": 127.0788884,
        "bus_type": "버스정류장",
        "bus_name": "두산힐스빌아파트",
        "distance": 251.6750806065061,
        "walking_time": "약 4분"
      },
      {
        "bus_lat": 37.62369707,
        "bus_lon": 127.0794301,
        "bus_type": "버스정류장",
        "bus_name": "안마을",
        "distance": 252.1151388129021,
        "walking_time": "약 4분"
      },
      {
        "bus_lat": 37.621341,
        "bus_lon": 127.0790469,
        "bus_type": "버스정류장",
        "bus_name": "두산힐스빌아파트",
        "distance": 265.56326059411253,
        "walking_time": "약 4분"
      },
      {
        "bus_lat": 37.62311604,
        "bus_lon": 127.0736212,
        "bus_type": "버스정류장",
        "bus_name": "공릉시장",
        "distance": 277.0322844213548,
        "walking_time": "약 5분"
      },
      {
        "bus_lat": 37.61971327,
        "bus_lon": 127.0781313,
        "bus_type": "버스정류장",
        "bus_name": "태릉사거리",
        "distance": 373.6944476208466,
        "walking_time": "약 6분"
      },
      {
        "bus_lat": 37.6195891,
        "bus_lon": 127.0752003,
        "bus_type": "버스정류장",
        "bus_name": "태릉입구역4번출구",
        "distance": 391.93011147421,
        "walking_time": "약 6분"
      },
      {
        "bus_lat": 37.62214903,
        "bus_lon": 127.0723922,
        "bus_type": "버스정류장",
        "bus_name": "공릉행복발전소",
        "distance": 392.93507649686177,
        "walking_time": "약 6분"
      },
      {
        "bus_lat": 37.62598221,
        "bus_lon": 127.0741277,
        "bus_type": "버스정류장",
        "bus_name": "공릉역",
        "distance": 414.21030373463327,
        "walking_time": "약 7분"
      }
    ],
    "community_center": [
      {
        "community_center_lat": 37.62477801,
        "community_center_lon": 127.0737505,
        "community_center_type": "주민센터",
        "community_center_name": "공릉1동 자치회관",
        "distance": 337.5659104603168,
        "walking_time": "약 6분"
      },
      {
        "community_center_lat": 37.62128712,
        "community_center_lon": 127.0833787,
        "community_center_type": "주민센터",
        "community_center_name": "공릉2동 자치회관",
        "distance": 610.1343134248407,
        "walking_time": "약 10분"
      },
      {
        "community_center_lat": 37.62100498,
        "community_center_lon": 127.0692318,
        "community_center_type": "주민센터",
        "community_center_name": "월계3동 자치회관",
        "distance": 694.9339434835327,
        "walking_time": "약 11분"
      },
      {
        "community_center_lat": 37.61241458,
        "community_center_lon": 127.0784793,
        "community_center_type": "주민센터",
        "community_center_name": "묵1동 자치회관",
        "distance": 1174.904562450374,
        "walking_time": "약 18분"
      },
      {
        "community_center_lat": 37.61999186,
        "community_center_lon": 127.0628833,
        "community_center_type": "주민센터",
        "community_center_name": "월계1동 자치회관",
        "distance": 1263.4834607011503,
        "walking_time": "약 19분"
      },
      {
        "community_center_lat": 37.63204326,
        "community_center_lon": 127.0679518,
        "community_center_type": "주민센터",
        "community_center_name": "하계2동 자치회관",
        "distance": 1279.199948209797,
        "walking_time": "약 20분"
      },
      {
        "community_center_lat": 37.61297096,
        "community_center_lon": 127.0614241,
        "community_center_type": "주민센터",
        "community_center_name": "석관동 자치회관",
        "distance": 1743.5792040549393,
        "walking_time": "약 27분"
      }
    ],
    "convenience_store": [
      {
        "convenience_store_lat": 37.62158919,
        "convenience_store_lon": 127.0763751,
        "convenience_store_type": "편의점",
        "convenience_store_name": "GS25 공릉으뜸점",
        "distance": 148.6597232223309,
        "walking_time": "약 3분"
      },
      {
        "convenience_store_lat": 37.62332612,
        "convenience_store_lon": 127.0784317,
        "convenience_store_type": "편의점",
        "convenience_store_name": "CU 공릉철길공원점",
        "distance": 155.4423867984302,
        "walking_time": "약 3분"
      },
      {
        "convenience_store_lat": 37.62160798,
        "convenience_store_lon": 127.0776733,
        "convenience_store_type": "편의점",
        "convenience_store_name": "세븐일레븐 공릉하나점",
        "distance": 164.1354061378659,
        "walking_time": "약 3분"
      },
      {
        "convenience_store_lat": 37.62445211,
        "convenience_store_lon": 127.0767423,
        "convenience_store_type": "편의점",
        "convenience_store_name": "CU 공릉과기대점",
        "distance": 173.47937727415075,
        "walking_time": "약 3분"
      },
      {
        "convenience_store_lat": 37.62293008,
        "convenience_store_lon": 127.0741967,
        "convenience_store_type": "편의점",
        "convenience_store_name": "세븐일레븐 공릉시장점",
        "distance": 225.2649246121352,
        "walking_time": "약 4분"
      },
      {
        "convenience_store_lat": 37.62458512,
        "convenience_store_lon": 127.0783505,
        "convenience_store_type": "편의점",
        "convenience_store_name": "세븐일레븐 노원공릉그린점",
        "distance": 234.97627095012552,
        "walking_time": "약 4분"
      },
      {
        "convenience_store_lat": 37.62529338,
        "convenience_store_lon": 127.0767149,
        "convenience_store_type": "편의점",
        "convenience_store_name": "GS25 공릉공원점",
        "distance": 267.04347617452885,
        "walking_time": "약 4분"
      },
      {
        "convenience_store_lat": 37.62131223,
        "convenience_store_lon": 127.0795044,
        "convenience_store_type": "편의점",
        "convenience_store_name": "GS25 공릉원룸점",
        "distance": 299.2236059636397,
        "walking_time": "약 5분"
      },
      {
        "convenience_store_lat": 37.62330279,
        "convenience_store_lon": 127.0804253,
        "convenience_store_type": "편의점",
        "convenience_store_name": "세븐일레븐 공릉금강점",
        "distance": 326.54642904725023,
        "walking_time": "약 5분"
      },
      {
        "convenience_store_lat": 37.62592765,
        "convenience_store_lon": 127.0783953,
        "convenience_store_type": "편의점",
        "convenience_store_name": "GS25 공릉타운점",
        "distance": 367.1969360412632,
        "walking_time": "약 6분"
      }
    ],
    "daycare": [
      {
        "daycare_lat": 37.62341189,
        "daycare_lon": 127.0764068,
        "daycare_type": "어린이집",
        "daycare_name": "새롬영재어린이집",
        "distance": 65.39823047935131,
        "walking_time": "약 1분"
      },
      {
        "daycare_lat": 37.62244525,
        "daycare_lon": 127.0760834,
        "daycare_type": "어린이집",
        "daycare_name": "참사랑어린이집",
        "distance": 77.17466568155004,
        "walking_time": "약 2분"
      },
      {
        "daycare_lat": 37.62343474,
        "daycare_lon": 127.0790992,
        "daycare_type": "어린이집",
        "daycare_name": "동산어린이집",
        "distance": 215.18069668169937,
        "walking_time": "약 4분"
      },
      {
        "daycare_lat": 37.62277486,
        "daycare_lon": 127.0742227,
        "daycare_type": "어린이집",
        "daycare_name": "리틀어린이집",
        "distance": 223.3156902723669,
        "walking_time": "약 4분"
      },
      {
        "daycare_lat": 37.62466736,
        "daycare_lon": 127.0786388,
        "daycare_type": "어린이집",
        "daycare_name": "사랑나무어린이집",
        "distance": 257.9253713191281,
        "walking_time": "약 4분"
      },
      {
        "daycare_lat": 37.6215345,
        "daycare_lon": 127.07964823113429,
        "daycare_type": "어린이집",
        "daycare_name": "두산영재어린이집",
        "distance": 296.2428427716844,
        "walking_time": "약 5분"
      },
      {
        "daycare_lat": 37.62304093,
        "daycare_lon": 127.0731081,
        "daycare_type": "어린이집",
        "daycare_name": "꿈의숲어린이집",
        "distance": 321.52622126506185,
        "walking_time": "약 5분"
      },
      {
        "daycare_lat": 37.62477998,
        "daycare_lon": 127.0738036,
        "daycare_type": "어린이집",
        "daycare_name": "꿈나무방과후교실",
        "distance": 334.05159716201007,
        "walking_time": "약 5분"
      },
      {
        "daycare_lat": 37.62103384,
        "daycare_lon": 127.0799535,
        "daycare_type": "어린이집",
        "daycare_name": "또또어린이집",
        "distance": 349.4217740645816,
        "walking_time": "약 6분"
      },
      {
        "daycare_lat": 37.62598238,
        "daycare_lon": 127.0756964,
        "daycare_type": "어린이집",
        "daycare_name": "희망나래어린이집",
        "distance": 356.03404309047284,
        "walking_time": "약 6분"
      }
    ],
    "education": [
      {
        "education_lat": 37.62017392,
        "education_lon": 127.0769362,
        "education_type": "박물관/기념관",
        "education_name": "서울생활사박물관",
        "distance": 302.662402848665,
        "walking_time": "약 5분"
      },
      {
        "education_lat": 37.62879899,
        "education_lon": 127.0698009,
        "education_type": "문화원",
        "education_name": "노원문화원",
        "distance": 897.9916851794426,
        "walking_time": "약 14분"
      },
      {
        "education_lat": 37.63307893,
        "education_lon": 127.0767947,
        "education_type": "미술관/갤러리",
        "education_name": "서울과학기술대학교 미술관",
        "distance": 1132.7406048340806,
        "walking_time": "약 17분"
      },
      {
        "education_lat": 37.61517057,
        "education_lon": 127.0869064,
        "education_type": "도서관",
        "education_name": "중랑구립정보도서관",
        "distance": 1239.6491201493282,
        "walking_time": "약 19분"
      },
      {
        "education_lat": 37.61517057,
        "education_lon": 127.0869064,
        "education_type": "도서관",
        "education_name": "중랑구립정보도서관",
        "distance": 1239.6491201493282,
        "walking_time": "약 19분"
      },
      {
        "education_lat": 37.61348164414527,
        "education_lon": 127.06543951524604,
        "education_type": "도서관",
        "education_name": "석관동미리내도서관",
        "distance": 1444.9996168455564,
        "walking_time": "약 22분"
      },
      {
        "education_lat": 37.63951386,
        "education_lon": 127.0678213,
        "education_type": "도서관",
        "education_name": "서울특별시교육청 노원평생학습관",
        "distance": 2008.6992870319004,
        "walking_time": "약 30분"
      }
    ],
    "fitness": [
      {
        "fitness_lat": 37.62217797,
        "fitness_lon": 127.0766725,
        "fitness_type": "운동시설",
        "fitness_name": "프리원핏",
        "distance": 79.72031121886555,
        "walking_time": "약 2분"
      },
      {
        "fitness_lat": 37.62195341,
        "fitness_lon": 127.0753261,
        "fitness_type": "운동시설",
        "fitness_name": "부르스타짐 공릉점",
        "distance": 163.42411986520466,
        "walking_time": "약 3분"
      },
      {
        "fitness_lat": 37.62308112,
        "fitness_lon": 127.0795356,
        "fitness_type": "운동시설",
        "fitness_name": "FitnessCC",
        "distance": 245.88022582595983,
        "walking_time": "약 4분"
      },
      {
        "fitness_lat": 37.62270509,
        "fitness_lon": 127.0803965,
        "fitness_type": "운동시설",
        "fitness_name": "트레인스마트",
        "distance": 321.47328516255413,
        "walking_time": "약 5분"
      },
      {
        "fitness_lat": 37.61961324,
        "fitness_lon": 127.0778853,
        "fitness_type": "운동시설",
        "fitness_name": "빌리핏 PT 스튜디오",
        "distance": 377.9514210158085,
        "walking_time": "약 6분"
      },
      {
        "fitness_lat": 37.62527659,
        "fitness_lon": 127.0800226,
        "fitness_type": "운동시설",
        "fitness_name": "포미짐",
        "distance": 391.3739007770532,
        "walking_time": "약 6분"
      },
      {
        "fitness_lat": 37.62668094,
        "fitness_lon": 127.0751054,
        "fitness_type": "운동시설",
        "fitness_name": "리얼리햅 맞춤운동센터",
        "distance": 445.6268461885903,
        "walking_time": "약 7분"
      },
      {
        "fitness_lat": 37.61961962,
        "fitness_lon": 127.0797964,
        "fitness_type": "운동시설",
        "fitness_name": "스포츠 토탈 케어",
        "distance": 451.8877226948009,
        "walking_time": "약 7분"
      },
      {
        "fitness_lat": 37.62706167,
        "fitness_lon": 127.0771013,
        "fitness_type": "운동시설",
        "fitness_name": "스포애니 공릉점",
        "distance": 464.6539335407562,
        "walking_time": "약 7분"
      },
      {
        "fitness_lat": 37.62715484,
        "fitness_lon": 127.0762692,
        "fitness_type": "운동시설",
        "fitness_name": "뉴크로핏",
        "distance": 475.9251972139754,
        "walking_time": "약 8분"
      }
    ],
    "gas_station": [
      {
        "gas_station_lat": 37.61957693,
        "gas_station_lon": 127.0808357,
        "gas_station_type": "주유소",
        "gas_station_name": "화랑대주유소",
        "distance": 514.8908014405955,
        "walking_time": "약 8분"
      },
      {
        "gas_station_lat": 37.61859616,
        "gas_station_lon": 127.0791755,
        "gas_station_type": "주유소",
        "gas_station_name": "㈜이엠석유 배꽃나라주유소",
        "distance": 523.1238982537803,
        "walking_time": "약 8분"
      },
      {
        "gas_station_lat": 37.62697563,
        "gas_station_lon": 127.0719676,
        "gas_station_type": "주유소",
        "gas_station_name": "한신주유소",
        "distance": 619.579184965627,
        "walking_time": "약 10분"
      },
      {
        "gas_station_lat": 37.62595629,
        "gas_station_lon": 127.0855496,
        "gas_station_type": "주유소",
        "gas_station_name": "유한책임회사동하석유 태릉솔밭지점",
        "distance": 846.2529062877787,
        "walking_time": "약 13분"
      },
      {
        "gas_station_lat": 37.63358901,
        "gas_station_lon": 127.072325,
        "gas_station_type": "주유소",
        "gas_station_name": "하계삼호주유소",
        "distance": 1251.7709865469783,
        "walking_time": "약 19분"
      },
      {
        "gas_station_lat": 37.61261571,
        "gas_station_lon": 127.0614001,
        "gas_station_type": "주유소",
        "gas_station_name": "우리주유소",
        "distance": 1770.4533789822883,
        "walking_time": "약 27분"
      },
      {
        "gas_station_lat": 37.61363831,
        "gas_station_lon": 127.0602167,
        "gas_station_type": "주유소",
        "gas_station_name": "현대오일뱅크(주)직영 장삼주유소",
        "distance": 1783.3446740458146,
        "walking_time": "약 27분"
      }
    ],
    "hospital": [
      {
        "hospital_lat": 37.62245313,
        "hospital_lon": 127.0752787,
        "hospital_type": "병원",
        "hospital_name": "평산한의원",
        "distance": 138.7942216625366,
        "walking_time": "약 3분"
      },
      {
        "hospital_lat": 37.62195341,
        "hospital_lon": 127.0753261,
        "hospital_type": "병원",
        "hospital_name": "CBK최영균치과의원",
        "distance": 163.42411986520466,
        "walking_time": "약 3분"
      },
      {
        "hospital_lat": 37.62195341,
        "hospital_lon": 127.0753261,
        "hospital_type": "병원",
        "hospital_name": "경희효한의원",
        "distance": 163.42411986520466,
        "walking_time": "약 3분"
      },
      {
        "hospital_lat": 37.62195341,
        "hospital_lon": 127.0753261,
        "hospital_type": "병원",
        "hospital_name": "최병기치과의원",
        "distance": 163.42411986520466,
        "walking_time": "약 3분"
      },
      {
        "hospital_lat": 37.62315189,
        "hospital_lon": 127.0790687,
        "hospital_type": "병원",
        "hospital_name": "공릉의원",
        "distance": 205.896781095152,
        "walking_time": "약 4분"
      },
      {
        "hospital_lat": 37.62291892,
        "hospital_lon": 127.0791614,
        "hospital_type": "병원",
        "hospital_name": "토론토이앤박치과의원",
        "distance": 212.04435952748787,
        "walking_time": "약 4분"
      },
      {
        "hospital_lat": 37.62260688,
        "hospital_lon": 127.0743549,
        "hospital_type": "병원",
        "hospital_name": "서울정치과의원",
        "distance": 213.65798365800944,
        "walking_time": "약 4분"
      },
      {
        "hospital_lat": 37.62260688,
        "hospital_lon": 127.0743549,
        "hospital_type": "병원",
        "hospital_name": "척척정형외과의원",
        "distance": 213.65798365800944,
        "walking_time": "약 4분"
      },
      {
        "hospital_lat": 37.62260688,
        "hospital_lon": 127.0743549,
        "hospital_type": "병원",
        "hospital_name": "편한내과의원",
        "distance": 213.65798365800944,
        "walking_time": "약 4분"
      },
      {
        "hospital_lat": 37.62205085,
        "hospital_lon": 127.0745533,
        "hospital_type": "병원",
        "hospital_name": "서울공릉재활의학과의원",
        "distance": 215.20769403337545,
        "walking_time": "약 4분"
      }
    ],
    "music_room": [
      {
        "music_room_lat": 37.62237054,
        "music_room_lon": 127.0756626,
        "music_room_type": "노래방",
        "music_room_name": "해피 노래연습장",
        "distance": 112.2562318550104,
        "walking_time": "약 2분"
      },
      {
        "music_room_lat": 37.62245313,
        "music_room_lon": 127.0752787,
        "music_room_type": "노래방",
        "music_room_name": "도깨비 노래연습장",
        "distance": 138.7942216625366,
        "walking_time": "약 3분"
      },
      {
        "music_room_lat": 37.62244226,
        "music_room_lon": 127.0790823,
        "music_room_type": "노래방",
        "music_room_name": "쏭쏭 노래방",
        "distance": 211.067364736046,
        "walking_time": "약 4분"
      },
      {
        "music_room_lat": 37.62231438,
        "music_room_lon": 127.0744204,
        "music_room_type": "노래방",
        "music_room_name": "물방아",
        "distance": 215.32664700659777,
        "walking_time": "약 4분"
      },
      {
        "music_room_lat": 37.62207761,
        "music_room_lon": 127.0789871,
        "music_room_type": "노래방",
        "music_room_name": "SBS",
        "distance": 216.51987559298576,
        "walking_time": "약 4분"
      },
      {
        "music_room_lat": 37.62188578,
        "music_room_lon": 127.0790002,
        "music_room_type": "노래방",
        "music_room_name": "또행운",
        "distance": 227.2758592679785,
        "walking_time": "약 4분"
      },
      {
        "music_room_lat": 37.62308112,
        "music_room_lon": 127.0795356,
        "music_room_type": "노래방",
        "music_room_name": "대박 노래연습장",
        "distance": 245.88022582595983,
        "walking_time": "약 4분"
      },
      {
        "music_room_lat": 37.62379157,
        "music_room_lon": 127.0793707,
        "music_room_type": "노래방",
        "music_room_name": "라이브",
        "distance": 251.2272669085609,
        "walking_time": "약 4분"
      },
      {
        "music_room_lat": 37.62366175,
        "music_room_lon": 127.0739378,
        "music_room_type": "노래방",
        "music_room_name": "태양노래연습장",
        "distance": 262.37900236280353,
        "walking_time": "약 4분"
      },
      {
        "music_room_lat": 37.62069462,
        "music_room_lon": 127.0779962,
        "music_room_type": "노래방",
        "music_room_name": "우정",
        "distance": 267.7126325699858,
        "walking_time": "약 4분"
      }
    ],
    "outdoor_sports": [
      {
        "outdoor_sports_lat": 37.6174857389557,
        "outdoor_sports_lon": 127.077195979289,
        "outdoor_sports_type": "야외 체육시설",
        "outdoor_sports_name": "묵동천 제방 산책로",
        "distance": 602.4078399415775,
        "walking_time": "약 9분"
      },
      {
        "outdoor_sports_lat": 37.6184024603499,
        "outdoor_sports_lon": 127.081009777604,
        "outdoor_sports_type": "야외 체육시설",
        "outdoor_sports_name": "묵동브라운스톤A",
        "distance": 624.2656699385686,
        "walking_time": "약 10분"
      },
      {
        "outdoor_sports_lat": 37.6180483805077,
        "outdoor_sports_lon": 127.083326859732,
        "outdoor_sports_type": "야외 체육시설",
        "outdoor_sports_name": "원묵분수공원",
        "distance": 790.696119951549,
        "walking_time": "약 12분"
      },
      {
        "outdoor_sports_lat": 37.6153032238014,
        "outdoor_sports_lon": 127.078096097168,
        "outdoor_sports_type": "야외 체육시설",
        "outdoor_sports_name": "묵동소공원",
        "distance": 852.0725364460936,
        "walking_time": "약 13분"
      },
      {
        "outdoor_sports_lat": 37.6172115102861,
        "outdoor_sports_lon": 127.083627782035,
        "outdoor_sports_type": "야외 체육시설",
        "outdoor_sports_name": "봉화마을마당",
        "distance": 874.9223371806352,
        "walking_time": "약 14분"
      },
      {
        "outdoor_sports_lat": 37.6151688817533,
        "outdoor_sports_lon": 127.079452856775,
        "outdoor_sports_type": "야외 체육시설",
        "outdoor_sports_name": "자투리녹지",
        "distance": 891.0623442140801,
        "walking_time": "약 14분"
      },
      {
        "outdoor_sports_lat": 37.6147980994094,
        "outdoor_sports_lon": 127.078549074829,
        "outdoor_sports_type": "야외 체육시설",
        "outdoor_sports_name": "정자목마을마당",
        "distance": 913.7822186173668,
        "walking_time": "약 14분"
      },
      {
        "outdoor_sports_lat": 37.6167374084338,
        "outdoor_sports_lon": 127.08476704839,
        "outdoor_sports_type": "야외 체육시설",
        "outdoor_sports_name": "원묵어린이공원(묵동)",
        "distance": 983.0722646756044,
        "walking_time": "약 15분"
      },
      {
        "outdoor_sports_lat": 37.6137428507791,
        "outdoor_sports_lon": 127.083295212292,
        "outdoor_sports_type": "야외 체육시설",
        "outdoor_sports_name": "다랭이공원(묵동)",
        "distance": 1169.1466887992974,
        "walking_time": "약 18분"
      },
      {
        "outdoor_sports_lat": 37.6146560859622,
        "outdoor_sports_lon": 127.085072761092,
        "outdoor_sports_type": "야외 체육시설",
        "outdoor_sports_name": "유아숲체험장(묵동)",
        "distance": 1172.818700621851,
        "walking_time": "약 18분"
      }
    ],
    "park": [
      {
        "park_lat": 37.627077,
        "park_lon": 127.076482,
        "park_type": "공원",
        "park_name": "경춘선숲길",
        "distance": 465.9669174309798,
        "walking_time": "약 7분"
      }
    ],
    "park_station": [
      {
        "park_station_lat": 37.61909794,
        "park_station_lon": 127.0775052,
        "park_station_type": "주차장",
        "park_station_name": "북부지법주변",
        "distance": 427.0365302627094,
        "walking_time": "약 7분"
      },
      {
        "park_station_lat": 37.6146818,
        "park_station_lon": 127.0803891,
        "park_station_type": "주차장",
        "park_station_name": "숙선옹주로 5공영",
        "distance": 967.44631113711,
        "walking_time": "약 15분"
      },
      {
        "park_station_lat": 37.61538417,
        "park_station_lon": 127.0860709,
        "park_station_type": "주차장",
        "park_station_name": "원묵 고등학교 공용 지하주차장",
        "distance": 1170.6070674354196,
        "walking_time": "약 18분"
      },
      {
        "park_station_lat": 37.61565507,
        "park_station_lon": 127.065157,
        "park_station_type": "주차장",
        "park_station_name": "석계역 앞",
        "distance": 1300.325274396844,
        "walking_time": "약 20분"
      },
      {
        "park_station_lat": 37.61544723,
        "park_station_lon": 127.0624695,
        "park_station_type": "주차장",
        "park_station_name": "석계역 공영주차장",
        "distance": 1506.0388104398437,
        "walking_time": "약 23분"
      },
      {
        "park_station_lat": 37.63731977,
        "park_station_lon": 127.073265,
        "park_station_type": "주차장",
        "park_station_name": "가재울 공영주차장",
        "distance": 1633.4519912342212,
        "walking_time": "약 25분"
      },
      {
        "park_station_lat": 37.63967475,
        "park_station_lon": 127.0744388,
        "park_station_type": "주차장",
        "park_station_name": "한신동성아파트옆",
        "distance": 1877.2607009928747,
        "walking_time": "약 29분"
      },
      {
        "park_station_lat": 37.63957022,
        "park_station_lon": 127.0651678,
        "park_station_type": "주차장",
        "park_station_name": "건영백화점앞",
        "distance": 2116.673059546455,
        "walking_time": "약 32분"
      }
    ],
    "pc_room": [
      {
        "pc_room_lat": 37.6227280196366,
        "pc_room_lon": 127.076543157312,
        "pc_room_type": "PC방",
        "pc_room_name": "깡통로봇 PC방",
        "distance": 26.02475417477209,
        "walking_time": "약 1분"
      },
      {
        "pc_room_lat": 37.6238126999489,
        "pc_room_lon": 127.076153237632,
        "pc_room_type": "PC방",
        "pc_room_name": "공릉PC",
        "distance": 115.24113818926492,
        "walking_time": "약 2분"
      },
      {
        "pc_room_lat": 37.6217579633396,
        "pc_room_lon": 127.077316162454,
        "pc_room_type": "PC방",
        "pc_room_name": "놀이터PC방",
        "distance": 135.47071107852997,
        "walking_time": "약 3분"
      },
      {
        "pc_room_lat": 37.6226202059241,
        "pc_room_lon": 127.079489105218,
        "pc_room_type": "PC방",
        "pc_room_name": "EFCPC방",
        "distance": 242.7736638309196,
        "walking_time": "약 4분"
      },
      {
        "pc_room_lat": 37.6236617520042,
        "pc_room_lon": 127.073937845108,
        "pc_room_type": "PC방",
        "pc_room_name": "욜로PC공릉점",
        "distance": 262.37531968038576,
        "walking_time": "약 4분"
      },
      {
        "pc_room_lat": 37.6234059297882,
        "pc_room_lon": 127.073411876507,
        "pc_room_type": "PC방",
        "pc_room_name": "에이스PC방",
        "distance": 299.8408379512359,
        "walking_time": "약 5분"
      },
      {
        "pc_room_lat": 37.6229780730942,
        "pc_room_lon": 127.080954140138,
        "pc_room_type": "PC방",
        "pc_room_name": "이스포츠PC방",
        "distance": 370.0361175377452,
        "walking_time": "약 6분"
      },
      {
        "pc_room_lat": 37.6252765854844,
        "pc_room_lon": 127.080022646504,
        "pc_room_type": "PC방",
        "pc_room_name": "런PC방",
        "distance": 391.3765730470872,
        "walking_time": "약 6분"
      },
      {
        "pc_room_lat": 37.6193014358931,
        "pc_room_lon": 127.077841683528,
        "pc_room_type": "PC방",
        "pc_room_name": "맥스피드PC방 태릉역점",
        "distance": 410.5843174988121,
        "walking_time": "약 7분"
      },
      {
        "pc_room_lat": 37.6259363374297,
        "pc_room_lon": 127.079415945795,
        "pc_room_type": "PC방",
        "pc_room_name": "라이또PC방 공릉본점",
        "distance": 411.7679983148937,
        "walking_time": "약 7분"
      }
    ],
    "police_office": [
      {
        "police_office_lat": 37.62256817,
        "police_office_lon": 127.0745978,
        "police_office_type": "경찰소",
        "police_office_name": "화랑지구대",
        "distance": 193.28386587975373,
        "walking_time": "약 3분"
      },
      {
        "police_office_lat": 37.6146248,
        "police_office_lon": 127.0815324,
        "police_office_type": "경찰소",
        "police_office_name": "먹골파출소",
        "distance": 1011.0317675003708,
        "walking_time": "약 16분"
      }
    ],
    "post_office": [
      {
        "post_office_lat": 37.62499145,
        "post_office_lon": 127.0799903,
        "post_office_type": "우체국",
        "post_office_name": "서울공릉2동우편취급국",
        "distance": 368.422882254142,
        "walking_time": "약 6분"
      },
      {
        "post_office_lat": 37.61846246,
        "post_office_lon": 127.0757204,
        "post_office_type": "우체국",
        "post_office_name": "서울공릉동우체국",
        "distance": 500.8842873689189,
        "walking_time": "약 8분"
      },
      {
        "post_office_lat": 37.62090624,
        "post_office_lon": 127.0690603,
        "post_office_type": "우체국",
        "post_office_name": "서울월계3동우체국",
        "distance": 712.6734295284135,
        "walking_time": "약 11분"
      },
      {
        "post_office_lat": 37.63307893,
        "post_office_lon": 127.0767947,
        "post_office_type": "우체국",
        "post_office_name": "서울과학기술대우편취급국",
        "distance": 1132.7406048340806,
        "walking_time": "약 17분"
      },
      {
        "post_office_lat": 37.61036795,
        "post_office_lon": 127.0774411,
        "post_office_type": "우체국",
        "post_office_name": "서울묵동우체국",
        "distance": 1393.9251949491982,
        "walking_time": "약 21분"
      },
      {
        "post_office_lat": 37.63543136,
        "post_office_lon": 127.0727291,
        "post_office_type": "우체국",
        "post_office_name": "서울하계시영우편취급국",
        "distance": 1438.6602868522057,
        "walking_time": "약 22분"
      },
      {
        "post_office_lat": 37.63097668,
        "post_office_lon": 127.0610256,
        "post_office_type": "우체국",
        "post_office_name": "서울월계시영우편취급국",
        "distance": 1651.3000624126178,
        "walking_time": "약 25분"
      },
      {
        "post_office_lat": 37.61165278,
        "post_office_lon": 127.0621684,
        "post_office_type": "우체국",
        "post_office_name": "서울석관1동우편취급국",
        "distance": 1792.273373156357,
        "walking_time": "약 27분"
      }
    ],
    "public_health_center": [
      {
        "public_health_center_lat": 37.62478808,
        "public_health_center_lon": 127.080003,
        "public_health_center_type": "보건소",
        "public_health_center_name": "공릉보건지소",
        "distance": 355.4259469648312,
        "walking_time": "약 6분"
      },
      {
        "public_health_center_lat": 37.63145003,
        "public_health_center_lon": 127.0615911,
        "public_health_center_type": "보건소",
        "public_health_center_name": "월계보건지소",
        "distance": 1639.725334070969,
        "walking_time": "약 25분"
      },
      {
        "public_health_center_lat": 37.61047326,
        "public_health_center_lon": 127.0634208,
        "public_health_center_type": "보건소",
        "public_health_center_name": "장위석관보건지소",
        "distance": 1812.743333516369,
        "walking_time": "약 28분"
      }
    ],
    "school": [
      {
        "school_lat": 37.6186120126537,
        "school_lon": 127.074614270574,
        "school_type": "초등학교",
        "school_name": "서울공릉초등학교",
        "distance": 511.8673521687502,
        "walking_time": "약 8분"
      },
      {
        "school_lat": 37.62719482311,
        "school_lon": 127.074030837547,
        "school_type": "초등학교",
        "school_name": "서울공연초등학교",
        "distance": 535.1942812283883,
        "walking_time": "약 8분"
      },
      {
        "school_lat": 37.6221359473952,
        "school_lon": 127.083501333421,
        "school_type": "중학교",
        "school_name": "공릉중학교",
        "distance": 600.1678441452565,
        "walking_time": "약 9분"
      },
      {
        "school_lat": 37.6207501680548,
        "school_lon": 127.069258063469,
        "school_type": "초등학교",
        "school_name": "서울한천초등학교",
        "distance": 701.8321612002375,
        "walking_time": "약 11분"
      },
      {
        "school_lat": 37.622879790197,
        "school_lon": 127.08478195175,
        "school_type": "초등학교",
        "school_name": "서울태릉초등학교",
        "distance": 707.0349122600289,
        "walking_time": "약 11분"
      },
      {
        "school_lat": 37.6178416319695,
        "school_lon": 127.084553885966,
        "school_type": "중학교",
        "school_name": "원묵중학교",
        "distance": 887.2968458021588,
        "walking_time": "약 14분"
      },
      {
        "school_lat": 37.6189925408244,
        "school_lon": 127.085819844147,
        "school_type": "고등학교",
        "school_name": "태릉고등학교",
        "distance": 908.5992057768428,
        "walking_time": "약 14분"
      },
      {
        "school_lat": 37.6307779754887,
        "school_lon": 127.073998366297,
        "school_type": "고등학교",
        "school_name": "서울동산고등학교",
        "distance": 909.8422179496592,
        "walking_time": "약 14분"
      },
      {
        "school_lat": 37.6312721593711,
        "school_lon": 127.072117818679,
        "school_type": "중학교",
        "school_name": "한천중학교",
        "distance": 1017.3553990092472,
        "walking_time": "약 16분"
      },
      {
        "school_lat": 37.6299301501593,
        "school_lon": 127.068936691961,
        "school_type": "초등학교",
        "school_name": "서울용원초등학교",
        "distance": 1042.3221437832294,
        "walking_time": "약 16분"
      }
    ],
    "self_laundromat": [
      {
        "self_laundromat_lat": 37.6145997,
        "self_laundromat_lon": 127.0809575,
        "self_laundromat_type": "셀프 빨래방",
        "self_laundromat_name": "셀프빨래방 중랑하늘점",
        "distance": 993.6132749539526,
        "walking_time": "약 15분"
      },
      {
        "self_laundromat_lat": 37.6145997,
        "self_laundromat_lon": 127.0809575,
        "self_laundromat_type": "셀프 빨래방",
        "self_laundromat_name": "셀프빨래방 중랑하늘점",
        "distance": 993.6132749539526,
        "walking_time": "약 15분"
      },
      {
        "self_laundromat_lat": 37.61101318,
        "self_laundromat_lon": 127.0619897,
        "self_laundromat_type": "셀프 빨래방",
        "self_laundromat_name": "워시콥셀프빨래방석관동얼음왕국",
        "distance": 1853.5827165866656,
        "walking_time": "약 28분"
      },
      {
        "self_laundromat_lat": 37.61101318,
        "self_laundromat_lon": 127.0619897,
        "self_laundromat_type": "셀프 빨래방",
        "self_laundromat_name": "워시콥셀프빨래방석관동얼음왕국",
        "distance": 1853.5827165866656,
        "walking_time": "약 28분"
      }
    ],
    "subway": [
      {
        "subway_lat": 37.6254769202851,
        "subway_lon": 127.073005201049,
        "subway_type": "지하철",
        "subway_name": "7호선-공릉(서울과학기술대)역",
        "distance": 437.74346347276094,
        "walking_time": "약 7분"
      },
      {
        "subway_lat": 37.6185137762138,
        "subway_lon": 127.075368429731,
        "subway_type": "지하철",
        "subway_name": "6호선-태릉입구역",
        "distance": 501.897961028456,
        "walking_time": "약 8분"
      },
      {
        "subway_lat": 37.6185137762138,
        "subway_lon": 127.075368429731,
        "subway_type": "지하철",
        "subway_name": "7호선-태릉입구역",
        "distance": 501.897961028456,
        "walking_time": "약 8분"
      },
      {
        "subway_lat": 37.6198943887187,
        "subway_lon": 127.083744624338,
        "subway_type": "지하철",
        "subway_name": "6호선-화랑대(서울여대입구)역",
        "distance": 700.1229599684885,
        "walking_time": "약 11분"
      },
      {
        "subway_lat": 37.6150480846952,
        "subway_lon": 127.066118430844,
        "subway_type": "지하철",
        "subway_name": "6호선-석계역",
        "distance": 1279.929808879258,
        "walking_time": "약 20분"
      },
      {
        "subway_lat": 37.6106250591244,
        "subway_lon": 127.077764798784,
        "subway_type": "지하철",
        "subway_name": "7호선-먹골역",
        "distance": 1366.9239994982738,
        "walking_time": "약 21분"
      },
      {
        "subway_lat": 37.6364521240646,
        "subway_lon": 127.067988537404,
        "subway_type": "지하철",
        "subway_name": "7호선-하계역",
        "distance": 1693.9207927151276,
        "walking_time": "약 26분"
      }
    ],
    "supermarket": [
      {
        "supermarket_lat": 37.62195341,
        "supermarket_lon": 127.0753261,
        "supermarket_type": "마트",
        "supermarket_name": "공릉종합상가",
        "distance": 163.42411986520466,
        "walking_time": "약 3분"
      },
      {
        "supermarket_lat": 37.62262021,
        "supermarket_lon": 127.0794891,
        "supermarket_type": "마트",
        "supermarket_name": "롯데쇼핑(주) 롯데슈퍼공릉점",
        "distance": 242.77315142025225,
        "walking_time": "약 4분"
      },
      {
        "supermarket_lat": 37.62082546,
        "supermarket_lon": 127.0836357,
        "supermarket_type": "마트",
        "supermarket_name": "(주)이마트에브리데이 공릉동점",
        "distance": 648.1881160829518,
        "walking_time": "약 10분"
      },
      {
        "supermarket_lat": 37.62825426,
        "supermarket_lon": 127.0710099,
        "supermarket_type": "마트",
        "supermarket_name": "홈플러스(주)익스프레스 공릉점",
        "distance": 781.9392246259924,
        "walking_time": "약 12분"
      },
      {
        "supermarket_lat": 37.61872537,
        "supermarket_lon": 127.0670846,
        "supermarket_type": "마트",
        "supermarket_name": "(주)지에스리테일 GS슈퍼 노원월계점",
        "distance": 969.4920086876951,
        "walking_time": "약 15분"
      },
      {
        "supermarket_lat": 37.61383489,
        "supermarket_lon": 127.077545,
        "supermarket_type": "마트",
        "supermarket_name": "주식회사 이마트 묵동점",
        "distance": 1009.5115549311164,
        "walking_time": "약 16분"
      },
      {
        "supermarket_lat": 37.62650936,
        "supermarket_lon": 127.0619798,
        "supermarket_type": "마트",
        "supermarket_name": "이마트타운 월계점",
        "distance": 1361.9075513289506,
        "walking_time": "약 21분"
      },
      {
        "supermarket_lat": 37.63662358,
        "supermarket_lon": 127.0689153,
        "supermarket_type": "마트",
        "supermarket_name": "세이브존",
        "distance": 1675.6747072186213,
        "walking_time": "약 26분"
      },
      {
        "supermarket_lat": 37.63985808,
        "supermarket_lon": 127.068668,
        "supermarket_type": "마트",
        "supermarket_name": "홈플러스(주) 중계점",
        "distance": 2016.4515576990343,
        "walking_time": "약 31분"
      }
    ],
    "theater": [
      {
        "theater_lat": 37.6151499459916,
        "theater_lon": 127.076057076024,
        "theater_type": "영화관",
        "theater_name": "롯데시네마 중랑관",
        "distance": 863.0626962930075,
        "walking_time": "약 13분"
      },
      {
        "theater_lat": 37.6398580838556,
        "theater_lon": 127.068668049616,
        "theater_type": "영화관",
        "theater_name": "CGV 중계",
        "distance": 2016.4504158948653,
        "walking_time": "약 31분"
      },
      {
        "theater_lat": 37.6391097783726,
        "theater_lon": 127.064915087375,
        "theater_type": "영화관",
        "theater_name": "CGV 하계",
        "distance": 2083.0123647566747,
        "walking_time": "약 32분"
      }
    ],
    "university": [
      {
        "university_lat": 37.6330789279387,
        "university_lon": 127.076794742851,
        "university_type": "대학교",
        "university_name": "서울과학기술대학교",
        "distance": 1132.7403875757605,
        "walking_time": "약 17분"
      },
      {
        "university_lat": 37.6330789279387,
        "university_lon": 127.076794742851,
        "university_type": "대학교",
        "university_name": "서울과학기술대학교",
        "distance": 1132.7403875757605,
        "walking_time": "약 17분"
      },
      {
        "university_lat": 37.6129860183722,
        "university_lon": 127.0614007785,
        "university_type": "대학교",
        "university_name": "한국예술종합학교",
        "distance": 1744.1123009488874,
        "walking_time": "약 27분"
      }
    ]
  }
}