{
  "클러스터_위도": 37.47909571453755,
  "클러스터_경도": 126.88922100040008,
  "클러스터_level": 3.0,
  "facilities": {
    "bus": [
      {
        "bus_lat": 37.47849049,
        "bus_lon": 126.8885942,
        "bus_type": "버스정류장",
        "bus_name": "패션단지",
        "distance": 87.11033613950553,
        "walking_time": "약 2분"
      },
      {
        "bus_lat": 37.47823922,
        "bus_lon": 126.888745,
        "bus_type": "버스정류장",
        "bus_name": "패션단지",
        "distance": 104.08900609692984,
        "walking_time": "약 2분"
      },
      {
        "bus_lat": 37.47982436,
        "bus_lon": 126.8883314,
        "bus_type": "버스정류장",
        "bus_name": "디지털단지오거리.가산파출소",
        "distance": 112.81249558960516,
        "walking_time": "약 2분"
      },
      {
        "bus_lat": 37.48011533,
        "bus_lon": 126.8887535,
        "bus_type": "버스정류장",
        "bus_name": "디지털단지오거리",
        "distance": 120.64790194354104,
        "walking_time": "약 2분"
      },
      {
        "bus_lat": 37.47826337,
        "bus_lon": 126.8883366,
        "bus_type": "버스정류장",
        "bus_name": "금천패션아울렛사거리.마리오",
        "distance": 121.0636544183626,
        "walking_time": "약 2분"
      },
      {
        "bus_lat": 37.47811485,
        "bus_lon": 126.8884894,
        "bus_type": "버스정류장",
        "bus_name": "금천패션아울렛사거리.현대아울렛",
        "distance": 126.74138459561176,
        "walking_time": "약 2분"
      },
      {
        "bus_lat": 37.479933,
        "bus_lon": 126.890398,
        "bus_type": "버스정류장",
        "bus_name": "디지털단지오거리",
        "distance": 139.4804626035281,
        "walking_time": "약 3분"
      },
      {
        "bus_lat": 37.47839369,
        "bus_lon": 126.8878115,
        "bus_type": "버스정류장",
        "bus_name": "가산로데오거리",
        "distance": 146.8443734134544,
        "walking_time": "약 3분"
      },
      {
        "bus_lat": 37.47821042,
        "bus_lon": 126.8907158,
        "bus_type": "버스정류장",
        "bus_name": "디지털단지오거리",
        "distance": 164.58800064903264,
        "walking_time": "약 3분"
      },
      {
        "bus_lat": 37.47999562,
        "bus_lon": 126.8908072,
        "bus_type": "버스정류장",
        "bus_name": "디지털단지오거리",
        "distance": 172.0581186494347,
        "walking_time": "약 3분"
      }
    ],
    "community_center": [
      {
        "community_center_lat": 37.47689182,
        "community_center_lon": 126.8917817,
        "community_center_type": "주민센터",
        "community_center_name": "가산동 자치회관",
        "distance": 333.3388859712927,
        "walking_time": "약 5분"
      },
      {
        "community_center_lat": 37.48254989,
        "community_center_lon": 126.8896421,
        "community_center_type": "주민센터",
        "community_center_name": "가리봉동 자치회관",
        "distance": 385.8799673828165,
        "walking_time": "약 6분"
      },
      {
        "community_center_lat": 37.48565541,
        "community_center_lon": 126.8866217,
        "community_center_type": "주민센터",
        "community_center_name": "구로4동 자치회관",
        "distance": 764.6147605952383,
        "walking_time": "약 12분"
      },
      {
        "community_center_lat": 37.48734704,
        "community_center_lon": 126.89033,
        "community_center_type": "주민센터",
        "community_center_name": "구로3동 자치회관",
        "distance": 922.708995203869,
        "walking_time": "약 14분"
      },
      {
        "community_center_lat": 37.47021905,
        "community_center_lon": 126.8970437,
        "community_center_type": "주민센터",
        "community_center_name": "독산1동 자치회관",
        "distance": 1204.4920499072407,
        "walking_time": "약 18분"
      },
      {
        "community_center_lat": 37.46607783,
        "community_center_lon": 126.8997789,
        "community_center_type": "주민센터",
        "community_center_name": "독산2동 자치회관",
        "distance": 1721.4634919210212,
        "walking_time": "약 26분"
      }
    ],
    "convenience_store": [
      {
        "convenience_store_lat": 37.47902899,
        "convenience_store_lon": 126.8899019,
        "convenience_store_type": "편의점",
        "convenience_store_name": "CU 가산디지털점",
        "distance": 60.54002904453854,
        "walking_time": "약 1분"
      },
      {
        "convenience_store_lat": 37.47801573,
        "convenience_store_lon": 126.8904093,
        "convenience_store_type": "편의점",
        "convenience_store_name": "세븐일레븐 금천가산점",
        "distance": 159.4257039246766,
        "walking_time": "약 3분"
      },
      {
        "convenience_store_lat": 37.47774088,
        "convenience_store_lon": 126.8898764,
        "convenience_store_type": "편의점",
        "convenience_store_name": "GS25 가산하이힐점",
        "distance": 161.37042412863107,
        "walking_time": "약 3분"
      },
      {
        "convenience_store_lat": 37.47761902,
        "convenience_store_lon": 126.8890553,
        "convenience_store_type": "편의점",
        "convenience_store_name": "CU 가산하이힐점",
        "distance": 164.85067837259822,
        "walking_time": "약 3분"
      },
      {
        "convenience_store_lat": 37.47818755,
        "convenience_store_lon": 126.8871542,
        "convenience_store_type": "편의점",
        "convenience_store_name": "세븐일레븐 가산마리오아울렛1관점",
        "distance": 208.469780782047,
        "walking_time": "약 4분"
      },
      {
        "convenience_store_lat": 37.48005881,
        "convenience_store_lon": 126.8871007,
        "convenience_store_type": "편의점",
        "convenience_store_name": "CU 가산ENC7차점",
        "distance": 215.57827229755893,
        "walking_time": "약 4분"
      },
      {
        "convenience_store_lat": 37.47935868,
        "convenience_store_lon": 126.8918701,
        "convenience_store_type": "편의점",
        "convenience_store_name": "세븐일레븐 가리봉2호점",
        "distance": 235.581967403266,
        "walking_time": "약 4분"
      },
      {
        "convenience_store_lat": 37.47732723,
        "convenience_store_lon": 126.8876762,
        "convenience_store_type": "편의점",
        "convenience_store_name": "CU W-MALL점",
        "distance": 239.2743824123452,
        "walking_time": "약 4분"
      },
      {
        "convenience_store_lat": 37.47892215,
        "convenience_store_lon": 126.886029,
        "convenience_store_type": "편의점",
        "convenience_store_name": "GS25 금천패션점",
        "distance": 282.32782872588416,
        "walking_time": "약 5분"
      },
      {
        "convenience_store_lat": 37.47661464,
        "convenience_store_lon": 126.8877894,
        "convenience_store_type": "편의점",
        "convenience_store_name": "GS25 엘지엠씨B점",
        "distance": 303.4309267798941,
        "walking_time": "약 5분"
      }
    ],
    "daycare": [
      {
        "daycare_lat": 37.48104571,
        "daycare_lon": 126.8904983,
        "daycare_type": "어린이집",
        "daycare_name": "해나무장애인방과후교실어린이집",
        "distance": 244.37367566191267,
        "walking_time": "약 4분"
      },
      {
        "daycare_lat": 37.47870596241283,
        "daycare_lon": 126.8864842568116,
        "daycare_type": "어린이집",
        "daycare_name": "마리오아울렛어린이집",
        "distance": 245.3530680250404,
        "walking_time": "약 4분"
      },
      {
        "daycare_lat": 37.4768992,
        "daycare_lon": 126.8917558,
        "daycare_type": "어린이집",
        "daycare_name": "청솔어린이집",
        "distance": 331.18820287021845,
        "walking_time": "약 5분"
      },
      {
        "daycare_lat": 37.47752327,
        "daycare_lon": 126.8925832,
        "daycare_type": "어린이집",
        "daycare_name": "즐거운Happy어린이집",
        "distance": 344.3777676819396,
        "walking_time": "약 6분"
      },
      {
        "daycare_lat": 37.47579826,
        "daycare_lon": 126.8902344,
        "daycare_type": "어린이집",
        "daycare_name": "근로복지공단모아래어린이집",
        "distance": 377.40788400879086,
        "walking_time": "약 6분"
      },
      {
        "daycare_lat": 37.47603828,
        "daycare_lon": 126.8917108,
        "daycare_type": "어린이집",
        "daycare_name": "구립꼬꼬어린이집",
        "distance": 404.7865554298386,
        "walking_time": "약 7분"
      },
      {
        "daycare_lat": 37.47603828,
        "daycare_lon": 126.8917108,
        "daycare_type": "어린이집",
        "daycare_name": "두산어린이집",
        "distance": 404.7865554298386,
        "walking_time": "약 7분"
      },
      {
        "daycare_lat": 37.48291111945205,
        "daycare_lon": 126.8896632583189,
        "daycare_type": "어린이집",
        "daycare_name": "섬기는어린이집",
        "distance": 426.0447044628233,
        "walking_time": "약 7분"
      },
      {
        "daycare_lat": 37.47598754,
        "daycare_lon": 126.8861231,
        "daycare_type": "어린이집",
        "daycare_name": "구립아이뜰어린이집",
        "distance": 440.6577512855165,
        "walking_time": "약 7분"
      },
      {
        "daycare_lat": 37.4773097,
        "daycare_lon": 126.893735,
        "daycare_type": "어린이집",
        "daycare_name": "또래마을어린이집",
        "distance": 445.089614960426,
        "walking_time": "약 7분"
      }
    ],
    "education": [
      {
        "education_lat": 37.4798477,
        "education_lon": 126.8953185,
        "education_type": "박물관/기념관",
        "education_name": "G밸리산업박물관",
        "distance": 544.5087388498017,
        "walking_time": "약 9분"
      },
      {
        "education_lat": 37.47349155,
        "education_lon": 126.8921298,
        "education_type": "도서관",
        "education_name": "금천구립가산도서관",
        "distance": 673.9508610221548,
        "walking_time": "약 11분"
      },
      {
        "education_lat": 37.48714316,
        "education_lon": 126.8901547,
        "education_type": "도서관",
        "education_name": "꿈마을도서관",
        "distance": 898.6197381033712,
        "walking_time": "약 14분"
      },
      {
        "education_lat": 37.4718013,
        "education_lon": 126.896009,
        "education_type": "공연장",
        "education_name": "문화정원아트홀",
        "distance": 1008.3167747053844,
        "walking_time": "약 16분"
      },
      {
        "education_lat": 37.48737738,
        "education_lon": 126.8813503,
        "education_type": "도서관",
        "education_name": "하늘도서관",
        "distance": 1153.3980299183834,
        "walking_time": "약 18분"
      },
      {
        "education_lat": 37.489562316814336,
        "education_lon": 126.88629292183346,
        "education_type": "공연장",
        "education_name": "구로 꿈나무극장",
        "distance": 1192.1649928296647,
        "walking_time": "약 18분"
      },
      {
        "education_lat": 37.48989397,
        "education_lon": 126.8865649,
        "education_type": "도서관",
        "education_name": "구로구립꿈나무어린이도서관",
        "distance": 1223.3694275457954,
        "walking_time": "약 19분"
      },
      {
        "education_lat": 37.46877706,
        "education_lon": 126.8944749,
        "education_type": "공연장",
        "education_name": "금천뮤지컬센터",
        "distance": 1237.5183071622096,
        "walking_time": "약 19분"
      }
    ],
    "electric_gas_station": [
      {
        "electric_gas_station_lat": 37.474417,
        "electric_gas_station_lon": 126.8867632,
        "electric_gas_station_type": "전기차 충전소",
        "electric_gas_station_name": "제일모직아울렛 건너편(공중전화부스)",
        "distance": 563.6481996393045,
        "walking_time": "약 9분"
      },
      {
        "electric_gas_station_lat": 37.46494122,
        "electric_gas_station_lon": 126.8948157,
        "electric_gas_station_type": "전기차 충전소",
        "electric_gas_station_name": "독산1동 공영주차장",
        "distance": 1649.5324739626187,
        "walking_time": "약 25분"
      }
    ],
    "fitness": [
      {
        "fitness_lat": 37.47816855,
        "fitness_lon": 126.8898396,
        "fitness_type": "운동시설",
        "fitness_name": "벽계수 스파",
        "distance": 116.65536024396653,
        "walking_time": "약 2분"
      },
      {
        "fitness_lat": 37.48003526,
        "fitness_lon": 126.8879222,
        "fitness_type": "운동시설",
        "fitness_name": "Total Strength GYM",
        "distance": 155.078722792188,
        "walking_time": "약 3분"
      },
      {
        "fitness_lat": 37.48107584,
        "fitness_lon": 126.8864183,
        "fitness_type": "운동시설",
        "fitness_name": "리메이크짐",
        "distance": 331.1224932914622,
        "walking_time": "약 5분"
      },
      {
        "fitness_lat": 37.48107584,
        "fitness_lon": 126.8864183,
        "fitness_type": "운동시설",
        "fitness_name": "짐80서울",
        "distance": 331.1224932914622,
        "walking_time": "약 5분"
      },
      {
        "fitness_lat": 37.47643941,
        "fitness_lon": 126.8873317,
        "fitness_type": "운동시설",
        "fitness_name": "버핏그라운드 가산",
        "distance": 339.1707948192458,
        "walking_time": "약 6분"
      },
      {
        "fitness_lat": 37.47776302,
        "fitness_lon": 126.8854927,
        "fitness_type": "운동시설",
        "fitness_name": "에프45 가산",
        "distance": 360.8281762164952,
        "walking_time": "약 6분"
      },
      {
        "fitness_lat": 37.48067083,
        "fitness_lon": 126.885103,
        "fitness_type": "운동시설",
        "fitness_name": "마이서킷",
        "distance": 403.3820332703439,
        "walking_time": "약 7분"
      },
      {
        "fitness_lat": 37.47949312,
        "fitness_lon": 126.8846349,
        "fitness_type": "운동시설",
        "fitness_name": "헬스보이짐&골프인 가산역점",
        "distance": 407.0890547367588,
        "walking_time": "약 7분"
      },
      {
        "fitness_lat": 37.48199214,
        "fitness_lon": 126.8923489,
        "fitness_type": "운동시설",
        "fitness_name": "에이펙스 피트니스 구로디지털점",
        "distance": 424.15404081114326,
        "walking_time": "약 7분"
      },
      {
        "fitness_lat": 37.47530023,
        "fitness_lon": 126.8908539,
        "fitness_type": "운동시설",
        "fitness_name": "에스(s) 휘트니스",
        "distance": 445.9590444216168,
        "walking_time": "약 7분"
      }
    ],
    "gas_station": [
      {
        "gas_station_lat": 37.48370727,
        "gas_station_lon": 126.8870144,
        "gas_station_type": "주유소",
        "gas_station_name": "영진주유소",
        "distance": 548.5034967607749,
        "walking_time": "약 9분"
      },
      {
        "gas_station_lat": 37.48094907,
        "gas_station_lon": 126.899232,
        "gas_station_type": "주유소",
        "gas_station_name": "현대오일뱅크(주)직영 구로셀프주유소",
        "distance": 907.0955412381172,
        "walking_time": "약 14분"
      },
      {
        "gas_station_lat": 37.47682775,
        "gas_station_lon": 126.8991106,
        "gas_station_type": "주유소",
        "gas_station_name": "㈜화동유업",
        "distance": 908.394356443164,
        "walking_time": "약 14분"
      },
      {
        "gas_station_lat": 37.48153123,
        "gas_station_lon": 126.8997835,
        "gas_station_type": "주유소",
        "gas_station_name": "JHC에너지",
        "distance": 970.5840286021116,
        "walking_time": "약 15분"
      },
      {
        "gas_station_lat": 37.47315113,
        "gas_station_lon": 126.8978961,
        "gas_station_type": "주유소",
        "gas_station_name": "SK에너지㈜ 이가주유소",
        "distance": 1011.422044629468,
        "walking_time": "약 16분"
      },
      {
        "gas_station_lat": 37.48200922,
        "gas_station_lon": 126.8751883,
        "gas_station_type": "주유소",
        "gas_station_name": "동광석유㈜  구광주유소",
        "distance": 1279.9222068460958,
        "walking_time": "약 20분"
      }
    ],
    "hospital": [
      {
        "hospital_lat": 37.47979124,
        "hospital_lon": 126.8895214,
        "hospital_type": "병원",
        "hospital_name": "김부랑치과의원",
        "distance": 81.75548311008271,
        "walking_time": "약 2분"
      },
      {
        "hospital_lat": 37.47823837,
        "hospital_lon": 126.8889602,
        "hospital_type": "병원",
        "hospital_name": "서울아산다온재활의학과의원",
        "distance": 98.07080925202844,
        "walking_time": "약 2분"
      },
      {
        "hospital_lat": 37.47823837,
        "hospital_lon": 126.8889602,
        "hospital_type": "병원",
        "hospital_name": "서울호치과의원",
        "distance": 98.07080925202844,
        "walking_time": "약 2분"
      },
      {
        "hospital_lat": 37.47901851,
        "hospital_lon": 126.89046,
        "hospital_type": "병원",
        "hospital_name": "안영규의원",
        "distance": 109.66783287114184,
        "walking_time": "약 2분"
      },
      {
        "hospital_lat": 37.47901851,
        "hospital_lon": 126.89046,
        "hospital_type": "병원",
        "hospital_name": "임종호치과의원",
        "distance": 109.66783287114184,
        "walking_time": "약 2분"
      },
      {
        "hospital_lat": 37.47956093,
        "hospital_lon": 126.890379,
        "hospital_type": "병원",
        "hospital_name": "가리봉의원",
        "distance": 114.53118620509908,
        "walking_time": "약 2분"
      },
      {
        "hospital_lat": 37.4795131,
        "hospital_lon": 126.8875118,
        "hospital_type": "병원",
        "hospital_name": "씨앤케이치과의원",
        "distance": 157.80144360806898,
        "walking_time": "약 3분"
      },
      {
        "hospital_lat": 37.48046297,
        "hospital_lon": 126.8909077,
        "hospital_type": "병원",
        "hospital_name": "구로세란의원",
        "distance": 212.7574604698468,
        "walking_time": "약 4분"
      },
      {
        "hospital_lat": 37.48005881,
        "hospital_lon": 126.8871007,
        "hospital_type": "병원",
        "hospital_name": "해든창의원",
        "distance": 215.57827229755893,
        "walking_time": "약 4분"
      },
      {
        "hospital_lat": 37.4804026,
        "hospital_lon": 126.8868723,
        "hospital_type": "병원",
        "hospital_name": "사단법인대한산업보건협회부설서울의원",
        "distance": 253.12184535017576,
        "walking_time": "약 4분"
      }
    ],
    "music_room": [
      {
        "music_room_lat": 37.48004671,
        "music_room_lon": 126.8891633,
        "music_room_type": "노래방",
        "music_room_name": "동북노래연습장",
        "distance": 105.86837561275846,
        "walking_time": "약 2분"
      },
      {
        "music_room_lat": 37.48016158,
        "music_room_lon": 126.8892595,
        "music_room_type": "노래방",
        "music_room_name": "썸TA 노래연습장",
        "distance": 118.56751140159214,
        "walking_time": "약 2분"
      },
      {
        "music_room_lat": 37.4785254,
        "music_room_lon": 126.8903695,
        "music_room_type": "노래방",
        "music_room_name": "웰빙",
        "distance": 119.55152364337356,
        "walking_time": "약 2분"
      },
      {
        "music_room_lat": 37.48024966,
        "music_room_lon": 126.8890183,
        "music_room_type": "노래방",
        "music_room_name": "차이나노래연습장",
        "distance": 129.55354463588355,
        "walking_time": "약 2분"
      },
      {
        "music_room_lat": 37.47837546,
        "music_room_lon": 126.890453,
        "music_room_type": "노래방",
        "music_room_name": "죠이",
        "distance": 135.02942191457777,
        "walking_time": "약 3분"
      },
      {
        "music_room_lat": 37.47869552,
        "music_room_lon": 126.8907674,
        "music_room_type": "노래방",
        "music_room_name": "힐링노래연습장",
        "distance": 143.5296062460625,
        "walking_time": "약 3분"
      },
      {
        "music_room_lat": 37.48045535,
        "music_room_lon": 126.8892028,
        "music_room_type": "노래방",
        "music_room_name": "베이징노래연습장",
        "distance": 151.19309554133812,
        "walking_time": "약 3분"
      },
      {
        "music_room_lat": 37.47855073,
        "music_room_lon": 126.8908672,
        "music_room_type": "노래방",
        "music_room_name": "벤허",
        "distance": 157.3971326706511,
        "walking_time": "약 3분"
      },
      {
        "music_room_lat": 37.47801573,
        "music_room_lon": 126.8904093,
        "music_room_type": "노래방",
        "music_room_name": "빵빵노래연습장",
        "distance": 159.4257039246766,
        "walking_time": "약 3분"
      },
      {
        "music_room_lat": 37.47774088,
        "music_room_lon": 126.8898764,
        "music_room_type": "노래방",
        "music_room_name": "영 노래연습장",
        "distance": 161.37042412863107,
        "walking_time": "약 3분"
      }
    ],
    "outdoor_sports": [
      {
        "outdoor_sports_lat": 37.4822615957791,
        "outdoor_sports_lon": 126.889580999202,
        "outdoor_sports_type": "야외 체육시설",
        "outdoor_sports_name": "가리봉동 주민센터 맞은편",
        "distance": 353.4602716614832,
        "walking_time": "약 6분"
      },
      {
        "outdoor_sports_lat": 37.4831569081842,
        "outdoor_sports_lon": 126.885583202317,
        "outdoor_sports_type": "야외 체육시설",
        "outdoor_sports_name": "가리봉",
        "distance": 554.0458608912761,
        "walking_time": "약 9분"
      },
      {
        "outdoor_sports_lat": 37.4889297964454,
        "outdoor_sports_lon": 126.887502629607,
        "outdoor_sports_type": "야외 체육시설",
        "outdoor_sports_name": "혜원주택 앞",
        "distance": 1103.9617008024882,
        "walking_time": "약 17분"
      },
      {
        "outdoor_sports_lat": 37.489293618839,
        "outdoor_sports_lon": 126.880612294475,
        "outdoor_sports_type": "야외 체육시설",
        "outdoor_sports_name": "솔길어린이공원",
        "distance": 1364.8579237493325,
        "walking_time": "약 21분"
      }
    ],
    "park_station": [
      {
        "park_station_lat": 37.47844349,
        "park_station_lon": 126.8891048,
        "park_station_type": "주차장",
        "park_station_name": "우리은행",
        "distance": 73.24533153523234,
        "walking_time": "약 2분"
      },
      {
        "park_station_lat": 37.47943906,
        "park_station_lon": 126.8882921,
        "park_station_type": "주차장",
        "park_station_name": "만승뒤",
        "distance": 90.42256427372592,
        "walking_time": "약 2분"
      },
      {
        "park_station_lat": 37.47969116,
        "park_station_lon": 126.8880038,
        "park_station_type": "주차장",
        "park_station_name": "공유) 01-53구역",
        "distance": 126.1750592352876,
        "walking_time": "약 2분"
      },
      {
        "park_station_lat": 37.47941838,
        "park_station_lon": 126.8845901,
        "park_station_type": "주차장",
        "park_station_name": "SJ테크노빌",
        "distance": 410.2090550929976,
        "walking_time": "약 7분"
      },
      {
        "park_station_lat": 37.47466658,
        "park_station_lon": 126.8872354,
        "park_station_type": "주차장",
        "park_station_name": "LG텔레콤",
        "distance": 522.7378029240274,
        "walking_time": "약 8분"
      },
      {
        "park_station_lat": 37.47833819,
        "park_station_lon": 126.8832471,
        "park_station_type": "주차장",
        "park_station_name": "BYC",
        "distance": 533.8362976514524,
        "walking_time": "약 8분"
      },
      {
        "park_station_lat": 37.47406777,
        "park_station_lon": 126.8878064,
        "park_station_type": "주차장",
        "park_station_name": "기륭전자",
        "distance": 572.8484196727574,
        "walking_time": "약 9분"
      },
      {
        "park_station_lat": 37.47765434,
        "park_station_lon": 126.8955845,
        "park_station_type": "주차장",
        "park_station_name": "공유) 01-63구역",
        "distance": 583.955601774516,
        "walking_time": "약 9분"
      },
      {
        "park_station_lat": 37.4737116,
        "park_station_lon": 126.8894309,
        "park_station_type": "주차장",
        "park_station_name": "요업기술원-LG전자뒤",
        "distance": 598.9726834934578,
        "walking_time": "약 9분"
      },
      {
        "park_station_lat": 37.4747142,
        "park_station_lon": 126.8848549,
        "park_station_type": "주차장",
        "park_station_name": "웅진코웨이~sk트윈타워",
        "distance": 621.1350927579149,
        "walking_time": "약 10분"
      }
    ],
    "pc_room": [
      {
        "pc_room_lat": 37.4797912448526,
        "pc_room_lon": 126.889521434265,
        "pc_room_type": "PC방",
        "pc_room_name": "구룡PC",
        "distance": 81.75697392687674,
        "walking_time": "약 2분"
      },
      {
        "pc_room_lat": 37.4798308315731,
        "pc_room_lon": 126.889267332044,
        "pc_room_type": "PC방",
        "pc_room_name": "한중PC랜드",
        "distance": 81.84346220262005,
        "walking_time": "약 2분"
      },
      {
        "pc_room_lat": 37.4802496571046,
        "pc_room_lon": 126.889018321637,
        "pc_room_type": "PC방",
        "pc_room_name": "친구PC방",
        "distance": 129.55296218058285,
        "walking_time": "약 2분"
      },
      {
        "pc_room_lat": 37.4800368070682,
        "pc_room_lon": 126.89023820898,
        "pc_room_type": "PC방",
        "pc_room_name": "피시랜드",
        "distance": 137.86691036380705,
        "walking_time": "약 3분"
      },
      {
        "pc_room_lat": 37.4797872801274,
        "pc_room_lon": 126.890683574576,
        "pc_room_type": "PC방",
        "pc_room_name": "바다속PC",
        "distance": 150.2320746583466,
        "walking_time": "약 3분"
      },
      {
        "pc_room_lat": 37.4795068234169,
        "pc_room_lon": 126.891005748124,
        "pc_room_type": "PC방",
        "pc_room_name": "체리PC",
        "distance": 163.98878570473278,
        "walking_time": "약 3분"
      },
      {
        "pc_room_lat": 37.4787397523184,
        "pc_room_lon": 126.891155419818,
        "pc_room_type": "PC방",
        "pc_room_name": "라스pc",
        "distance": 175.22555853873155,
        "walking_time": "약 3분"
      },
      {
        "pc_room_lat": 37.4803044733037,
        "pc_room_lon": 126.890698875644,
        "pc_room_type": "PC방",
        "pc_room_name": "국가대표PC",
        "distance": 187.27510406745324,
        "walking_time": "약 3분"
      },
      {
        "pc_room_lat": 37.4800743815029,
        "pc_room_lon": 126.891117191878,
        "pc_room_type": "PC방",
        "pc_room_name": "다모아인터넷플라자",
        "distance": 199.59705613274787,
        "walking_time": "약 3분"
      },
      {
        "pc_room_lat": 37.4804629735182,
        "pc_room_lon": 126.890907692931,
        "pc_room_type": "PC방",
        "pc_room_name": "블루PC",
        "distance": 212.7573036517836,
        "walking_time": "약 4분"
      }
    ],
    "police_office": [
      {
        "police_office_lat": 37.47993673,
        "police_office_lon": 126.8880557,
        "police_office_type": "경찰소",
        "police_office_name": "가산파출소",
        "distance": 138.9921830519646,
        "walking_time": "약 3분"
      },
      {
        "police_office_lat": 37.47920893,
        "police_office_lon": 126.8926603,
        "police_office_type": "경찰소",
        "police_office_name": "가리봉파출소",
        "distance": 303.74991277518376,
        "walking_time": "약 5분"
      },
      {
        "police_office_lat": 37.48666065,
        "police_office_lon": 126.8913999,
        "police_office_type": "경찰소",
        "police_office_name": "구로3파출소",
        "distance": 862.8741041950598,
        "walking_time": "약 13분"
      },
      {
        "police_office_lat": 37.48925211,
        "police_office_lon": 126.8907002,
        "police_office_type": "경찰소",
        "police_office_name": "구일지구대",
        "distance": 1136.856627390271,
        "walking_time": "약 17분"
      },
      {
        "police_office_lat": 37.46464482,
        "police_office_lon": 126.8947575,
        "police_office_type": "경찰소",
        "police_office_name": "독산파출소",
        "distance": 1679.507507616364,
        "walking_time": "약 26분"
      }
    ],
    "post_office": [
      {
        "post_office_lat": 37.47844469,
        "post_office_lon": 126.8937442,
        "post_office_type": "우체국",
        "post_office_name": "서울가산동우체국",
        "distance": 405.6474858626733,
        "walking_time": "약 7분"
      },
      {
        "post_office_lat": 37.47789556,
        "post_office_lon": 126.8806648,
        "post_office_type": "우체국",
        "post_office_name": "서울가산디지털우체국",
        "distance": 766.7216904834908,
        "walking_time": "약 12분"
      },
      {
        "post_office_lat": 37.48329888,
        "post_office_lon": 126.8984697,
        "post_office_type": "우체국",
        "post_office_name": "서울구로디지털단지우체국",
        "distance": 940.4515829767996,
        "walking_time": "약 15분"
      },
      {
        "post_office_lat": 37.47019149,
        "post_office_lon": 126.8985251,
        "post_office_type": "우체국",
        "post_office_name": "서울금천우체국",
        "distance": 1286.2511236559524,
        "walking_time": "약 20분"
      }
    ],
    "public_health_center": [
      {
        "public_health_center_lat": 37.48199214,
        "public_health_center_lon": 126.8923489,
        "public_health_center_type": "보건소",
        "public_health_center_name": "G밸리보건지소",
        "distance": 424.15404081114326,
        "walking_time": "약 7분"
      }
    ],
    "school": [
      {
        "school_lat": 37.4781477195501,
        "school_lon": 126.896184019972,
        "school_type": "초등학교",
        "school_name": "서울가산초등학교",
        "distance": 623.408307477181,
        "walking_time": "약 10분"
      },
      {
        "school_lat": 37.4847045985983,
        "school_lon": 126.890267788001,
        "school_type": "초등학교",
        "school_name": "서울구로남초등학교",
        "distance": 630.4820901691746,
        "walking_time": "약 10분"
      },
      {
        "school_lat": 37.4745944107703,
        "school_lon": 126.895368861106,
        "school_type": "중학교",
        "school_name": "세일중학교",
        "distance": 738.134761064401,
        "walking_time": "약 12분"
      },
      {
        "school_lat": 37.4856100736284,
        "school_lon": 126.883911257917,
        "school_type": "초등학교",
        "school_name": "서울영일초등학교",
        "distance": 862.6779735570968,
        "walking_time": "약 13분"
      },
      {
        "school_lat": 37.4748818804257,
        "school_lon": 126.899471333222,
        "school_type": "초등학교",
        "school_name": "서울문성초등학교",
        "distance": 1018.6862478501296,
        "walking_time": "약 16분"
      },
      {
        "school_lat": 37.4879630931966,
        "school_lon": 126.895027399291,
        "school_type": "초등학교",
        "school_name": "서울영서초등학교",
        "distance": 1111.1697741329117,
        "walking_time": "약 17분"
      },
      {
        "school_lat": 37.468777055274,
        "school_lon": 126.894474890365,
        "school_type": "중학교",
        "school_name": "가산중학교",
        "distance": 1237.518475841656,
        "walking_time": "약 19분"
      },
      {
        "school_lat": 37.4897523897016,
        "school_lon": 126.89491012521,
        "school_type": "중학교",
        "school_name": "영서중학교",
        "distance": 1286.9090979387454,
        "walking_time": "약 20분"
      },
      {
        "school_lat": 37.467546675265,
        "school_lon": 126.890946472913,
        "school_type": "초등학교",
        "school_name": "서울두산초등학교",
        "distance": 1293.1905904858445,
        "walking_time": "약 20분"
      },
      {
        "school_lat": 37.4656561906645,
        "school_lon": 126.899712928109,
        "school_type": "초등학교",
        "school_name": "서울독산초등학교",
        "distance": 1757.997781427009,
        "walking_time": "약 27분"
      }
    ],
    "subway": [
      {
        "subway_lat": 37.4815957375443,
        "subway_lon": 126.882559483336,
        "subway_type": "지하철",
        "subway_name": "7호선-가산디지털단지역",
        "distance": 650.2324725353938,
        "walking_time": "약 10분"
      },
      {
        "subway_lat": 37.4853205005175,
        "subway_lon": 126.886331688209,
        "subway_type": "지하철",
        "subway_name": "7호선-남구로역",
        "distance": 737.6243804480522,
        "walking_time": "약 12분"
      }
    ],
    "supermarket": [
      {
        "supermarket_lat": 37.47761902,
        "supermarket_lon": 126.8890553,
        "supermarket_type": "마트",
        "supermarket_name": "현대아울렛",
        "distance": 164.85067837259822,
        "walking_time": "약 3분"
      },
      {
        "supermarket_lat": 37.47818755,
        "supermarket_lon": 126.8871542,
        "supermarket_type": "마트",
        "supermarket_name": "마리오아울렛 1관",
        "distance": 208.469780782047,
        "walking_time": "약 4분"
      },
      {
        "supermarket_lat": 37.47643941,
        "supermarket_lon": 126.8873317,
        "supermarket_type": "마트",
        "supermarket_name": "가산퍼블릭 상업시설",
        "distance": 339.1707948192458,
        "walking_time": "약 6분"
      },
      {
        "supermarket_lat": 37.47844577,
        "supermarket_lon": 126.8850808,
        "supermarket_type": "마트",
        "supermarket_name": "마리오아울렛 3관",
        "distance": 372.4189169827799,
        "walking_time": "약 6분"
      },
      {
        "supermarket_lat": 37.47949312,
        "supermarket_lon": 126.8846349,
        "supermarket_type": "마트",
        "supermarket_name": "롯데쇼핑(주) 아울렛 가산점",
        "distance": 407.0890547367588,
        "walking_time": "약 7분"
      },
      {
        "supermarket_lat": 37.47544481,
        "supermarket_lon": 126.8936809,
        "supermarket_type": "마트",
        "supermarket_name": "홈플러스(주)익스프레스 가산점",
        "distance": 565.4141622646785,
        "walking_time": "약 9분"
      },
      {
        "supermarket_lat": 37.48439923,
        "supermarket_lon": 126.8978858,
        "supermarket_type": "마트",
        "supermarket_name": "(주)이마트 구로점",
        "distance": 965.5770626853604,
        "walking_time": "약 15분"
      },
      {
        "supermarket_lat": 37.47068103,
        "supermarket_lon": 126.8956481,
        "supermarket_type": "마트",
        "supermarket_name": "롯데쇼핑(주) 롯데마트맥스 금천점",
        "distance": 1094.1479289496413,
        "walking_time": "약 17분"
      },
      {
        "supermarket_lat": 37.46935918,
        "supermarket_lon": 126.8970019,
        "supermarket_type": "마트",
        "supermarket_name": "시티렉스",
        "distance": 1282.036364960329,
        "walking_time": "약 20분"
      },
      {
        "supermarket_lat": 37.46866385,
        "supermarket_lon": 126.8968853,
        "supermarket_type": "마트",
        "supermarket_name": "홈플러스(주) 금천점",
        "distance": 1342.754654514547,
        "walking_time": "약 21분"
      }
    ],
    "tax_office": [
      {
        "tax_office_lat": 37.47801956,
        "tax_office_lon": 126.8997992,
        "tax_office_type": "세무서",
        "tax_office_name": "금천세무서",
        "distance": 941.0823769897044,
        "walking_time": "약 15분"
      }
    ],
    "theater": [
      {
        "theater_lat": 37.4776190161713,
        "theater_lon": 126.88905533739,
        "theater_type": "영화관",
        "theater_name": "롯데시네마 가산디지털",
        "distance": 164.85080981305293,
        "walking_time": "약 3분"
      },
      {
        "theater_lat": 37.4693591753013,
        "theater_lon": 126.897001948519,
        "theater_type": "영화관",
        "theater_name": "롯데시네마 독산",
        "distance": 1282.0390994053562,
        "walking_time": "약 20분"
      }
    ]
  }
}