{
  "클러스터_위도": 37.54342700007947,
  "클러스터_경도": 127.06651950017142,
  "클러스터_level": 3.0,
  "facilities": {
    "bus": [
      {
        "bus_lat": 37.54398276,
        "bus_lon": 127.0652402,
        "bus_type": "버스정류장",
        "bus_name": "화양동현대아파트",
        "distance": 128.60981486451465,
        "walking_time": "약 2분"
      },
      {
        "bus_lat": 37.54315851,
        "bus_lon": 127.0647766,
        "bus_type": "버스정류장",
        "bus_name": "성수사거리",
        "distance": 156.53731482396472,
        "walking_time": "약 3분"
      },
      {
        "bus_lat": 37.54282551,
        "bus_lon": 127.0645259,
        "bus_type": "버스정류장",
        "bus_name": "영동대교입구.성수사거리",
        "distance": 188.06252818273293,
        "walking_time": "약 3분"
      },
      {
        "bus_lat": 37.54529434,
        "bus_lon": 127.0659848,
        "bus_type": "버스정류장",
        "bus_name": "성수대우프레시아1차아파트",
        "distance": 212.92290802810572,
        "walking_time": "약 4분"
      },
      {
        "bus_lat": 37.54282189,
        "bus_lon": 127.0641613,
        "bus_type": "버스정류장",
        "bus_name": "성수사거리.성수초등학교",
        "distance": 218.52925755933265,
        "walking_time": "약 4분"
      },
      {
        "bus_lat": 37.54111501,
        "bus_lon": 127.0675636,
        "bus_type": "버스정류장",
        "bus_name": "건국대입구",
        "distance": 273.06604325184736,
        "walking_time": "약 5분"
      },
      {
        "bus_lat": 37.54581693,
        "bus_lon": 127.0655812,
        "bus_type": "버스정류장",
        "bus_name": "성수SKV1센터1동",
        "distance": 278.32601621521616,
        "walking_time": "약 5분"
      },
      {
        "bus_lat": 37.54082688,
        "bus_lon": 127.0672789,
        "bus_type": "버스정류장",
        "bus_name": "건대입구역6번출구",
        "distance": 296.77148430334324,
        "walking_time": "약 5분"
      },
      {
        "bus_lat": 37.54625796,
        "bus_lon": 127.0664105,
        "bus_type": "버스정류장",
        "bus_name": "화양사거리SKV1센터",
        "distance": 314.93503193189315,
        "walking_time": "약 5분"
      },
      {
        "bus_lat": 37.54089575,
        "bus_lon": 127.0681673,
        "bus_type": "버스정류장",
        "bus_name": "건대입구역1번출구",
        "distance": 316.745482092035,
        "walking_time": "약 5분"
      }
    ],
    "community_center": [
      {
        "community_center_lat": 37.54652678,
        "community_center_lon": 127.0712676,
        "community_center_type": "주민센터",
        "community_center_name": "화양동 자치회관",
        "distance": 542.253212279795,
        "walking_time": "약 9분"
      },
      {
        "community_center_lat": 37.53409779,
        "community_center_lon": 127.0662584,
        "community_center_type": "주민센터",
        "community_center_name": "자양4동 자치회관",
        "distance": 1037.6162493462766,
        "walking_time": "약 16분"
      },
      {
        "community_center_lat": 37.5482232,
        "community_center_lon": 127.0552456,
        "community_center_type": "주민센터",
        "community_center_name": "성수2가제3동 자치회관",
        "distance": 1127.9780785442624,
        "walking_time": "약 17분"
      },
      {
        "community_center_lat": 37.53954093,
        "community_center_lon": 127.0540233,
        "community_center_type": "주민센터",
        "community_center_name": "성수2가제1동 자치회관",
        "distance": 1183.4701570814166,
        "walking_time": "약 18분"
      },
      {
        "community_center_lat": 37.53383394,
        "community_center_lon": 127.0729024,
        "community_center_type": "주민센터",
        "community_center_name": "자양3동 자치회관",
        "distance": 1206.059025508804,
        "walking_time": "약 19분"
      },
      {
        "community_center_lat": 37.55453307,
        "community_center_lon": 127.0695685,
        "community_center_type": "주민센터",
        "community_center_name": "송정동 자치회관",
        "distance": 1263.853264072667,
        "walking_time": "약 19분"
      },
      {
        "community_center_lat": 37.55516384,
        "community_center_lon": 127.0758916,
        "community_center_type": "주민센터",
        "community_center_name": "군자동 자치회관",
        "distance": 1544.630707007737,
        "walking_time": "약 24분"
      }
    ],
    "convenience_store": [
      {
        "convenience_store_lat": 37.54334395,
        "convenience_store_lon": 127.0673614,
        "convenience_store_type": "편의점",
        "convenience_store_name": "세븐일레븐 화양본점",
        "distance": 74.79884522504796,
        "walking_time": "약 2분"
      },
      {
        "convenience_store_lat": 37.54441949,
        "convenience_store_lon": 127.0658952,
        "convenience_store_type": "편의점",
        "convenience_store_name": "미니스톱 건대현대점",
        "distance": 123.3241663548832,
        "walking_time": "약 2분"
      },
      {
        "convenience_store_lat": 37.54231813,
        "convenience_store_lon": 127.0658113,
        "convenience_store_type": "편의점",
        "convenience_store_name": "CU 화양사랑점",
        "distance": 138.20903341036816,
        "walking_time": "약 3분"
      },
      {
        "convenience_store_lat": 37.54168207,
        "convenience_store_lon": 127.0663857,
        "convenience_store_type": "편의점",
        "convenience_store_name": "GS25 건대시티점",
        "distance": 194.3856561826404,
        "walking_time": "약 3분"
      },
      {
        "convenience_store_lat": 37.5445109,
        "convenience_store_lon": 127.0646648,
        "convenience_store_type": "편의점",
        "convenience_store_name": "GS25 성수규장각점",
        "distance": 203.13710812513267,
        "walking_time": "약 4분"
      },
      {
        "convenience_store_lat": 37.5452499,
        "convenience_store_lon": 127.0667667,
        "convenience_store_type": "편의점",
        "convenience_store_name": "GS25 화양동해점",
        "distance": 203.8655268285088,
        "walking_time": "약 4분"
      },
      {
        "convenience_store_lat": 37.54169965,
        "convenience_store_lon": 127.0676312,
        "convenience_store_type": "편의점",
        "convenience_store_name": "세븐일레븐 건대제일점",
        "distance": 215.635713011569,
        "walking_time": "약 4분"
      },
      {
        "convenience_store_lat": 37.54463313,
        "convenience_store_lon": 127.0690216,
        "convenience_store_type": "편의점",
        "convenience_store_name": "세븐일레븐 화양아름길점",
        "distance": 258.166793233052,
        "walking_time": "약 4분"
      },
      {
        "convenience_store_lat": 37.54472483,
        "convenience_store_lon": 127.0690666,
        "convenience_store_type": "편의점",
        "convenience_store_name": "CU 화양중앙점",
        "distance": 266.936662322422,
        "walking_time": "약 4분"
      },
      {
        "convenience_store_lat": 37.54242095,
        "convenience_store_lon": 127.0700249,
        "convenience_store_type": "편의점",
        "convenience_store_name": "CU 화양공원점",
        "distance": 328.6805977258357,
        "walking_time": "약 5분"
      }
    ],
    "daycare": [
      {
        "daycare_lat": 37.54248876565109,
        "daycare_lon": 127.06477405119747,
        "daycare_type": "어린이집",
        "daycare_name": "꼬마숲청구어린이집",
        "distance": 185.919484251518,
        "walking_time": "약 3분"
      },
      {
        "daycare_lat": 37.54489788042541,
        "daycare_lon": 127.0682975161844,
        "daycare_type": "어린이집",
        "daycare_name": "EQ어린이집",
        "distance": 226.5462013633968,
        "walking_time": "약 4분"
      },
      {
        "daycare_lat": 37.54479680008442,
        "daycare_lon": 127.06859615872416,
        "daycare_type": "어린이집",
        "daycare_name": "민주어린이집",
        "distance": 238.1617696111776,
        "walking_time": "약 4분"
      },
      {
        "daycare_lat": 37.544749850710296,
        "daycare_lon": 127.06876811416656,
        "daycare_type": "어린이집",
        "daycare_name": "젬마어린이집",
        "distance": 246.85865072535168,
        "walking_time": "약 4분"
      },
      {
        "daycare_lat": 37.54110125264437,
        "daycare_lon": 127.0647457228721,
        "daycare_type": "어린이집",
        "daycare_name": "파랑어린이집",
        "distance": 302.2203899402543,
        "walking_time": "약 5분"
      },
      {
        "daycare_lat": 37.54066249,
        "daycare_lon": 127.06614,
        "daycare_type": "어린이집",
        "daycare_name": "물고기어린이집",
        "distance": 309.2151112490444,
        "walking_time": "약 5분"
      },
      {
        "daycare_lat": 37.54616839,
        "daycare_lon": 127.0657499,
        "daycare_type": "어린이집",
        "daycare_name": "앰코어린이집",
        "distance": 312.2887442153002,
        "walking_time": "약 5분"
      },
      {
        "daycare_lat": 37.54418329433606,
        "daycare_lon": 127.07004399815702,
        "daycare_type": "어린이집",
        "daycare_name": "행복한어린이집",
        "distance": 321.9162215132224,
        "walking_time": "약 5분"
      },
      {
        "daycare_lat": 37.54619184186601,
        "daycare_lon": 127.0680542481484,
        "daycare_type": "어린이집",
        "daycare_name": "구립 화송어린이집",
        "distance": 335.8954486330471,
        "walking_time": "약 6분"
      },
      {
        "daycare_lat": 37.54049608751143,
        "daycare_lon": 127.06417946274466,
        "daycare_type": "어린이집",
        "daycare_name": "건대티움아이어린이집",
        "distance": 385.7178608790501,
        "walking_time": "약 6분"
      }
    ],
    "education": [
      {
        "education_lat": 37.53757063,
        "education_lon": 127.070576,
        "education_type": "문화예술회관",
        "education_name": "나루아트센터",
        "distance": 742.9526061097985,
        "walking_time": "약 12분"
      },
      {
        "education_lat": 37.54240517067264,
        "education_lon": 127.07559228463867,
        "education_type": "박물관/기념관",
        "education_name": "건국대학교 박물관",
        "distance": 807.9417227246398,
        "walking_time": "약 13분"
      },
      {
        "education_lat": 37.53918267,
        "education_lon": 127.0747119,
        "education_type": "공연장",
        "education_name": "건국대학교 새천년관대공연장",
        "distance": 862.8230128212484,
        "walking_time": "약 13분"
      },
      {
        "education_lat": 37.55127807,
        "education_lon": 127.0670116,
        "education_type": "공연장",
        "education_name": "더라이트스튜디오",
        "distance": 874.0764687510207,
        "walking_time": "약 14분"
      },
      {
        "education_lat": 37.534067607714206,
        "education_lon": 127.06609416533551,
        "education_type": "도서관",
        "education_name": "자양4동도서관",
        "distance": 1041.392424511838,
        "walking_time": "약 16분"
      },
      {
        "education_lat": 37.54378977,
        "education_lon": 127.0544169,
        "education_type": "공연장",
        "education_name": "우란2경",
        "distance": 1067.7918257510223,
        "walking_time": "약 16분"
      },
      {
        "education_lat": 37.55160931,
        "education_lon": 127.0731836,
        "education_type": "공연장",
        "education_name": "세종대학교 대양홀",
        "distance": 1083.0341932911272,
        "walking_time": "약 17분"
      },
      {
        "education_lat": 37.55160931,
        "education_lon": 127.0731836,
        "education_type": "박물관/기념관",
        "education_name": "세종대학교 박물관",
        "distance": 1083.0341932911272,
        "walking_time": "약 17분"
      },
      {
        "education_lat": 37.55079808,
        "education_lon": 127.0745756,
        "education_type": "미술관/갤러리",
        "education_name": "세종뮤지엄갤러리",
        "distance": 1084.537690797291,
        "walking_time": "약 17분"
      },
      {
        "education_lat": 37.53698967,
        "education_lon": 127.0557452,
        "education_type": "미술관/갤러리",
        "education_name": "오시선",
        "distance": 1189.4524015409688,
        "walking_time": "약 18분"
      }
    ],
    "electric_gas_station": [
      {
        "electric_gas_station_lat": 37.54494633,
        "electric_gas_station_lon": 127.0642049,
        "electric_gas_station_type": "전기차 충전소",
        "electric_gas_station_name": "기아차 성동서비스센터",
        "distance": 264.92302527735404,
        "walking_time": "약 4분"
      }
    ],
    "fitness": [
      {
        "fitness_lat": 37.54372168,
        "fitness_lon": 127.066188,
        "fitness_type": "운동시설",
        "fitness_name": "우리동네 PT샵",
        "distance": 43.90761041616347,
        "walking_time": "약 1분"
      },
      {
        "fitness_lat": 37.5421428,
        "fitness_lon": 127.0662994,
        "fitness_type": "운동시설",
        "fitness_name": "스포츠컨디셔닝센터 FMETS & D.FLAB",
        "distance": 144.10905664508832,
        "walking_time": "약 3분"
      },
      {
        "fitness_lat": 37.54151933,
        "fitness_lon": 127.0667342,
        "fitness_type": "운동시설",
        "fitness_name": "휘트니스피플우먼 건대점",
        "distance": 212.96616535686923,
        "walking_time": "약 4분"
      },
      {
        "fitness_lat": 37.54106095,
        "fitness_lon": 127.0664892,
        "fitness_type": "운동시설",
        "fitness_name": "몸가짐휘트니스 건대입구점",
        "distance": 263.10632789214947,
        "walking_time": "약 4분"
      },
      {
        "fitness_lat": 37.5425668,
        "fitness_lon": 127.0695978,
        "fitness_type": "운동시설",
        "fitness_name": "피티니스",
        "distance": 287.7632427628648,
        "walking_time": "약 5분"
      },
      {
        "fitness_lat": 37.54087805,
        "fitness_lon": 127.067114,
        "fitness_type": "운동시설",
        "fitness_name": "어게인짐 건대입구역점",
        "distance": 288.23620076806446,
        "walking_time": "약 5분"
      },
      {
        "fitness_lat": 37.54087805,
        "fitness_lon": 127.067114,
        "fitness_type": "운동시설",
        "fitness_name": "어게인짐 건대입구역점",
        "distance": 288.23620076806446,
        "walking_time": "약 5분"
      },
      {
        "fitness_lat": 37.54087805,
        "fitness_lon": 127.067114,
        "fitness_type": "운동시설",
        "fitness_name": "어게인짐 건대입구역점",
        "distance": 288.23620076806446,
        "walking_time": "약 5분"
      },
      {
        "fitness_lat": 37.54395902,
        "fitness_lon": 127.0697577,
        "fitness_type": "운동시설",
        "fitness_name": "역발산센터",
        "distance": 291.5612604242416,
        "walking_time": "약 5분"
      },
      {
        "fitness_lat": 37.54395902,
        "fitness_lon": 127.0697577,
        "fitness_type": "운동시설",
        "fitness_name": "휘트니스 타운케이",
        "distance": 291.5612604242416,
        "walking_time": "약 5분"
      }
    ],
    "gas_station": [
      {
        "gas_station_lat": 37.54411438,
        "gas_station_lon": 127.0646451,
        "gas_station_type": "주유소",
        "gas_station_name": "현대오일뱅크㈜ 직영 효진주유소",
        "distance": 182.0763999531605,
        "walking_time": "약 3분"
      },
      {
        "gas_station_lat": 37.54202743,
        "gas_station_lon": 127.0634234,
        "gas_station_type": "주유소",
        "gas_station_name": "지에스칼텍스㈜ 도루코주유소",
        "distance": 314.2177942350041,
        "walking_time": "약 5분"
      },
      {
        "gas_station_lat": 37.5485762,
        "gas_station_lon": 127.0579115,
        "gas_station_type": "주유소",
        "gas_station_name": "협진제유산업㈜ 동일주유소",
        "distance": 950.6649916964146,
        "walking_time": "약 15분"
      },
      {
        "gas_station_lat": 37.53815181,
        "gas_station_lon": 127.075893,
        "gas_station_type": "주유소",
        "gas_station_name": "자양주유소",
        "distance": 1013.4531167034868,
        "walking_time": "약 16분"
      },
      {
        "gas_station_lat": 37.55401241,
        "gas_station_lon": 127.0704331,
        "gas_station_type": "주유소",
        "gas_station_name": "KLP제2주유소",
        "distance": 1226.568864967466,
        "walking_time": "약 19분"
      },
      {
        "gas_station_lat": 37.55498384,
        "gas_station_lon": 127.0715296,
        "gas_station_type": "주유소",
        "gas_station_name": "㈜장수주유소",
        "distance": 1358.848379619447,
        "walking_time": "약 21분"
      },
      {
        "gas_station_lat": 37.55086023,
        "gas_station_lon": 127.0504365,
        "gas_station_type": "주유소",
        "gas_station_name": "세원주유소",
        "distance": 1641.2166674035775,
        "walking_time": "약 25분"
      }
    ],
    "hospital": [
      {
        "hospital_lat": 37.54286327,
        "hospital_lon": 127.0647804,
        "hospital_type": "병원",
        "hospital_name": "라라치과의원",
        "distance": 165.64764271899935,
        "walking_time": "약 3분"
      },
      {
        "hospital_lat": 37.54286327,
        "hospital_lon": 127.0647804,
        "hospital_type": "병원",
        "hospital_name": "라라치과의원",
        "distance": 165.64764271899935,
        "walking_time": "약 3분"
      },
      {
        "hospital_lat": 37.54440228,
        "hospital_lon": 127.0649106,
        "hospital_type": "병원",
        "hospital_name": "연세바로척병원",
        "distance": 178.55420410832144,
        "walking_time": "약 3분"
      },
      {
        "hospital_lat": 37.54456305,
        "hospital_lon": 127.065017,
        "hospital_type": "병원",
        "hospital_name": "예스이비인후과의원",
        "distance": 183.0442421981745,
        "walking_time": "약 3분"
      },
      {
        "hospital_lat": 37.5450472,
        "hospital_lon": 127.0659142,
        "hospital_type": "병원",
        "hospital_name": "치아미치과의원",
        "distance": 187.8958290573844,
        "walking_time": "약 3분"
      },
      {
        "hospital_lat": 37.54175219,
        "hospital_lon": 127.06602,
        "hospital_type": "병원",
        "hospital_name": "동감한의원",
        "distance": 191.36668088072875,
        "walking_time": "약 3분"
      },
      {
        "hospital_lat": 37.54168207,
        "hospital_lon": 127.0663857,
        "hospital_type": "병원",
        "hospital_name": "샤인유의원",
        "distance": 194.3856561826404,
        "walking_time": "약 3분"
      },
      {
        "hospital_lat": 37.54151933,
        "hospital_lon": 127.0667342,
        "hospital_type": "병원",
        "hospital_name": "다이즐한의원",
        "distance": 212.96616535686923,
        "walking_time": "약 4분"
      },
      {
        "hospital_lat": 37.54151933,
        "hospital_lon": 127.0667342,
        "hospital_type": "병원",
        "hospital_name": "에스준의원",
        "distance": 212.96616535686923,
        "walking_time": "약 4분"
      },
      {
        "hospital_lat": 37.54246703,
        "hospital_lon": 127.0687333,
        "hospital_type": "병원",
        "hospital_name": "영재한의원",
        "distance": 222.4641379530928,
        "walking_time": "약 4분"
      }
    ],
    "music_room": [
      {
        "music_room_lat": 37.54231813,
        "music_room_lon": 127.0658113,
        "music_room_type": "노래방",
        "music_room_name": "벅스",
        "distance": 138.20903341036816,
        "walking_time": "약 3분"
      },
      {
        "music_room_lat": 37.5421945,
        "music_room_lon": 127.0661644,
        "music_room_type": "노래방",
        "music_room_name": "드루와",
        "distance": 140.5783383487164,
        "walking_time": "약 3분"
      },
      {
        "music_room_lat": 37.54210399,
        "music_room_lon": 127.0664076,
        "music_room_type": "노래방",
        "music_room_name": "딩동댕",
        "distance": 147.4424553424988,
        "walking_time": "약 3분"
      },
      {
        "music_room_lat": 37.54252019,
        "music_room_lon": 127.0652223,
        "music_room_type": "노래방",
        "music_room_name": "코끼리 노래연습장",
        "distance": 152.47133281840976,
        "walking_time": "약 3분"
      },
      {
        "music_room_lat": 37.54212648,
        "music_room_lon": 127.0656714,
        "music_room_type": "노래방",
        "music_room_name": "네박자",
        "distance": 162.7990755833979,
        "walking_time": "약 3분"
      },
      {
        "music_room_lat": 37.54201068,
        "music_room_lon": 127.0660357,
        "music_room_type": "노래방",
        "music_room_name": "OK 노래연습장",
        "distance": 163.1618444424339,
        "walking_time": "약 3분"
      },
      {
        "music_room_lat": 37.54216475,
        "music_room_lon": 127.0655516,
        "music_room_type": "노래방",
        "music_room_name": "아모르파티 노래연습장",
        "distance": 164.2620223977152,
        "walking_time": "약 3분"
      },
      {
        "music_room_lat": 37.54192475,
        "music_room_lon": 127.0669436,
        "music_room_type": "노래방",
        "music_room_name": "K-1노래연습장",
        "distance": 171.17634234222882,
        "walking_time": "약 3분"
      },
      {
        "music_room_lat": 37.54185568,
        "music_room_lon": 127.0665707,
        "music_room_type": "노래방",
        "music_room_name": "짝 노래연습장",
        "distance": 174.7811240900754,
        "walking_time": "약 3분"
      },
      {
        "music_room_lat": 37.54190124,
        "music_room_lon": 127.0670995,
        "music_room_type": "노래방",
        "music_room_name": "안 노래연습장",
        "distance": 177.1958423820629,
        "walking_time": "약 3분"
      }
    ],
    "park": [
      {
        "park_lat": 37.5448144,
        "park_lon": 127.0524023,
        "park_type": "공원",
        "park_name": "성수근린공원",
        "distance": 1254.1634054371975,
        "walking_time": "약 19분"
      }
    ],
    "park_station": [
      {
        "park_station_lat": 37.54369647,
        "park_station_lon": 127.0625162,
        "park_station_type": "주차장",
        "park_station_name": "공유) 18-29",
        "distance": 354.22205478327874,
        "walking_time": "약 6분"
      },
      {
        "park_station_lat": 37.54243542,
        "park_station_lon": 127.0618465,
        "park_station_type": "주차장",
        "park_station_name": "공유) 18-41",
        "distance": 426.4987953644694,
        "walking_time": "약 7분"
      },
      {
        "park_station_lat": 37.54610141,
        "park_station_lon": 127.0628628,
        "park_station_type": "주차장",
        "park_station_name": "공유) 18-21",
        "distance": 438.6001702666086,
        "walking_time": "약 7분"
      },
      {
        "park_station_lat": 37.54530344,
        "park_station_lon": 127.0711952,
        "park_station_type": "주차장",
        "park_station_name": "화양동 공영",
        "distance": 462.027018827745,
        "walking_time": "약 7분"
      },
      {
        "park_station_lat": 37.54387262,
        "park_station_lon": 127.0612978,
        "park_station_type": "주차장",
        "park_station_name": "KT성수분국 앞",
        "distance": 463.03154580521607,
        "walking_time": "약 7분"
      },
      {
        "park_station_lat": 37.54307999,
        "park_station_lon": 127.0606405,
        "park_station_type": "주차장",
        "park_station_name": "성수역 3번출구 앞",
        "distance": 519.760636760632,
        "walking_time": "약 8분"
      },
      {
        "park_station_lat": 37.54714508,
        "park_station_lon": 127.0627896,
        "park_station_type": "주차장",
        "park_station_name": "공유) 18-23",
        "distance": 528.2629507002728,
        "walking_time": "약 8분"
      },
      {
        "park_station_lat": 37.54714508,
        "park_station_lon": 127.0627896,
        "park_station_type": "주차장",
        "park_station_name": "공유) 18-23",
        "distance": 528.2629507002728,
        "walking_time": "약 8분"
      },
      {
        "park_station_lat": 37.54237547,
        "park_station_lon": 127.0605276,
        "park_station_type": "주차장",
        "park_station_name": "공유) 18-46",
        "distance": 541.0675912606131,
        "walking_time": "약 9분"
      },
      {
        "park_station_lat": 37.53867774,
        "park_station_lon": 127.0681859,
        "park_station_type": "주차장",
        "park_station_name": "자양4동 공영주차장",
        "distance": 548.1509418771071,
        "walking_time": "약 9분"
      }
    ],
    "pc_room": [
      {
        "pc_room_lat": 37.542733357585,
        "pc_room_lon": 127.068894797657,
        "pc_room_type": "PC방",
        "pc_room_name": "PPL PC방",
        "distance": 223.17223374204823,
        "walking_time": "약 4분"
      },
      {
        "pc_room_lat": 37.5406341134418,
        "pc_room_lon": 127.067657144585,
        "pc_room_type": "PC방",
        "pc_room_name": "메가 PC방",
        "distance": 326.35099566662893,
        "walking_time": "약 5분"
      },
      {
        "pc_room_lat": 37.540809126931,
        "pc_room_lon": 127.068990676571,
        "pc_room_type": "PC방",
        "pc_room_name": "포포PC방 건대점",
        "distance": 363.6013925601188,
        "walking_time": "약 6분"
      },
      {
        "pc_room_lat": 37.5397607621364,
        "pc_room_lon": 127.066887730045,
        "pc_room_type": "PC방",
        "pc_room_name": "아이닉스PC (건대1호점)",
        "distance": 408.957786450279,
        "walking_time": "약 7분"
      },
      {
        "pc_room_lat": 37.5397607621364,
        "pc_room_lon": 127.066887730045,
        "pc_room_type": "PC방",
        "pc_room_name": "아이닉스PC (건대2호점)",
        "distance": 408.957786450279,
        "walking_time": "약 7분"
      },
      {
        "pc_room_lat": 37.5404019046121,
        "pc_room_lon": 127.063308331095,
        "pc_room_type": "PC방",
        "pc_room_name": "건대PC",
        "distance": 439.6650538139373,
        "walking_time": "약 7분"
      },
      {
        "pc_room_lat": 37.5420273403857,
        "pc_room_lon": 127.071313020717,
        "pc_room_type": "PC방",
        "pc_room_name": "e-sports center 건대점",
        "distance": 450.3732682933051,
        "walking_time": "약 7분"
      },
      {
        "pc_room_lat": 37.5405050771385,
        "pc_room_lon": 127.070150304742,
        "pc_room_type": "PC방",
        "pc_room_name": "비원 건대2호점",
        "distance": 456.11134842599,
        "walking_time": "약 7분"
      },
      {
        "pc_room_lat": 37.5471665537169,
        "pc_room_lon": 127.070101890144,
        "pc_room_type": "PC방",
        "pc_room_name": "비원 PC방",
        "distance": 522.1664210706476,
        "walking_time": "약 8분"
      },
      {
        "pc_room_lat": 37.5471665537169,
        "pc_room_lon": 127.070101890144,
        "pc_room_type": "PC방",
        "pc_room_name": "앤탑PC방",
        "distance": 522.1664210706476,
        "walking_time": "약 8분"
      }
    ],
    "police_office": [
      {
        "police_office_lat": 37.54652678,
        "police_office_lon": 127.0712676,
        "police_office_type": "경찰소",
        "police_office_name": "화양지구대",
        "distance": 542.253212279795,
        "walking_time": "약 9분"
      },
      {
        "police_office_lat": 37.53518701,
        "police_office_lon": 127.063636,
        "police_office_type": "경찰소",
        "police_office_name": "자양4파출소",
        "distance": 950.8642034782188,
        "walking_time": "약 15분"
      },
      {
        "police_office_lat": 37.5482232,
        "police_office_lon": 127.0552456,
        "police_office_type": "경찰소",
        "police_office_name": "성수지구대",
        "distance": 1127.9780785442624,
        "walking_time": "약 17분"
      },
      {
        "police_office_lat": 37.53385103,
        "police_office_lon": 127.0716125,
        "police_office_type": "경찰소",
        "police_office_name": "자양파출소",
        "distance": 1155.6161651204368,
        "walking_time": "약 18분"
      },
      {
        "police_office_lat": 37.53662079,
        "police_office_lon": 127.0769223,
        "police_office_type": "경찰소",
        "police_office_name": "자양1파출소",
        "distance": 1189.1363222087175,
        "walking_time": "약 18분"
      },
      {
        "police_office_lat": 37.5380575,
        "police_office_lon": 127.0522733,
        "police_office_type": "경찰소",
        "police_office_name": "서울숲지구대",
        "distance": 1390.7521671648,
        "walking_time": "약 21분"
      }
    ],
    "post_office": [
      {
        "post_office_lat": 37.53955017,
        "post_office_lon": 127.0674106,
        "post_office_type": "우체국",
        "post_office_name": "서울성수노룬산우편취급국",
        "distance": 438.1848274834204,
        "walking_time": "약 7분"
      },
      {
        "post_office_lat": 37.5479075,
        "post_office_lon": 127.0693931,
        "post_office_type": "우체국",
        "post_office_name": "서울화양동우체국",
        "distance": 558.923682289491,
        "walking_time": "약 9분"
      },
      {
        "post_office_lat": 37.53918267,
        "post_office_lon": 127.0747119,
        "post_office_type": "우체국",
        "post_office_name": "건국대학교우편취급국",
        "distance": 862.8230128212484,
        "walking_time": "약 13분"
      },
      {
        "post_office_lat": 37.55160931,
        "post_office_lon": 127.0731836,
        "post_office_type": "우체국",
        "post_office_name": "세종대학교우편취급국",
        "distance": 1083.0341932911272,
        "walking_time": "약 17분"
      },
      {
        "post_office_lat": 37.54556904,
        "post_office_lon": 127.0536857,
        "post_office_type": "우체국",
        "post_office_name": "서울성수동우편취급국",
        "distance": 1156.2804516242809,
        "walking_time": "약 18분"
      },
      {
        "post_office_lat": 37.55594856,
        "post_office_lon": 127.0755462,
        "post_office_type": "우체국",
        "post_office_name": "서울능동우편취급국",
        "distance": 1603.7003423750873,
        "walking_time": "약 24분"
      }
    ],
    "public_health_center": [
      {
        "public_health_center_lat": 37.54026343,
        "public_health_center_lon": 127.0651093,
        "public_health_center_type": "보건소",
        "public_health_center_name": "자양보건지소",
        "distance": 373.0992762646474,
        "walking_time": "약 6분"
      }
    ],
    "school": [
      {
        "school_lat": 37.5443378762673,
        "school_lon": 127.062886077541,
        "school_type": "초등학교",
        "school_name": "서울성수초등학교",
        "distance": 335.971386551142,
        "walking_time": "약 6분"
      },
      {
        "school_lat": 37.5395090367488,
        "school_lon": 127.059271203056,
        "school_type": "중학교",
        "school_name": "경수중학교",
        "distance": 773.4364476445003,
        "walking_time": "약 12분"
      },
      {
        "school_lat": 37.5404366739206,
        "school_lon": 127.058066769768,
        "school_type": "초등학교",
        "school_name": "서울경수초등학교",
        "distance": 816.0676967880471,
        "walking_time": "약 13분"
      },
      {
        "school_lat": 37.539182674872,
        "school_lon": 127.074711902268,
        "school_type": "고등학교",
        "school_name": "건국대학교사범대학부속고등학교",
        "distance": 862.8228838801286,
        "walking_time": "약 13분"
      },
      {
        "school_lat": 37.549876450253,
        "school_lon": 127.072402467919,
        "school_type": "초등학교",
        "school_name": "서울장안초등학교",
        "distance": 885.0418435575648,
        "walking_time": "약 14분"
      },
      {
        "school_lat": 37.536077967735,
        "school_lon": 127.073339535384,
        "school_type": "고등학교",
        "school_name": "자양고등학교",
        "distance": 1014.575248976446,
        "walking_time": "약 16분"
      },
      {
        "school_lat": 37.5346820949284,
        "school_lon": 127.0699952764,
        "school_type": "초등학교",
        "school_name": "서울신양초등학교",
        "distance": 1019.5387555132672,
        "walking_time": "약 16분"
      },
      {
        "school_lat": 37.5350582094918,
        "school_lon": 127.072179165371,
        "school_type": "초등학교",
        "school_name": "서울동자초등학교",
        "distance": 1055.9220750206853,
        "walking_time": "약 16분"
      },
      {
        "school_lat": 37.5428503028479,
        "school_lon": 127.078840375276,
        "school_type": "중학교",
        "school_name": "구의중학교",
        "distance": 1088.1718513861329,
        "walking_time": "약 17분"
      },
      {
        "school_lat": 37.5357298982053,
        "school_lon": 127.074368913785,
        "school_type": "중학교",
        "school_name": "자양중학교",
        "distance": 1100.6851706620437,
        "walking_time": "약 17분"
      }
    ],
    "self_laundromat": [
      {
        "self_laundromat_lat": 37.55063449,
        "self_laundromat_lon": 127.0671769,
        "self_laundromat_type": "셀프 빨래방",
        "self_laundromat_name": "더화이트 송정점",
        "distance": 803.5292163282056,
        "walking_time": "약 12분"
      },
      {
        "self_laundromat_lat": 37.55063449,
        "self_laundromat_lon": 127.0671769,
        "self_laundromat_type": "셀프 빨래방",
        "self_laundromat_name": "더화이트 송정점",
        "distance": 803.5292163282056,
        "walking_time": "약 12분"
      },
      {
        "self_laundromat_lat": 37.54136841,
        "self_laundromat_lon": 127.055611,
        "self_laundromat_type": "셀프 빨래방",
        "self_laundromat_name": "우리셀프빨래방",
        "distance": 988.6319929040388,
        "walking_time": "약 15분"
      },
      {
        "self_laundromat_lat": 37.54136841,
        "self_laundromat_lon": 127.055611,
        "self_laundromat_type": "셀프 빨래방",
        "self_laundromat_name": "우리셀프빨래방",
        "distance": 988.6319929040388,
        "walking_time": "약 15분"
      },
      {
        "self_laundromat_lat": 37.53678979,
        "self_laundromat_lon": 127.0561894,
        "self_laundromat_type": "셀프 빨래방",
        "self_laundromat_name": "런드리24 펭귄하우스 성수성덕정길점",
        "distance": 1172.2776989548022,
        "walking_time": "약 18분"
      },
      {
        "self_laundromat_lat": 37.53678979,
        "self_laundromat_lon": 127.0561894,
        "self_laundromat_type": "셀프 빨래방",
        "self_laundromat_name": "런드리24 펭귄하우스 성수성덕정길점",
        "distance": 1172.2776989548022,
        "walking_time": "약 18분"
      },
      {
        "self_laundromat_lat": 37.53754872,
        "self_laundromat_lon": 127.0551975,
        "self_laundromat_type": "셀프 빨래방",
        "self_laundromat_name": "셀피아 서울성수동점",
        "distance": 1193.206093253765,
        "walking_time": "약 18분"
      },
      {
        "self_laundromat_lat": 37.53754872,
        "self_laundromat_lon": 127.0551975,
        "self_laundromat_type": "셀프 빨래방",
        "self_laundromat_name": "셀피아 서울성수동점",
        "distance": 1193.206093253765,
        "walking_time": "약 18분"
      },
      {
        "self_laundromat_lat": 37.54111378,
        "self_laundromat_lon": 127.0506252,
        "self_laundromat_type": "셀프 빨래방",
        "self_laundromat_name": "크린토피아 코인워시 서울숲힐스테이트점",
        "distance": 1424.7619114717695,
        "walking_time": "약 22분"
      },
      {
        "self_laundromat_lat": 37.54111378,
        "self_laundromat_lon": 127.0506252,
        "self_laundromat_type": "셀프 빨래방",
        "self_laundromat_name": "크린토피아 코인워시 서울숲힐스테이트점",
        "distance": 1424.7619114717695,
        "walking_time": "약 22분"
      }
    ],
    "subway": [
      {
        "subway_lat": 37.5404188872176,
        "subway_lon": 127.069173281554,
        "subway_type": "지하철",
        "subway_name": "2호선-건대입구역",
        "distance": 408.1992288044472,
        "walking_time": "약 7분"
      },
      {
        "subway_lat": 37.540657941434,
        "subway_lon": 127.07141185507,
        "subway_type": "지하철",
        "subway_name": "7호선-건대입구역",
        "distance": 529.9662725583213,
        "walking_time": "약 8분"
      },
      {
        "subway_lat": 37.547871203305,
        "subway_lon": 127.074549925093,
        "subway_type": "지하철",
        "subway_name": "7호선-어린이대공원(세종대)역",
        "distance": 863.3947097880305,
        "walking_time": "약 13분"
      },
      {
        "subway_lat": 37.5445023983984,
        "subway_lon": 127.056090471223,
        "subway_type": "지하철",
        "subway_name": "2호선-성수역",
        "distance": 927.217373887092,
        "walking_time": "약 14분"
      },
      {
        "subway_lat": 37.5317034538759,
        "subway_lon": 127.066765925738,
        "subway_type": "지하철",
        "subway_name": "7호선-자양(뚝섬유원지)역",
        "distance": 1303.7799246480577,
        "walking_time": "약 20분"
      },
      {
        "subway_lat": 37.5573631939521,
        "subway_lon": 127.079017279019,
        "subway_type": "지하철",
        "subway_name": "5호선-군자(능동)역",
        "distance": 1901.3846584345545,
        "walking_time": "약 29분"
      },
      {
        "subway_lat": 37.5573631939521,
        "subway_lon": 127.079017279019,
        "subway_type": "지하철",
        "subway_name": "7호선-군자(능동)역",
        "distance": 1901.3846584345545,
        "walking_time": "약 29분"
      }
    ],
    "supermarket": [
      {
        "supermarket_lat": 37.54105663,
        "supermarket_lon": 127.0656692,
        "supermarket_type": "마트",
        "supermarket_name": "커먼그라운드",
        "distance": 274.0274594381395,
        "walking_time": "약 5분"
      },
      {
        "supermarket_lat": 37.54395902,
        "supermarket_lon": 127.0697577,
        "supermarket_type": "마트",
        "supermarket_name": "한아름시장",
        "distance": 291.5612604242416,
        "walking_time": "약 5분"
      },
      {
        "supermarket_lat": 37.54395902,
        "supermarket_lon": 127.0697577,
        "supermarket_type": "마트",
        "supermarket_name": "(주)지에스리테일GS수퍼 광진화양점",
        "distance": 291.5612604242416,
        "walking_time": "약 5분"
      },
      {
        "supermarket_lat": 37.53899664,
        "supermarket_lon": 127.0674893,
        "supermarket_type": "마트",
        "supermarket_name": "조양시장",
        "distance": 499.9990123133181,
        "walking_time": "약 8분"
      },
      {
        "supermarket_lat": 37.53903739,
        "supermarket_lon": 127.0714321,
        "supermarket_type": "마트",
        "supermarket_name": "롯데백화점 건대스타시티점",
        "distance": 652.5715512960518,
        "walking_time": "약 10분"
      },
      {
        "supermarket_lat": 37.54846108,
        "supermarket_lon": 127.0710495,
        "supermarket_type": "마트",
        "supermarket_name": "파크에비뉴",
        "distance": 687.6317244600586,
        "walking_time": "약 11분"
      },
      {
        "supermarket_lat": 37.53855827,
        "supermarket_lon": 127.0729962,
        "supermarket_type": "마트",
        "supermarket_name": "(주)이마트 자양점",
        "distance": 786.8782060962357,
        "walking_time": "약 12분"
      },
      {
        "supermarket_lat": 37.53644772,
        "supermarket_lon": 127.0648999,
        "supermarket_type": "마트",
        "supermarket_name": "노룬산시장",
        "distance": 789.0891468803216,
        "walking_time": "약 12분"
      },
      {
        "supermarket_lat": 37.54754415,
        "supermarket_lon": 127.0553768,
        "supermarket_type": "마트",
        "supermarket_name": "(주)인트램",
        "distance": 1083.8113902872371,
        "walking_time": "약 17분"
      },
      {
        "supermarket_lat": 37.53780064,
        "supermarket_lon": 127.054827,
        "supermarket_type": "마트",
        "supermarket_name": "뚝도시장",
        "distance": 1205.897308723576,
        "walking_time": "약 18분"
      }
    ],
    "tax_office": [
      {
        "tax_office_lat": 37.54850152,
        "tax_office_lon": 127.0628187,
        "tax_office_type": "세무서",
        "tax_office_name": "성동세무서",
        "distance": 651.8003504307401,
        "walking_time": "약 10분"
      }
    ],
    "theater": [
      {
        "theater_lat": 37.5397607621364,
        "theater_lon": 127.066887730045,
        "theater_type": "영화관",
        "theater_name": "CGV 건대입구",
        "distance": 408.957786450279,
        "walking_time": "약 7분"
      },
      {
        "theater_lat": 37.5385582736952,
        "theater_lon": 127.072996184863,
        "theater_type": "영화관",
        "theater_name": "롯데시네마 건대입구관",
        "distance": 786.8769548631933,
        "walking_time": "약 12분"
      },
      {
        "theater_lat": 37.5557904109818,
        "theater_lon": 127.078344497368,
        "theater_type": "영화관",
        "theater_name": "메가박스 군자",
        "distance": 1725.305445792493,
        "walking_time": "약 26분"
      }
    ],
    "university": [
      {
        "university_lat": 37.5464762611364,
        "university_lon": 127.071367614735,
        "university_type": "대학교",
        "university_name": "건국대학교",
        "distance": 545.5803057076972,
        "walking_time": "약 9분"
      },
      {
        "university_lat": 37.5516093089619,
        "university_lon": 127.07318364213,
        "university_type": "대학교",
        "university_name": "세종대학교",
        "distance": 1083.0361111676489,
        "walking_time": "약 17분"
      }
    ]
  }
}