{
  "클러스터_위도": 37.47547250000559,
  "클러스터_경도": 126.902964999949,
  "클러스터_level": 3.0,
  "facilities": {
    "bus": [
      {
        "bus_lat": 37.47532708,
        "bus_lon": 126.9033549,
        "bus_type": "버스정류장",
        "bus_name": "독산3동주민센터",
        "distance": 38.01730700162627,
        "walking_time": "약 1분"
      },
      {
        "bus_lat": 37.47582293,
        "bus_lon": 126.9036415,
        "bus_type": "버스정류장",
        "bus_name": "독산3동주민센터",
        "distance": 71.2897179999204,
        "walking_time": "약 2분"
      },
      {
        "bus_lat": 37.4737444,
        "bus_lon": 126.9031981,
        "bus_type": "버스정류장",
        "bus_name": "독산동남문시장",
        "distance": 193.25384749823044,
        "walking_time": "약 3분"
      },
      {
        "bus_lat": 37.4733474,
        "bus_lon": 126.903414,
        "bus_type": "버스정류장",
        "bus_name": "독산동남문시장",
        "distance": 239.5993078972942,
        "walking_time": "약 4분"
      },
      {
        "bus_lat": 37.47562467,
        "bus_lon": 126.9058668,
        "bus_type": "버스정류장",
        "bus_name": "문성중학교",
        "distance": 256.62993394422324,
        "walking_time": "약 4분"
      },
      {
        "bus_lat": 37.4756347,
        "bus_lon": 126.9060093,
        "bus_type": "버스정류장",
        "bus_name": "문성중학교",
        "distance": 269.2512559713751,
        "walking_time": "약 5분"
      },
      {
        "bus_lat": 37.4737106,
        "bus_lon": 126.9059678,
        "bus_type": "버스정류장",
        "bus_name": "남문교회",
        "distance": 329.54654209099834,
        "walking_time": "약 5분"
      },
      {
        "bus_lat": 37.47363431,
        "bus_lon": 126.9060943,
        "bus_type": "버스정류장",
        "bus_name": "남문교회",
        "distance": 343.56618811927723,
        "walking_time": "약 6분"
      },
      {
        "bus_lat": 37.47865894,
        "bus_lon": 126.9039352,
        "bus_type": "버스정류장",
        "bus_name": "모두의학교.금천문화예술정보학교",
        "distance": 364.5128352643781,
        "walking_time": "약 6분"
      },
      {
        "bus_lat": 37.47644161,
        "bus_lon": 126.8989325,
        "bus_type": "버스정류장",
        "bus_name": "독산고개",
        "distance": 371.80743507205335,
        "walking_time": "약 6분"
      }
    ],
    "community_center": [
      {
        "community_center_lat": 37.47516041,
        "community_center_lon": 126.9031745,
        "community_center_type": "주민센터",
        "community_center_name": "독산3동 자치회관",
        "distance": 39.32016569221802,
        "walking_time": "약 1분"
      },
      {
        "community_center_lat": 37.47021905,
        "community_center_lon": 126.8970437,
        "community_center_type": "주민센터",
        "community_center_name": "독산1동 자치회관",
        "distance": 783.7705319458971,
        "walking_time": "약 12분"
      },
      {
        "community_center_lat": 37.46755353,
        "community_center_lon": 126.9021682,
        "community_center_type": "주민센터",
        "community_center_name": "독산4동 자치회관",
        "distance": 883.3525183163747,
        "walking_time": "약 14분"
      },
      {
        "community_center_lat": 37.48256328,
        "community_center_lon": 126.9077947,
        "community_center_type": "주민센터",
        "community_center_name": "조원동 자치회관",
        "distance": 896.2684899518077,
        "walking_time": "약 14분"
      },
      {
        "community_center_lat": 37.47689182,
        "community_center_lon": 126.8917817,
        "community_center_type": "주민센터",
        "community_center_name": "가산동 자치회관",
        "distance": 999.4100652437342,
        "walking_time": "약 15분"
      },
      {
        "community_center_lat": 37.46607783,
        "community_center_lon": 126.8997789,
        "community_center_type": "주민센터",
        "community_center_name": "독산2동 자치회관",
        "distance": 1081.8192520350449,
        "walking_time": "약 17분"
      },
      {
        "community_center_lat": 37.47617498,
        "community_center_lon": 126.9155517,
        "community_center_type": "주민센터",
        "community_center_name": "미성동 자치회관",
        "distance": 1113.461913060636,
        "walking_time": "약 17분"
      },
      {
        "community_center_lat": 37.48894469,
        "community_center_lon": 126.9100394,
        "community_center_type": "주민센터",
        "community_center_name": "신대방1동 자치회관",
        "distance": 1622.893884250924,
        "walking_time": "약 25분"
      },
      {
        "community_center_lat": 37.48734704,
        "community_center_lon": 126.89033,
        "community_center_type": "주민센터",
        "community_center_name": "구로3동 자치회관",
        "distance": 1728.1269036031993,
        "walking_time": "약 26분"
      },
      {
        "community_center_lat": 37.48595224,
        "community_center_lon": 126.9191029,
        "community_center_type": "주민센터",
        "community_center_name": "신사동 자치회관",
        "distance": 1840.025376379324,
        "walking_time": "약 28분"
      }
    ],
    "convenience_store": [
      {
        "convenience_store_lat": 37.47487063,
        "convenience_store_lon": 126.9032636,
        "convenience_store_type": "편의점",
        "convenience_store_name": "GS25 독산반수점",
        "distance": 71.92551890724248,
        "walking_time": "약 2분"
      },
      {
        "convenience_store_lat": 37.4751323,
        "convenience_store_lon": 126.9002445,
        "convenience_store_type": "편의점",
        "convenience_store_name": "세븐일레븐 독산문성점",
        "distance": 243.0353976581912,
        "walking_time": "약 4분"
      },
      {
        "convenience_store_lat": 37.4758399,
        "convenience_store_lon": 126.9000786,
        "convenience_store_type": "편의점",
        "convenience_store_name": "GS25 독산한양점",
        "distance": 257.967533751869,
        "walking_time": "약 4분"
      },
      {
        "convenience_store_lat": 37.47788223,
        "convenience_store_lon": 126.9039017,
        "convenience_store_type": "편의점",
        "convenience_store_name": "CU 독산백광점",
        "distance": 280.4095287337068,
        "walking_time": "약 5분"
      },
      {
        "convenience_store_lat": 37.47805057,
        "convenience_store_lon": 126.9049442,
        "convenience_store_type": "편의점",
        "convenience_store_name": "GS25 금천왕창점",
        "distance": 335.68205117420314,
        "walking_time": "약 6분"
      },
      {
        "convenience_store_lat": 37.47222441,
        "convenience_store_lon": 126.9034241,
        "convenience_store_type": "편의점",
        "convenience_store_name": "CU 독산남문점",
        "distance": 363.4363956602736,
        "walking_time": "약 6분"
      },
      {
        "convenience_store_lat": 37.47854595,
        "convenience_store_lon": 126.9005716,
        "convenience_store_type": "편의점",
        "convenience_store_name": "GS25 금천르네상스점",
        "distance": 401.74776721674783,
        "walking_time": "약 6분"
      },
      {
        "convenience_store_lat": 37.47927948,
        "convenience_store_lon": 126.9024267,
        "convenience_store_type": "편의점",
        "convenience_store_name": "세븐일레븐 구로전화국사거리점",
        "distance": 425.9736603435619,
        "walking_time": "약 7분"
      },
      {
        "convenience_store_lat": 37.47292468,
        "convenience_store_lon": 126.8993347,
        "convenience_store_type": "편의점",
        "convenience_store_name": "CU 독산시장점",
        "distance": 427.6620436903167,
        "walking_time": "약 7분"
      },
      {
        "convenience_store_lat": 37.47157433,
        "convenience_store_lon": 126.9025481,
        "convenience_store_type": "편의점",
        "convenience_store_name": "세븐일레븐 신당역점",
        "distance": 435.0152714265378,
        "walking_time": "약 7분"
      }
    ],
    "daycare": [
      {
        "daycare_lat": 37.47488595,
        "daycare_lon": 126.903601,
        "daycare_type": "어린이집",
        "daycare_name": "한울아트스쿨어린이집",
        "distance": 86.04532016595975,
        "walking_time": "약 2분"
      },
      {
        "daycare_lat": 37.4746128,
        "daycare_lon": 126.9041089,
        "daycare_type": "어린이집",
        "daycare_name": "구립별마루어린이집",
        "distance": 139.02574793540404,
        "walking_time": "약 3분"
      },
      {
        "daycare_lat": 37.47672637,
        "daycare_lon": 126.9041394,
        "daycare_type": "어린이집",
        "daycare_name": "엔젤어린이집",
        "distance": 173.72181587083438,
        "walking_time": "약 3분"
      },
      {
        "daycare_lat": 37.477413,
        "daycare_lon": 126.9024923,
        "daycare_type": "어린이집",
        "daycare_name": "구립독산본동어린이집",
        "distance": 219.76876315058183,
        "walking_time": "약 4분"
      },
      {
        "daycare_lat": 37.47481998,
        "daycare_lon": 126.9003799,
        "daycare_type": "어린이집",
        "daycare_name": "송이어린이집",
        "distance": 239.38600466153625,
        "walking_time": "약 4분"
      },
      {
        "daycare_lat": 37.47386312,
        "daycare_lon": 126.9008698,
        "daycare_type": "어린이집",
        "daycare_name": "행복한어린이집",
        "distance": 257.31476683486744,
        "walking_time": "약 4분"
      },
      {
        "daycare_lat": 37.47329747,
        "daycare_lon": 126.9040934,
        "daycare_type": "어린이집",
        "daycare_name": "구립개미어린이집",
        "distance": 261.5498517398935,
        "walking_time": "약 4분"
      },
      {
        "daycare_lat": 37.47601899,
        "daycare_lon": 126.8997699,
        "daycare_type": "어린이집",
        "daycare_name": "독산빅스맘어린이집",
        "distance": 288.42719153074654,
        "walking_time": "약 5분"
      },
      {
        "daycare_lat": 37.47401443,
        "daycare_lon": 126.9058138,
        "daycare_type": "어린이집",
        "daycare_name": "남문 어린이집",
        "distance": 299.1432468674261,
        "walking_time": "약 5분"
      },
      {
        "daycare_lat": 37.47401443,
        "daycare_lon": 126.9058138,
        "daycare_type": "어린이집",
        "daycare_name": "남문방과후 교실 어린이집",
        "distance": 299.1432468674261,
        "walking_time": "약 5분"
      }
    ],
    "education": [
      {
        "education_lat": 37.4718013,
        "education_lon": 126.896009,
        "education_type": "공연장",
        "education_name": "문화정원아트홀",
        "distance": 737.1962003505528,
        "walking_time": "약 12분"
      },
      {
        "education_lat": 37.4798477,
        "education_lon": 126.8953185,
        "education_type": "박물관/기념관",
        "education_name": "G밸리산업박물관",
        "distance": 831.848898944062,
        "walking_time": "약 13분"
      },
      {
        "education_lat": 37.47349155,
        "education_lon": 126.8921298,
        "education_type": "도서관",
        "education_name": "금천구립가산도서관",
        "distance": 981.217710123864,
        "walking_time": "약 15분"
      },
      {
        "education_lat": 37.46758019,
        "education_lon": 126.9081059,
        "education_type": "도서관",
        "education_name": "금천구립독산도서관",
        "distance": 987.92054779317,
        "walking_time": "약 15분"
      },
      {
        "education_lat": 37.46877706,
        "education_lon": 126.8944749,
        "education_type": "공연장",
        "education_name": "금천뮤지컬센터",
        "distance": 1056.2450253573854,
        "walking_time": "약 16분"
      },
      {
        "education_lat": 37.48606517,
        "education_lon": 126.9058854,
        "education_type": "도서관",
        "education_name": "신대방누리도서관",
        "distance": 1205.7114134402052,
        "walking_time": "약 18분"
      },
      {
        "education_lat": 37.4808823,
        "education_lon": 126.9182364,
        "education_type": "박물관/기념관",
        "education_name": "호림박물관(신림본관)",
        "distance": 1475.7535091193563,
        "walking_time": "약 23분"
      },
      {
        "education_lat": 37.48714316,
        "education_lon": 126.8901547,
        "education_type": "도서관",
        "education_name": "꿈마을도서관",
        "distance": 1720.9889097827966,
        "walking_time": "약 26분"
      }
    ],
    "electric_gas_station": [
      {
        "electric_gas_station_lat": 37.48105867,
        "electric_gas_station_lon": 126.9057171,
        "electric_gas_station_type": "전기차 충전소",
        "electric_gas_station_name": "조원동 제1공영주차장",
        "distance": 666.9402020418067,
        "walking_time": "약 10분"
      },
      {
        "electric_gas_station_lat": 37.46494122,
        "electric_gas_station_lon": 126.8948157,
        "electric_gas_station_type": "전기차 충전소",
        "electric_gas_station_name": "독산1동 공영주차장",
        "distance": 1374.240558917334,
        "walking_time": "약 21분"
      }
    ],
    "fitness": [
      {
        "fitness_lat": 37.47854595,
        "fitness_lon": 126.9005716,
        "fitness_type": "운동시설",
        "fitness_name": "스타스파앤휘트니스",
        "distance": 401.74776721674783,
        "walking_time": "약 6분"
      },
      {
        "fitness_lat": 37.47181169,
        "fitness_lon": 126.9029207,
        "fitness_type": "운동시설",
        "fitness_name": "신협헬스장",
        "distance": 407.0822721794904,
        "walking_time": "약 7분"
      },
      {
        "fitness_lat": 37.47945892,
        "fitness_lon": 126.9034728,
        "fitness_type": "운동시설",
        "fitness_name": "주식회사 더랩스휘트니스 독산",
        "distance": 445.5288411656995,
        "walking_time": "약 7분"
      },
      {
        "fitness_lat": 37.47494553,
        "fitness_lon": 126.8975186,
        "fitness_type": "운동시설",
        "fitness_name": "에이치 짐 2호점",
        "distance": 484.1825945944004,
        "walking_time": "약 8분"
      },
      {
        "fitness_lat": 37.48013313,
        "fitness_lon": 126.9029078,
        "fitness_type": "운동시설",
        "fitness_name": "업프로짐",
        "distance": 518.2629903956891,
        "walking_time": "약 8분"
      },
      {
        "fitness_lat": 37.47156899,
        "fitness_lon": 126.8987722,
        "fitness_type": "운동시설",
        "fitness_name": "크로스핏 모브",
        "distance": 570.3550432857704,
        "walking_time": "약 9분"
      },
      {
        "fitness_lat": 37.48178948,
        "fitness_lon": 126.9010846,
        "fitness_type": "운동시설",
        "fitness_name": "정피트니스",
        "distance": 721.7488001781824,
        "walking_time": "약 11분"
      },
      {
        "fitness_lat": 37.47466582,
        "fitness_lon": 126.8947195,
        "fitness_type": "운동시설",
        "fitness_name": "VIP GYM",
        "distance": 733.1428923107173,
        "walking_time": "약 11분"
      },
      {
        "fitness_lat": 37.47453555,
        "fitness_lon": 126.8943229,
        "fitness_type": "운동시설",
        "fitness_name": "비기닝PT스튜디오",
        "distance": 769.7175569871879,
        "walking_time": "약 12분"
      },
      {
        "fitness_lat": 37.47361934,
        "fitness_lon": 126.8945564,
        "fitness_type": "운동시설",
        "fitness_name": "그린헬스",
        "distance": 770.1134411942642,
        "walking_time": "약 12분"
      }
    ],
    "gas_station": [
      {
        "gas_station_lat": 37.47682775,
        "gas_station_lon": 126.8991106,
        "gas_station_type": "주유소",
        "gas_station_name": "㈜화동유업",
        "distance": 372.0203087991401,
        "walking_time": "약 6분"
      },
      {
        "gas_station_lat": 37.47315113,
        "gas_station_lon": 126.8978961,
        "gas_station_type": "주유소",
        "gas_station_name": "SK에너지㈜ 이가주유소",
        "distance": 516.4495417472353,
        "walking_time": "약 8분"
      },
      {
        "gas_station_lat": 37.46984519,
        "gas_station_lon": 126.9024301,
        "gas_station_type": "주유소",
        "gas_station_name": "남서울(경복에너지)",
        "distance": 627.5063318844149,
        "walking_time": "약 10분"
      },
      {
        "gas_station_lat": 37.48020575,
        "gas_station_lon": 126.9075034,
        "gas_station_type": "주유소",
        "gas_station_name": "현대오일뱅크(주)직영 금천제일주유소",
        "distance": 661.3560248845812,
        "walking_time": "약 10분"
      },
      {
        "gas_station_lat": 37.48094907,
        "gas_station_lon": 126.899232,
        "gas_station_type": "주유소",
        "gas_station_name": "현대오일뱅크(주)직영 구로셀프주유소",
        "distance": 692.3519818916271,
        "walking_time": "약 11분"
      },
      {
        "gas_station_lat": 37.48153123,
        "gas_station_lon": 126.8997835,
        "gas_station_type": "주유소",
        "gas_station_name": "JHC에너지",
        "distance": 729.8549358015202,
        "walking_time": "약 11분"
      },
      {
        "gas_station_lat": 37.47786965,
        "gas_station_lon": 126.9143629,
        "gas_station_type": "주유소",
        "gas_station_name": "문성골주유소",
        "distance": 1040.5216087421409,
        "walking_time": "약 16분"
      },
      {
        "gas_station_lat": 37.48708383,
        "gas_station_lon": 126.9056392,
        "gas_station_type": "주유소",
        "gas_station_name": "현대오일뱅크㈜직영신대방셀프주유소",
        "distance": 1312.5069992843798,
        "walking_time": "약 20분"
      },
      {
        "gas_station_lat": 37.47341197,
        "gas_station_lon": 126.9188013,
        "gas_station_type": "주유소",
        "gas_station_name": "난곡주유소",
        "distance": 1416.1643452142307,
        "walking_time": "약 22분"
      },
      {
        "gas_station_lat": 37.48302235,
        "gas_station_lon": 126.9188525,
        "gas_station_type": "주유소",
        "gas_station_name": "씨제이대한통운(주)",
        "distance": 1634.071644195493,
        "walking_time": "약 25분"
      }
    ],
    "hospital": [
      {
        "hospital_lat": 37.47781523,
        "hospital_lon": 126.9035014,
        "hospital_type": "병원",
        "hospital_name": "금천수의원",
        "distance": 264.7652302120117,
        "walking_time": "약 4분"
      },
      {
        "hospital_lat": 37.47781523,
        "hospital_lon": 126.9035014,
        "hospital_type": "병원",
        "hospital_name": "금천수한의원",
        "distance": 264.7652302120117,
        "walking_time": "약 4분"
      },
      {
        "hospital_lat": 37.47262119,
        "hospital_lon": 126.9033958,
        "hospital_type": "병원",
        "hospital_name": "삼성정형외과의원",
        "distance": 319.3223493867837,
        "walking_time": "약 5분"
      },
      {
        "hospital_lat": 37.47256249,
        "hospital_lon": 126.9030185,
        "hospital_type": "병원",
        "hospital_name": "남문한의원",
        "distance": 323.61279053656176,
        "walking_time": "약 5분"
      },
      {
        "hospital_lat": 37.47252502,
        "hospital_lon": 126.9025931,
        "hospital_type": "병원",
        "hospital_name": "영일의원",
        "distance": 329.3839301321465,
        "walking_time": "약 5분"
      },
      {
        "hospital_lat": 37.47284027,
        "hospital_lon": 126.9011615,
        "hospital_type": "병원",
        "hospital_name": "바른이웃치과의원",
        "distance": 333.163395572998,
        "walking_time": "약 5분"
      },
      {
        "hospital_lat": 37.47259943,
        "hospital_lon": 126.9018192,
        "hospital_type": "병원",
        "hospital_name": "원치과의원",
        "distance": 335.0904983805784,
        "walking_time": "약 6분"
      },
      {
        "hospital_lat": 37.47586215,
        "hospital_lon": 126.8990107,
        "hospital_type": "병원",
        "hospital_name": "김세진치과의원",
        "distance": 351.62914807708734,
        "walking_time": "약 6분"
      },
      {
        "hospital_lat": 37.47227954,
        "hospital_lon": 126.9029753,
        "hospital_type": "병원",
        "hospital_name": "이사랑치과의원",
        "distance": 355.0421171274212,
        "walking_time": "약 6분"
      },
      {
        "hospital_lat": 37.47230672,
        "hospital_lon": 126.9023888,
        "hospital_type": "병원",
        "hospital_name": "남문내과의원",
        "distance": 355.6721803289152,
        "walking_time": "약 6분"
      }
    ],
    "music_room": [
      {
        "music_room_lat": 37.47510006,
        "music_room_lon": 126.9036303,
        "music_room_type": "노래방",
        "music_room_name": "얼씨구",
        "distance": 71.84670782229986,
        "walking_time": "약 2분"
      },
      {
        "music_room_lat": 37.47608096,
        "music_room_lon": 126.9039317,
        "music_room_type": "노래방",
        "music_room_name": "우정",
        "distance": 108.87987841924148,
        "walking_time": "약 2분"
      },
      {
        "music_room_lat": 37.47400566,
        "music_room_lon": 126.9031559,
        "music_room_type": "노래방",
        "music_room_name": "OK",
        "distance": 163.97284306893715,
        "walking_time": "약 3분"
      },
      {
        "music_room_lat": 37.47788223,
        "music_room_lon": 126.9039017,
        "music_room_type": "노래방",
        "music_room_name": "세기",
        "distance": 280.4095287337068,
        "walking_time": "약 5분"
      },
      {
        "music_room_lat": 37.47798456,
        "music_room_lon": 126.9035342,
        "music_room_type": "노래방",
        "music_room_name": "와와",
        "distance": 283.8084485559347,
        "walking_time": "약 5분"
      },
      {
        "music_room_lat": 37.47793447,
        "music_room_lon": 126.9040905,
        "music_room_type": "노래방",
        "music_room_name": "팡팡",
        "distance": 291.2181850913121,
        "walking_time": "약 5분"
      },
      {
        "music_room_lat": 37.4781433,
        "music_room_lon": 126.9039503,
        "music_room_type": "노래방",
        "music_room_name": "핑크",
        "distance": 309.4455738197157,
        "walking_time": "약 5분"
      },
      {
        "music_room_lat": 37.47256249,
        "music_room_lon": 126.9030185,
        "music_room_type": "노래방",
        "music_room_name": "올인",
        "distance": 323.61279053656176,
        "walking_time": "약 5분"
      },
      {
        "music_room_lat": 37.47842602,
        "music_room_lon": 126.9035997,
        "music_room_type": "노래방",
        "music_room_name": "대박",
        "distance": 333.1580899531344,
        "walking_time": "약 5분"
      },
      {
        "music_room_lat": 37.47253202,
        "music_room_lon": 126.9022349,
        "music_room_type": "노래방",
        "music_room_name": "네박자",
        "distance": 333.2540046682801,
        "walking_time": "약 5분"
      }
    ],
    "outdoor_sports": [
      {
        "outdoor_sports_lat": 37.4854463023684,
        "outdoor_sports_lon": 126.900861931696,
        "outdoor_sports_type": "야외 체육시설",
        "outdoor_sports_name": "구로디지털단지역 하부",
        "distance": 1124.4551061033767,
        "walking_time": "약 17분"
      }
    ],
    "park": [
      {
        "park_lat": 37.4734274,
        "park_lon": 126.9090028,
        "park_type": "공원",
        "park_name": "만수천공원(관악산)",
        "distance": 579.3167893330688,
        "walking_time": "약 9분"
      },
      {
        "park_lat": 37.469625,
        "park_lon": 126.9079509,
        "park_type": "공원",
        "park_name": "감로천생태공원(관악산)",
        "distance": 785.0974167845221,
        "walking_time": "약 12분"
      },
      {
        "park_lat": 37.468164,
        "park_lon": 126.908681,
        "park_type": "공원",
        "park_name": "금천체육공원(관악산)",
        "distance": 956.4972744033936,
        "walking_time": "약 15분"
      }
    ],
    "park_station": [
      {
        "park_station_lat": 37.47539529,
        "park_station_lon": 126.9028284,
        "park_station_type": "주차장",
        "park_station_name": "공유) 06-20구역",
        "distance": 14.799208412492543,
        "walking_time": "약 1분"
      },
      {
        "park_station_lat": 37.47501001,
        "park_station_lon": 126.9028206,
        "park_station_type": "주차장",
        "park_station_name": "공유) 06-01구역",
        "distance": 52.98175637026358,
        "walking_time": "약 1분"
      },
      {
        "park_station_lat": 37.47580853,
        "park_station_lon": 126.9018902,
        "park_station_type": "주차장",
        "park_station_name": "공유) 06-13구역",
        "distance": 101.94101947100285,
        "walking_time": "약 2분"
      },
      {
        "park_station_lat": 37.47643118,
        "park_station_lon": 126.902717,
        "park_station_type": "주차장",
        "park_station_name": "공유) 06-19구역",
        "distance": 108.82362072227129,
        "walking_time": "약 2분"
      },
      {
        "park_station_lat": 37.47442633,
        "park_station_lon": 126.9024768,
        "park_station_type": "주차장",
        "park_station_name": "공유) 06-09구역",
        "distance": 124.05015254726337,
        "walking_time": "약 2분"
      },
      {
        "park_station_lat": 37.47534044,
        "park_station_lon": 126.9043946,
        "park_station_type": "주차장",
        "park_station_name": "공유) 04-18구역",
        "distance": 127.00810855408092,
        "walking_time": "약 2분"
      },
      {
        "park_station_lat": 37.4763669,
        "park_station_lon": 126.9019022,
        "park_station_type": "주차장",
        "park_station_name": "다목적 공영주차장",
        "distance": 136.69992547139577,
        "walking_time": "약 3분"
      },
      {
        "park_station_lat": 37.47676506,
        "park_station_lon": 126.904108,
        "park_station_type": "주차장",
        "park_station_name": "공유) 04-10구역",
        "distance": 175.5869216342508,
        "walking_time": "약 3분"
      },
      {
        "park_station_lat": 37.47376384,
        "park_station_lon": 126.9023963,
        "park_station_type": "주차장",
        "park_station_name": "공유) 06-05구역",
        "distance": 196.51075121830127,
        "walking_time": "약 3분"
      },
      {
        "park_station_lat": 37.47596981,
        "park_station_lon": 126.90543,
        "park_station_type": "주차장",
        "park_station_name": "공유) 04-17구역",
        "distance": 224.44408860352883,
        "walking_time": "약 4분"
      }
    ],
    "pc_room": [
      {
        "pc_room_lat": 37.4756654496389,
        "pc_room_lon": 126.903311595103,
        "pc_room_type": "PC방",
        "pc_room_name": "킹pc",
        "distance": 37.36031493768241,
        "walking_time": "약 1분"
      },
      {
        "pc_room_lat": 37.4758939323532,
        "pc_room_lon": 126.903736720115,
        "pc_room_type": "PC방",
        "pc_room_name": "콩PC",
        "distance": 82.66618909486277,
        "walking_time": "약 2분"
      },
      {
        "pc_room_lat": 37.4735778373118,
        "pc_room_lon": 126.903675704472,
        "pc_room_type": "PC방",
        "pc_room_name": "럭키피시",
        "distance": 219.8140884509478,
        "walking_time": "약 4분"
      },
      {
        "pc_room_lat": 37.4732378061678,
        "pc_room_lon": 126.903467112788,
        "pc_room_type": "PC방",
        "pc_room_name": "짱PC",
        "distance": 252.4063742083516,
        "walking_time": "약 4분"
      },
      {
        "pc_room_lat": 37.4778152328687,
        "pc_room_lon": 126.903501360033,
        "pc_room_type": "PC방",
        "pc_room_name": "CASTLE PC",
        "distance": 264.76491355387407,
        "walking_time": "약 4분"
      },
      {
        "pc_room_lat": 37.4729178477264,
        "pc_room_lon": 126.903455088918,
        "pc_room_type": "PC방",
        "pc_room_name": "백억PC",
        "distance": 287.33786420751915,
        "walking_time": "약 5분"
      },
      {
        "pc_room_lat": 37.4781432957275,
        "pc_room_lon": 126.90395033831,
        "pc_room_type": "PC방",
        "pc_room_name": "노란쵸코PC",
        "distance": 309.44606777792586,
        "walking_time": "약 5분"
      },
      {
        "pc_room_lat": 37.4725624922826,
        "pc_room_lon": 126.90301850154,
        "pc_room_type": "PC방",
        "pc_room_name": "아이러브PC방",
        "distance": 323.6125387333035,
        "walking_time": "약 5분"
      },
      {
        "pc_room_lat": 37.4720694651831,
        "pc_room_lon": 126.903355228717,
        "pc_room_type": "PC방",
        "pc_room_name": "로또PC",
        "distance": 379.9639634128726,
        "walking_time": "약 6분"
      },
      {
        "pc_room_lat": 37.4785459548905,
        "pc_room_lon": 126.900571559567,
        "pc_room_type": "PC방",
        "pc_room_name": "STAR PC",
        "distance": 401.7501055336143,
        "walking_time": "약 6분"
      }
    ],
    "police_office": [
      {
        "police_office_lat": 37.46953537,
        "police_office_lon": 126.9034616,
        "police_office_type": "경찰소",
        "police_office_name": "문성지구대",
        "distance": 661.6317409956165,
        "walking_time": "약 10분"
      },
      {
        "police_office_lat": 37.47920893,
        "police_office_lon": 126.8926603,
        "police_office_type": "경찰소",
        "police_office_name": "가리봉파출소",
        "distance": 999.743668850206,
        "walking_time": "약 15분"
      },
      {
        "police_office_lat": 37.47992421,
        "police_office_lon": 126.9156105,
        "police_office_type": "경찰소",
        "police_office_name": "미성파출소",
        "distance": 1220.7454763616,
        "walking_time": "약 19분"
      },
      {
        "police_office_lat": 37.48664583,
        "police_office_lon": 126.9059471,
        "police_office_type": "경찰소",
        "police_office_name": "신대방지구대",
        "distance": 1269.977656375176,
        "walking_time": "약 19분"
      },
      {
        "police_office_lat": 37.46464482,
        "police_office_lon": 126.8947575,
        "police_office_type": "경찰소",
        "police_office_name": "독산파출소",
        "distance": 1405.072752426801,
        "walking_time": "약 21분"
      },
      {
        "police_office_lat": 37.48666065,
        "police_office_lon": 126.8913999,
        "police_office_type": "경찰소",
        "police_office_name": "구로3파출소",
        "distance": 1609.0711927145246,
        "walking_time": "약 25분"
      },
      {
        "police_office_lat": 37.4872985,
        "police_office_lon": 126.9142051,
        "police_office_type": "경찰소",
        "police_office_name": "신사지구대",
        "distance": 1647.0871119995536,
        "walking_time": "약 25분"
      },
      {
        "police_office_lat": 37.48925211,
        "police_office_lon": 126.8907002,
        "police_office_type": "경찰소",
        "police_office_name": "구일지구대",
        "distance": 1875.873580341469,
        "walking_time": "약 28분"
      },
      {
        "police_office_lat": 37.46111825,
        "police_office_lon": 126.91925,
        "police_office_type": "경찰소",
        "police_office_name": "난우파출소",
        "distance": 2147.8369994857385,
        "walking_time": "약 33분"
      }
    ],
    "post_office": [
      {
        "post_office_lat": 37.47019149,
        "post_office_lon": 126.8985251,
        "post_office_type": "우체국",
        "post_office_name": "서울금천우체국",
        "distance": 705.9385971475094,
        "walking_time": "약 11분"
      },
      {
        "post_office_lat": 37.47844469,
        "post_office_lon": 126.8937442,
        "post_office_type": "우체국",
        "post_office_name": "서울가산동우체국",
        "distance": 878.2380426300018,
        "walking_time": "약 14분"
      },
      {
        "post_office_lat": 37.48329888,
        "post_office_lon": 126.8984697,
        "post_office_type": "우체국",
        "post_office_name": "서울구로디지털단지우체국",
        "distance": 956.3938811099496,
        "walking_time": "약 15분"
      },
      {
        "post_office_lat": 37.47854878,
        "post_office_lon": 126.9149155,
        "post_office_type": "우체국",
        "post_office_name": "서울난곡우체국",
        "distance": 1108.6508835956322,
        "walking_time": "약 17분"
      },
      {
        "post_office_lat": 37.48501945,
        "post_office_lon": 126.9155289,
        "post_office_type": "우체국",
        "post_office_name": "서울관악신사동우편취급국",
        "distance": 1534.9335248509135,
        "walking_time": "약 23분"
      },
      {
        "post_office_lat": 37.48967148,
        "post_office_lon": 126.9045668,
        "post_office_type": "우체국",
        "post_office_name": "서울대림동우체국",
        "distance": 1585.168224081484,
        "walking_time": "약 24분"
      }
    ],
    "public_health_center": [
      {
        "public_health_center_lat": 37.48199214,
        "public_health_center_lon": 126.8923489,
        "public_health_center_type": "보건소",
        "public_health_center_name": "G밸리보건지소",
        "distance": 1184.5342267074473,
        "walking_time": "약 18분"
      }
    ],
    "school": [
      {
        "school_lat": 37.4748818804257,
        "school_lon": 126.899471333222,
        "school_type": "초등학교",
        "school_name": "서울문성초등학교",
        "distance": 315.22000671569305,
        "walking_time": "약 5분"
      },
      {
        "school_lat": 37.4754682009333,
        "school_lon": 126.908493841535,
        "school_type": "중학교",
        "school_name": "문성중학교",
        "distance": 487.8974961037813,
        "walking_time": "약 8분"
      },
      {
        "school_lat": 37.4792685652716,
        "school_lon": 126.907219449459,
        "school_type": "고등학교",
        "school_name": "금천문화예술정보학교",
        "distance": 564.9046224186089,
        "walking_time": "약 9분"
      },
      {
        "school_lat": 37.4719826762833,
        "school_lon": 126.908186532287,
        "school_type": "초등학교",
        "school_name": "서울정심초등학교",
        "distance": 602.4201753863118,
        "walking_time": "약 9분"
      },
      {
        "school_lat": 37.4758806998687,
        "school_lon": 126.909922783649,
        "school_type": "초등학교",
        "school_name": "서울영남초등학교",
        "distance": 615.669205102942,
        "walking_time": "약 10분"
      },
      {
        "school_lat": 37.4781477195501,
        "school_lon": 126.896184019972,
        "school_type": "초등학교",
        "school_name": "서울가산초등학교",
        "distance": 668.2443874905323,
        "walking_time": "약 10분"
      },
      {
        "school_lat": 37.4745944107703,
        "school_lon": 126.895368861106,
        "school_type": "중학교",
        "school_name": "세일중학교",
        "distance": 677.4051878286839,
        "walking_time": "약 11분"
      },
      {
        "school_lat": 37.4762187185354,
        "school_lon": 126.910939635513,
        "school_type": "고등학교",
        "school_name": "독산고등학교",
        "distance": 708.59978838911,
        "walking_time": "약 11분"
      },
      {
        "school_lat": 37.4780455835119,
        "school_lon": 126.910791624653,
        "school_type": "중학교",
        "school_name": "난곡중학교",
        "distance": 747.5731810783541,
        "walking_time": "약 12분"
      },
      {
        "school_lat": 37.4753828116217,
        "school_lon": 126.912088901502,
        "school_type": "중학교",
        "school_name": "미성중학교",
        "distance": 805.2085649660501,
        "walking_time": "약 13분"
      }
    ],
    "subway": [
      {
        "subway_lat": 37.4853149237865,
        "subway_lon": 126.901494378412,
        "subway_type": "지하철",
        "subway_name": "2호선-구로디지털단지역",
        "distance": 1102.09409823668,
        "walking_time": "약 17분"
      },
      {
        "subway_lat": 37.4875759745635,
        "subway_lon": 126.913175585996,
        "subway_type": "지하철",
        "subway_name": "2호선-신대방역",
        "distance": 1619.5812184834033,
        "walking_time": "약 25분"
      }
    ],
    "supermarket": [
      {
        "supermarket_lat": 37.47806807,
        "supermarket_lon": 126.9014441,
        "supermarket_type": "마트",
        "supermarket_name": "푸른터시장",
        "distance": 318.293406182131,
        "walking_time": "약 5분"
      },
      {
        "supermarket_lat": 37.47544481,
        "supermarket_lon": 126.8936809,
        "supermarket_type": "마트",
        "supermarket_name": "홈플러스(주)익스프레스 가산점",
        "distance": 819.2890987200492,
        "walking_time": "약 13분"
      },
      {
        "supermarket_lat": 37.47068103,
        "supermarket_lon": 126.8956481,
        "supermarket_type": "마트",
        "supermarket_name": "롯데쇼핑(주) 롯데마트맥스 금천점",
        "distance": 837.137522301109,
        "walking_time": "약 13분"
      },
      {
        "supermarket_lat": 37.46935918,
        "supermarket_lon": 126.8970019,
        "supermarket_type": "마트",
        "supermarket_name": "시티렉스",
        "distance": 859.6605700132277,
        "walking_time": "약 13분"
      },
      {
        "supermarket_lat": 37.46866385,
        "supermarket_lon": 126.8968853,
        "supermarket_type": "마트",
        "supermarket_name": "홈플러스(주) 금천점",
        "distance": 927.926997545797,
        "walking_time": "약 14분"
      },
      {
        "supermarket_lat": 37.46866385,
        "supermarket_lon": 126.8968853,
        "supermarket_type": "마트",
        "supermarket_name": "삼성테스코(주)홈플러스 금천점",
        "distance": 927.926997545797,
        "walking_time": "약 14분"
      },
      {
        "supermarket_lat": 37.46866385,
        "supermarket_lon": 126.8968853,
        "supermarket_type": "마트",
        "supermarket_name": "삼성테스코(주)홈플러스 금천점",
        "distance": 927.926997545797,
        "walking_time": "약 14분"
      },
      {
        "supermarket_lat": 37.48439923,
        "supermarket_lon": 126.8978858,
        "supermarket_type": "마트",
        "supermarket_name": "(주)이마트 구로점",
        "distance": 1089.102578665369,
        "walking_time": "약 17분"
      },
      {
        "supermarket_lat": 37.46682635,
        "supermarket_lon": 126.8962825,
        "supermarket_type": "마트",
        "supermarket_name": "유창상가",
        "distance": 1127.871884073718,
        "walking_time": "약 17분"
      },
      {
        "supermarket_lat": 37.48314523,
        "supermarket_lon": 126.9114212,
        "supermarket_type": "마트",
        "supermarket_name": "신림중앙시장",
        "distance": 1133.4418776266295,
        "walking_time": "약 17분"
      }
    ],
    "tax_office": [
      {
        "tax_office_lat": 37.47801956,
        "tax_office_lon": 126.8997992,
        "tax_office_type": "세무서",
        "tax_office_name": "금천세무서",
        "distance": 397.816343199552,
        "walking_time": "약 6분"
      }
    ],
    "theater": [
      {
        "theater_lat": 37.4693591753013,
        "theater_lon": 126.897001948519,
        "theater_type": "영화관",
        "theater_name": "롯데시네마 독산",
        "distance": 859.6583620881685,
        "walking_time": "약 13분"
      },
      {
        "theater_lat": 37.4864917793931,
        "theater_lon": 126.905526238207,
        "theater_type": "영화관",
        "theater_name": "롯데시네마 신대방",
        "distance": 1245.9564489359434,
        "walking_time": "약 19분"
      }
    ]
  }
}