{
  "클러스터_위도": 37.606312000011535,
  "클러스터_경도": 126.93183599987044,
  "클러스터_level": 3.0,
  "facilities": {
    "bus": [
      {
        "bus_lat": 37.60602699,
        "bus_lon": 126.9308933,
        "bus_type": "버스정류장",
        "bus_name": "삼거리",
        "distance": 88.88536480019876,
        "walking_time": "약 2분"
      },
      {
        "bus_lat": 37.6072139,
        "bus_lon": 126.9321452,
        "bus_type": "버스정류장",
        "bus_name": "은평여성인력개발센터",
        "distance": 103.91973193564884,
        "walking_time": "약 2분"
      },
      {
        "bus_lat": 37.60643385,
        "bus_lon": 126.9332873,
        "bus_type": "버스정류장",
        "bus_name": "서울혁신파크",
        "distance": 128.5624986446676,
        "walking_time": "약 2분"
      },
      {
        "bus_lat": 37.60609311,
        "bus_lon": 126.9338054,
        "bus_type": "버스정류장",
        "bus_name": "한전서대문은평.북한산푸르지오",
        "distance": 175.1859471028091,
        "walking_time": "약 3분"
      },
      {
        "bus_lat": 37.60555732,
        "bus_lon": 126.9343296,
        "bus_type": "버스정류장",
        "bus_name": "한전서대문은평.북한산푸르지오",
        "distance": 235.14838336836604,
        "walking_time": "약 4분"
      },
      {
        "bus_lat": 37.60865068,
        "bus_lon": 126.9316258,
        "bus_type": "버스정류장",
        "bus_name": "불광역3호선.서울혁신파크",
        "distance": 260.7077352509452,
        "walking_time": "약 4분"
      },
      {
        "bus_lat": 37.60520223,
        "bus_lon": 126.9289335,
        "bus_type": "버스정류장",
        "bus_name": "현대아파트",
        "distance": 283.9071469726076,
        "walking_time": "약 5분"
      },
      {
        "bus_lat": 37.60909599,
        "bus_lon": 126.9322904,
        "bus_type": "버스정류장",
        "bus_name": "불광역.불광1동주민센터",
        "distance": 312.14270366954025,
        "walking_time": "약 5분"
      },
      {
        "bus_lat": 37.60906481,
        "bus_lon": 126.9310648,
        "bus_type": "버스정류장",
        "bus_name": "불광역3호선.서울혁신파크",
        "distance": 313.5464946222386,
        "walking_time": "약 5분"
      },
      {
        "bus_lat": 37.60854527,
        "bus_lon": 126.9289519,
        "bus_type": "버스정류장",
        "bus_name": "양광교회",
        "distance": 355.26511340987287,
        "walking_time": "약 6분"
      }
    ],
    "community_center": [
      {
        "community_center_lat": 37.61035273,
        "community_center_lon": 126.9320881,
        "community_center_type": "주민센터",
        "community_center_name": "불광1동 자치회관",
        "distance": 449.8571371884775,
        "walking_time": "약 7분"
      },
      {
        "community_center_lat": 37.60245742,
        "community_center_lon": 126.9288229,
        "community_center_type": "주민센터",
        "community_center_name": "녹변동 자치회관",
        "distance": 504.1444494395302,
        "walking_time": "약 8분"
      },
      {
        "community_center_lat": 37.6006967,
        "community_center_lon": 126.9267462,
        "community_center_type": "주민센터",
        "community_center_name": "응암1동 자치회관",
        "distance": 768.7091983626674,
        "walking_time": "약 12분"
      },
      {
        "community_center_lat": 37.61417599,
        "community_center_lon": 126.9208071,
        "community_center_type": "주민센터",
        "community_center_name": "대조동 자치회관",
        "distance": 1307.0745260133292,
        "walking_time": "약 20분"
      },
      {
        "community_center_lat": 37.59458158,
        "community_center_lon": 126.9230685,
        "community_center_type": "주민센터",
        "community_center_name": "응암2동 자치회관",
        "distance": 1515.9039121121702,
        "walking_time": "약 23분"
      },
      {
        "community_center_lat": 37.5932349,
        "community_center_lon": 126.943904,
        "community_center_type": "주민센터",
        "community_center_name": "홍은1동 자치회관",
        "distance": 1801.3253557972885,
        "walking_time": "약 27분"
      },
      {
        "community_center_lat": 37.59376657,
        "community_center_lon": 126.9496911,
        "community_center_type": "주민센터",
        "community_center_name": "홍제3동 자치회관",
        "distance": 2102.462139906417,
        "walking_time": "약 32분"
      }
    ],
    "convenience_store": [
      {
        "convenience_store_lat": 37.6073537,
        "convenience_store_lon": 126.9324072,
        "convenience_store_type": "편의점",
        "convenience_store_name": "GS25 녹번점",
        "distance": 126.28866225372016,
        "walking_time": "약 2분"
      },
      {
        "convenience_store_lat": 37.60573675,
        "convenience_store_lon": 126.9297158,
        "convenience_store_type": "편의점",
        "convenience_store_name": "세븐일레븐 녹번현대점",
        "distance": 197.42111343822145,
        "walking_time": "약 3분"
      },
      {
        "convenience_store_lat": 37.60472233,
        "convenience_store_lon": 126.9337838,
        "convenience_store_type": "편의점",
        "convenience_store_name": "미니스톱 녹번점",
        "distance": 246.3471155972769,
        "walking_time": "약 4분"
      },
      {
        "convenience_store_lat": 37.60764935,
        "convenience_store_lon": 126.9295289,
        "convenience_store_type": "편의점",
        "convenience_store_name": "GS25 녹번중앙점",
        "distance": 251.8280265275305,
        "walking_time": "약 4분"
      },
      {
        "convenience_store_lat": 37.60386128,
        "convenience_store_lon": 126.9346375,
        "convenience_store_type": "편의점",
        "convenience_store_name": "GS25 녹번역점",
        "distance": 367.6497945410338,
        "walking_time": "약 6분"
      },
      {
        "convenience_store_lat": 37.60590087,
        "convenience_store_lon": 126.9361429,
        "convenience_store_type": "편의점",
        "convenience_store_name": "GS25 녹번푸르지오점",
        "distance": 382.1449839767447,
        "walking_time": "약 6분"
      },
      {
        "convenience_store_lat": 37.60879034,
        "convenience_store_lon": 126.9287384,
        "convenience_store_type": "편의점",
        "convenience_store_name": "GS25 대조초롱점",
        "distance": 387.8141409291575,
        "walking_time": "약 6분"
      },
      {
        "convenience_store_lat": 37.60281251,
        "convenience_store_lon": 126.9304957,
        "convenience_store_type": "편의점",
        "convenience_store_name": "GS25 녹번가로길점",
        "distance": 406.6442064967943,
        "walking_time": "약 7분"
      },
      {
        "convenience_store_lat": 37.60963869,
        "convenience_store_lon": 126.9296059,
        "convenience_store_type": "편의점",
        "convenience_store_name": "CU 불광NC점",
        "distance": 418.8386796014205,
        "walking_time": "약 7분"
      },
      {
        "convenience_store_lat": 37.60544326,
        "convenience_store_lon": 126.9271293,
        "convenience_store_type": "편의점",
        "convenience_store_name": "CU 녹번초교점",
        "distance": 425.7251630211267,
        "walking_time": "약 7분"
      }
    ],
    "daycare": [
      {
        "daycare_lat": 37.60636781,
        "daycare_lon": 126.9318246,
        "daycare_type": "어린이집",
        "daycare_name": "선화어린이집",
        "distance": 6.28651501990607,
        "walking_time": "약 1분"
      },
      {
        "daycare_lat": 37.60551497,
        "daycare_lon": 126.9297847,
        "daycare_type": "어린이집",
        "daycare_name": "동화속의어린이집",
        "distance": 201.2655459528203,
        "walking_time": "약 4분"
      },
      {
        "daycare_lat": 37.60787429,
        "daycare_lon": 126.9297788,
        "daycare_type": "어린이집",
        "daycare_name": "예쁜꿈어린이집",
        "distance": 251.03498817639704,
        "walking_time": "약 4분"
      },
      {
        "daycare_lat": 37.60699443,
        "daycare_lon": 126.9352066051242,
        "daycare_type": "어린이집",
        "daycare_name": "구립 녹번어린이집",
        "distance": 306.46221713715835,
        "walking_time": "약 5분"
      },
      {
        "daycare_lat": 37.60603144,
        "daycare_lon": 126.928117,
        "daycare_type": "어린이집",
        "daycare_name": "큰나무어린이집",
        "distance": 329.0934699232941,
        "walking_time": "약 5분"
      },
      {
        "daycare_lat": 37.60633425126055,
        "daycare_lon": 126.92786855241808,
        "daycare_type": "어린이집",
        "daycare_name": "녹번푸름숲어린이집",
        "distance": 349.5055717229331,
        "walking_time": "약 6분"
      },
      {
        "daycare_lat": 37.60321851,
        "daycare_lon": 126.9306801,
        "daycare_type": "어린이집",
        "daycare_name": "구립 꽃가람어린이집",
        "distance": 358.73552036019635,
        "walking_time": "약 6분"
      },
      {
        "daycare_lat": 37.60491629,
        "daycare_lon": 126.9280525,
        "daycare_type": "어린이집",
        "daycare_name": "하나연어린이집",
        "distance": 367.6572853254255,
        "walking_time": "약 6분"
      },
      {
        "daycare_lat": 37.60302714294475,
        "daycare_lon": 126.9305580954847,
        "daycare_type": "어린이집",
        "daycare_name": "녹번햇님어린이집",
        "distance": 382.2139171569592,
        "walking_time": "약 6분"
      },
      {
        "daycare_lat": 37.60984284099562,
        "daycare_lon": 126.93267513409054,
        "daycare_type": "어린이집",
        "daycare_name": "한국환경산업기술원 초록꿈나무 직장어린이집",
        "distance": 399.5094722915729,
        "walking_time": "약 6분"
      }
    ],
    "education": [
      {
        "education_lat": 37.60369969,
        "education_lon": 126.9279017,
        "education_type": "문화예술회관",
        "education_name": "은평문화예술회관",
        "distance": 452.21214399722186,
        "walking_time": "약 7분"
      },
      {
        "education_lat": 37.6139965,
        "education_lon": 126.9264997,
        "education_type": "박물관/기념관",
        "education_name": "이호철북콘서트홀",
        "distance": 975.235658326716,
        "walking_time": "약 15분"
      },
      {
        "education_lat": 37.6139965,
        "education_lon": 126.9264997,
        "education_type": "박물관/기념관",
        "education_name": "이호철북콘서트홀",
        "distance": 975.235658326716,
        "walking_time": "약 15분"
      },
      {
        "education_lat": 37.61878209,
        "education_lon": 126.9325207,
        "education_type": "박물관/기념관",
        "education_name": "다문화박물관",
        "distance": 1387.9217406091998,
        "walking_time": "약 21분"
      },
      {
        "education_lat": 37.6190451,
        "education_lon": 126.9283998,
        "education_type": "도서관",
        "education_name": "은평구립도서관",
        "distance": 1447.8464530250817,
        "walking_time": "약 22분"
      }
    ],
    "electric_gas_station": [
      {
        "electric_gas_station_lat": 37.60082547,
        "electric_gas_station_lon": 126.9205135,
        "electric_gas_station_type": "전기차 충전소",
        "electric_gas_station_name": "이마트 은평점",
        "distance": 1169.227943605624,
        "walking_time": "약 18분"
      }
    ],
    "fitness": [
      {
        "fitness_lat": 37.60402071,
        "fitness_lon": 126.9345424,
        "fitness_type": "운동시설",
        "fitness_name": "제이에이치짐",
        "distance": 348.9322912697822,
        "walking_time": "약 6분"
      },
      {
        "fitness_lat": 37.60319158,
        "fitness_lon": 126.9346514,
        "fitness_type": "운동시설",
        "fitness_name": "짐바코드",
        "distance": 426.5020092449698,
        "walking_time": "약 7분"
      },
      {
        "fitness_lat": 37.60200828,
        "fitness_lon": 126.9325085,
        "fitness_type": "운동시설",
        "fitness_name": "Timeless PT Studio",
        "distance": 482.20492314948746,
        "walking_time": "약 8분"
      },
      {
        "fitness_lat": 37.61025799,
        "fitness_lon": 126.9293986,
        "fitness_type": "운동시설",
        "fitness_name": "불광역점 스포애니 ㈜ 케이디헬스케어",
        "distance": 488.48953388932927,
        "walking_time": "약 8분"
      },
      {
        "fitness_lat": 37.60844389,
        "fitness_lon": 126.9263669,
        "fitness_type": "운동시설",
        "fitness_name": "제이제이 피트니스 녹번점",
        "distance": 536.935460228692,
        "walking_time": "약 9분"
      },
      {
        "fitness_lat": 37.60219632,
        "fitness_lon": 126.9279458,
        "fitness_type": "운동시설",
        "fitness_name": "피티스테이션 은평구청점",
        "distance": 571.7352596173506,
        "walking_time": "약 9분"
      },
      {
        "fitness_lat": 37.61071315,
        "fitness_lon": 126.9284564,
        "fitness_type": "운동시설",
        "fitness_name": "피티스테이션",
        "distance": 572.8226902699296,
        "walking_time": "약 9분"
      },
      {
        "fitness_lat": 37.60124132,
        "fitness_lon": 126.9335524,
        "fitness_type": "운동시설",
        "fitness_name": "퍼센트짐",
        "distance": 583.756400387366,
        "walking_time": "약 9분"
      },
      {
        "fitness_lat": 37.60904041,
        "fitness_lon": 126.9261743,
        "fitness_type": "운동시설",
        "fitness_name": "짐부티킹",
        "distance": 583.7641375844489,
        "walking_time": "약 9분"
      },
      {
        "fitness_lat": 37.61155138,
        "fitness_lon": 126.9309524,
        "fitness_type": "운동시설",
        "fitness_name": "태민PT GYM",
        "distance": 587.7688390718064,
        "walking_time": "약 9분"
      }
    ],
    "gas_station": [
      {
        "gas_station_lat": 37.60400332,
        "gas_station_lon": 126.9352075,
        "gas_station_type": "주유소",
        "gas_station_name": "대성산업(주)대성주유소",
        "distance": 392.57239770516895,
        "walking_time": "약 6분"
      },
      {
        "gas_station_lat": 37.60439609,
        "gas_station_lon": 126.924214,
        "gas_station_type": "주유소",
        "gas_station_name": "코끼리주유소",
        "distance": 704.4262142594445,
        "walking_time": "약 11분"
      },
      {
        "gas_station_lat": 37.59544198,
        "gas_station_lon": 126.9484774,
        "gas_station_type": "주유소",
        "gas_station_name": "㈜우남에너지문화사랑주유소",
        "distance": 1900.0750852952503,
        "walking_time": "약 29분"
      }
    ],
    "hospital": [
      {
        "hospital_lat": 37.60724941,
        "hospital_lon": 126.9324779,
        "hospital_type": "병원",
        "hospital_name": "구세산부인과의원",
        "distance": 118.58482116152976,
        "walking_time": "약 2분"
      },
      {
        "hospital_lat": 37.60615018,
        "hospital_lon": 126.9333939,
        "hospital_type": "병원",
        "hospital_name": "연세에덴요양병원",
        "distance": 138.41187403940938,
        "walking_time": "약 3분"
      },
      {
        "hospital_lat": 37.6075379,
        "hospital_lon": 126.9321532,
        "hospital_type": "병원",
        "hospital_name": "푸른치과의원",
        "distance": 139.14826404931694,
        "walking_time": "약 3분"
      },
      {
        "hospital_lat": 37.60792047,
        "hospital_lon": 126.9318603,
        "hospital_type": "병원",
        "hospital_name": "아이넷한의원",
        "distance": 178.8665117689143,
        "walking_time": "약 3분"
      },
      {
        "hospital_lat": 37.6084945,
        "hospital_lon": 126.9312464,
        "hospital_type": "병원",
        "hospital_name": "서울필치과의원",
        "distance": 248.17842823370003,
        "walking_time": "약 4분"
      },
      {
        "hospital_lat": 37.60883081,
        "hospital_lon": 126.9307397,
        "hospital_type": "병원",
        "hospital_name": "서울병원",
        "distance": 296.26079866658614,
        "walking_time": "약 5분"
      },
      {
        "hospital_lat": 37.60936863,
        "hospital_lon": 126.9312381,
        "hospital_type": "병원",
        "hospital_name": "정승기정형외과의원",
        "distance": 343.9383402079221,
        "walking_time": "약 6분"
      },
      {
        "hospital_lat": 37.60941395,
        "hospital_lon": 126.9303084,
        "hospital_type": "병원",
        "hospital_name": "더바른내과의원",
        "distance": 370.2409361042034,
        "walking_time": "약 6분"
      },
      {
        "hospital_lat": 37.60941395,
        "hospital_lon": 126.9303084,
        "hospital_type": "병원",
        "hospital_name": "불광서울안과의원",
        "distance": 370.2409361042034,
        "walking_time": "약 6분"
      },
      {
        "hospital_lat": 37.60941395,
        "hospital_lon": 126.9303084,
        "hospital_type": "병원",
        "hospital_name": "불광튼튼척의원",
        "distance": 370.2409361042034,
        "walking_time": "약 6분"
      }
    ],
    "music_room": [
      {
        "music_room_lat": 37.6084945,
        "music_room_lon": 126.9312464,
        "music_room_type": "노래방",
        "music_room_name": "나가수노래연습장",
        "distance": 248.17842823370003,
        "walking_time": "약 4분"
      },
      {
        "music_room_lat": 37.60822302,
        "music_room_lon": 126.9298564,
        "music_room_type": "노래방",
        "music_room_name": "럭키노래연습장",
        "distance": 274.88877062415656,
        "walking_time": "약 5분"
      },
      {
        "music_room_lat": 37.60966211,
        "music_room_lon": 126.9319063,
        "music_room_type": "노래방",
        "music_room_name": "벨라지오노래연습장",
        "distance": 372.5667042630475,
        "walking_time": "약 6분"
      },
      {
        "music_room_lat": 37.60966211,
        "music_room_lon": 126.9319063,
        "music_room_type": "노래방",
        "music_room_name": "호텔노래연습장",
        "distance": 372.5667042630475,
        "walking_time": "약 6분"
      },
      {
        "music_room_lat": 37.61034129,
        "music_room_lon": 126.9308365,
        "music_room_type": "노래방",
        "music_room_name": "도미솔노래방",
        "distance": 456.6055885157965,
        "walking_time": "약 7분"
      },
      {
        "music_room_lat": 37.61049073,
        "music_room_lon": 126.9310935,
        "music_room_type": "노래방",
        "music_room_name": "산울림노래연습장",
        "distance": 469.2343374624632,
        "walking_time": "약 8분"
      },
      {
        "music_room_lat": 37.61057578,
        "music_room_lon": 126.9301716,
        "music_room_type": "노래방",
        "music_room_name": "큐코인노래연습장",
        "distance": 496.2628440221576,
        "walking_time": "약 8분"
      },
      {
        "music_room_lat": 37.60873863,
        "music_room_lon": 126.9269787,
        "music_room_type": "노래방",
        "music_room_name": "샤방샤방 노래연습장",
        "distance": 505.8529649846432,
        "walking_time": "약 8분"
      },
      {
        "music_room_lat": 37.60864444,
        "music_room_lon": 126.9266425,
        "music_room_type": "노래방",
        "music_room_name": "월드컵노래연습장",
        "distance": 525.8954715173533,
        "walking_time": "약 8분"
      },
      {
        "music_room_lat": 37.60172032,
        "music_room_lon": 126.9300356,
        "music_room_type": "노래방",
        "music_room_name": "인연노래연습장",
        "distance": 534.6387076327526,
        "walking_time": "약 8분"
      }
    ],
    "park": [
      {
        "park_lat": 37.6188016,
        "park_lon": 126.9298962,
        "park_type": "공원",
        "park_name": "불광근린공원",
        "distance": 1399.251618517415,
        "walking_time": "약 21분"
      },
      {
        "park_lat": 37.619052,
        "park_lon": 126.9207354,
        "park_type": "공원",
        "park_name": "연신내물빛공원",
        "distance": 1721.3007798211918,
        "walking_time": "약 26분"
      }
    ],
    "park_station": [
      {
        "park_station_lat": 37.60535189,
        "park_station_lon": 126.92314,
        "park_station_type": "주차장",
        "park_station_name": "은평평화공원",
        "distance": 773.448706802497,
        "walking_time": "약 12분"
      },
      {
        "park_station_lat": 37.60175849,
        "park_station_lon": 126.9205853,
        "park_station_type": "주차장",
        "park_station_name": "진흥로 공영주차장",
        "distance": 1112.9601031760674,
        "walking_time": "약 17분"
      },
      {
        "park_station_lat": 37.60140423,
        "park_station_lon": 126.9489614,
        "park_station_type": "주차장",
        "park_station_name": "홍은1동 제4공영주차장",
        "distance": 1604.3129765431474,
        "walking_time": "약 24분"
      },
      {
        "park_station_lat": 37.59118085,
        "park_station_lon": 126.9419141,
        "park_station_type": "주차장",
        "park_station_name": "유진상가앞",
        "distance": 1902.4099156676416,
        "walking_time": "약 29분"
      },
      {
        "park_station_lat": 37.59118085,
        "park_station_lon": 126.9419141,
        "park_station_type": "주차장",
        "park_station_name": "유진상가/인왕시장 앞",
        "distance": 1902.4099156676416,
        "walking_time": "약 29분"
      },
      {
        "park_station_lat": 37.59064163,
        "park_station_lon": 126.9407079,
        "park_station_type": "주차장",
        "park_station_name": "홍제견인보관소",
        "distance": 1909.74161171752,
        "walking_time": "약 29분"
      },
      {
        "park_station_lat": 37.59140426,
        "park_station_lon": 126.9429589,
        "park_station_type": "주차장",
        "park_station_name": "유진상가앞",
        "distance": 1925.6453578108883,
        "walking_time": "약 29분"
      },
      {
        "park_station_lat": 37.59105667,
        "park_station_lon": 126.9424199,
        "park_station_type": "주차장",
        "park_station_name": "유진상가/인왕시장 앞",
        "distance": 1935.7003440220365,
        "walking_time": "약 29분"
      },
      {
        "park_station_lat": 37.5915471,
        "park_station_lon": 126.9439647,
        "park_station_type": "주차장",
        "park_station_name": "인왕시장앞",
        "distance": 1958.8820259432969,
        "walking_time": "약 30분"
      }
    ],
    "pc_room": [
      {
        "pc_room_lat": 37.6056298326491,
        "pc_room_lon": 126.930072837927,
        "pc_room_type": "PC방",
        "pc_room_name": "돼지 PC",
        "distance": 172.85237321203587,
        "walking_time": "약 3분"
      },
      {
        "pc_room_lat": 37.6091158336056,
        "pc_room_lon": 126.92973977694,
        "pc_room_type": "PC방",
        "pc_room_name": "짱PC",
        "distance": 362.3525110169237,
        "walking_time": "약 6분"
      },
      {
        "pc_room_lat": 37.6088024120643,
        "pc_room_lon": 126.927119371165,
        "pc_room_type": "PC방",
        "pc_room_name": "곤이네 게임장",
        "distance": 499.3135890598355,
        "walking_time": "약 8분"
      },
      {
        "pc_room_lat": 37.6106226649216,
        "pc_room_lon": 126.929466316371,
        "pc_room_type": "PC방",
        "pc_room_name": "웹시티PC방",
        "distance": 522.8047336712225,
        "walking_time": "약 8분"
      },
      {
        "pc_room_lat": 37.6084438918345,
        "pc_room_lon": 126.9263669244,
        "pc_room_type": "PC방",
        "pc_room_name": "제로100PC 녹번점",
        "distance": 536.9336217152185,
        "walking_time": "약 9분"
      },
      {
        "pc_room_lat": 37.608110386275,
        "pc_room_lon": 126.925999860181,
        "pc_room_type": "PC방",
        "pc_room_name": "레드포스PC",
        "distance": 551.6279351082054,
        "walking_time": "약 9분"
      },
      {
        "pc_room_lat": 37.6012158488181,
        "pc_room_lon": 126.928961189816,
        "pc_room_type": "PC방",
        "pc_room_name": "제로100PC 은평구청점",
        "distance": 620.6835507524241,
        "walking_time": "약 10분"
      },
      {
        "pc_room_lat": 37.6015165986991,
        "pc_room_lon": 126.926314865911,
        "pc_room_type": "PC방",
        "pc_room_name": "TOP PC",
        "distance": 721.7286291059316,
        "walking_time": "약 11분"
      },
      {
        "pc_room_lat": 37.6065036457261,
        "pc_room_lon": 126.923309144404,
        "pc_room_type": "PC방",
        "pc_room_name": "인터쿨",
        "distance": 751.4414547002002,
        "walking_time": "약 12분"
      },
      {
        "pc_room_lat": 37.6069592479391,
        "pc_room_lon": 126.922989081374,
        "pc_room_type": "PC방",
        "pc_room_name": "정선PC",
        "distance": 782.6476797691079,
        "walking_time": "약 12분"
      }
    ],
    "police_office": [
      {
        "police_office_lat": 37.6088119,
        "police_office_lon": 126.9318356,
        "police_office_type": "경찰소",
        "police_office_name": "녹번파출소",
        "distance": 277.97619806764584,
        "walking_time": "약 5분"
      },
      {
        "police_office_lat": 37.61114639,
        "police_office_lon": 126.9289844,
        "police_office_type": "경찰소",
        "police_office_name": "대조파출소",
        "distance": 593.3531929475272,
        "walking_time": "약 9분"
      },
      {
        "police_office_lat": 37.60163453,
        "police_office_lon": 126.9264459,
        "police_office_type": "경찰소",
        "police_office_name": "응암지구대",
        "distance": 704.2609609800187,
        "walking_time": "약 11분"
      },
      {
        "police_office_lat": 37.59524771,
        "police_office_lon": 126.946424,
        "police_office_type": "경찰소",
        "police_office_name": "홍은파출소",
        "distance": 1779.1232015236587,
        "walking_time": "약 27분"
      }
    ],
    "post_office": [
      {
        "post_office_lat": 37.60824556,
        "post_office_lon": 126.930033,
        "post_office_type": "우체국",
        "post_office_name": "서울녹번동우편취급국",
        "distance": 267.3044125924234,
        "walking_time": "약 4분"
      },
      {
        "post_office_lat": 37.60108939,
        "post_office_lon": 126.9266624,
        "post_office_type": "우체국",
        "post_office_name": "서울응암1동우체국",
        "distance": 738.2179135287005,
        "walking_time": "약 12분"
      },
      {
        "post_office_lat": 37.60108939,
        "post_office_lon": 126.9266624,
        "post_office_type": "우체국",
        "post_office_name": "서울응암1동우체국",
        "distance": 738.2179135287005,
        "walking_time": "약 12분"
      },
      {
        "post_office_lat": 37.61287821,
        "post_office_lon": 126.9266815,
        "post_office_type": "우체국",
        "post_office_name": "서울대조동우체국",
        "distance": 859.7942223891978,
        "walking_time": "약 13분"
      },
      {
        "post_office_lat": 37.59036777,
        "post_office_lon": 126.935133,
        "post_office_type": "우체국",
        "post_office_name": "서울홍은미성우편취급국",
        "distance": 1796.554425596128,
        "walking_time": "약 27분"
      },
      {
        "post_office_lat": 37.59591488,
        "post_office_lon": 126.9480003,
        "post_office_type": "우체국",
        "post_office_name": "서울홍제3동우편취급국",
        "distance": 1834.2428556738068,
        "walking_time": "약 28분"
      }
    ],
    "public_health_center": [
      {
        "public_health_center_lat": 37.60245742,
        "public_health_center_lon": 126.9288229,
        "public_health_center_type": "보건소",
        "public_health_center_name": "은평구보건소",
        "distance": 504.1444494395302,
        "walking_time": "약 8분"
      }
    ],
    "school": [
      {
        "school_lat": 37.6065633137733,
        "school_lon": 126.935058620612,
        "school_type": "초등학교",
        "school_name": "서울어울초등학교",
        "distance": 285.2558651229534,
        "walking_time": "약 5분"
      },
      {
        "school_lat": 37.6023040358796,
        "school_lon": 126.934033612153,
        "school_type": "초등학교",
        "school_name": "서울은평초등학교",
        "distance": 485.8978198676848,
        "walking_time": "약 8분"
      },
      {
        "school_lat": 37.6045833930687,
        "school_lon": 126.925746281804,
        "school_type": "초등학교",
        "school_name": "서울녹번초등학교",
        "distance": 569.8516643206589,
        "walking_time": "약 9분"
      },
      {
        "school_lat": 37.6134294463781,
        "school_lon": 126.930718712253,
        "school_type": "초등학교",
        "school_name": "서울불광초등학교",
        "distance": 797.5199141310221,
        "walking_time": "약 12분"
      },
      {
        "school_lat": 37.6123671176016,
        "school_lon": 126.925869811138,
        "school_type": "초등학교",
        "school_name": "서울대은초등학교",
        "distance": 854.1253628301153,
        "walking_time": "약 13분"
      },
      {
        "school_lat": 37.5969602955013,
        "school_lon": 126.925180316438,
        "school_type": "중학교",
        "school_name": "영락중학교",
        "distance": 1193.7804605583444,
        "walking_time": "약 18분"
      },
      {
        "school_lat": 37.6144187859471,
        "school_lon": 126.92282044301,
        "school_type": "고등학교",
        "school_name": "동명여자고등학교",
        "distance": 1201.3542428310614,
        "walking_time": "약 18분"
      },
      {
        "school_lat": 37.6144187859471,
        "school_lon": 126.92282044301,
        "school_type": "고등학교",
        "school_name": "동명생활경영고등학교",
        "distance": 1201.3542428310614,
        "walking_time": "약 18분"
      },
      {
        "school_lat": 37.5918915088396,
        "school_lon": 126.935752441047,
        "school_type": "중학교",
        "school_name": "홍은중학교",
        "distance": 1640.1878603056346,
        "walking_time": "약 25분"
      },
      {
        "school_lat": 37.5975402724558,
        "school_lon": 126.949457988833,
        "school_type": "초등학교",
        "school_name": "서울홍은초등학교",
        "distance": 1833.410857681284,
        "walking_time": "약 28분"
      }
    ],
    "self_laundromat": [
      {
        "self_laundromat_lat": 37.60630591,
        "self_laundromat_lon": 126.9306436,
        "self_laundromat_type": "셀프 빨래방",
        "self_laundromat_name": "셀피아 은평녹번점",
        "distance": 105.04202013030825,
        "walking_time": "약 2분"
      },
      {
        "self_laundromat_lat": 37.60630591,
        "self_laundromat_lon": 126.9306436,
        "self_laundromat_type": "셀프 빨래방",
        "self_laundromat_name": "셀피아 은평녹번점",
        "distance": 105.04202013030825,
        "walking_time": "약 2분"
      },
      {
        "self_laundromat_lat": 37.60113367,
        "self_laundromat_lon": 126.9299999,
        "self_laundromat_type": "셀프 빨래방",
        "self_laundromat_name": "화이트365 녹번역점",
        "distance": 598.091335598562,
        "walking_time": "약 9분"
      },
      {
        "self_laundromat_lat": 37.60113367,
        "self_laundromat_lon": 126.9299999,
        "self_laundromat_type": "셀프 빨래방",
        "self_laundromat_name": "화이트365 녹번역점",
        "distance": 598.091335598562,
        "walking_time": "약 9분"
      },
      {
        "self_laundromat_lat": 37.60330601,
        "self_laundromat_lon": 126.9248118,
        "self_laundromat_type": "셀프 빨래방",
        "self_laundromat_name": "워시엔조이 녹번동점",
        "distance": 703.2886346997137,
        "walking_time": "약 11분"
      },
      {
        "self_laundromat_lat": 37.60330601,
        "self_laundromat_lon": 126.9248118,
        "self_laundromat_type": "셀프 빨래방",
        "self_laundromat_name": "워시엔조이 녹번동점",
        "distance": 703.2886346997137,
        "walking_time": "약 11분"
      },
      {
        "self_laundromat_lat": 37.60026815,
        "self_laundromat_lon": 126.9256813,
        "self_laundromat_type": "셀프 빨래방",
        "self_laundromat_name": "퀴클린24셀프빨래방",
        "distance": 863.4940808410901,
        "walking_time": "약 13분"
      },
      {
        "self_laundromat_lat": 37.60026815,
        "self_laundromat_lon": 126.9256813,
        "self_laundromat_type": "셀프 빨래방",
        "self_laundromat_name": "퀴클린24셀프빨래방",
        "distance": 863.4940808410901,
        "walking_time": "약 13분"
      },
      {
        "self_laundromat_lat": 37.61506867,
        "self_laundromat_lon": 126.9330007,
        "self_laundromat_type": "셀프 빨래방",
        "self_laundromat_name": "워시피플셀프빨래방 불광동점",
        "distance": 979.087255022218,
        "walking_time": "약 15분"
      },
      {
        "self_laundromat_lat": 37.61506867,
        "self_laundromat_lon": 126.9330007,
        "self_laundromat_type": "셀프 빨래방",
        "self_laundromat_name": "워시피플셀프빨래방 불광동점",
        "distance": 979.087255022218,
        "walking_time": "약 15분"
      }
    ],
    "subway": [
      {
        "subway_lat": 37.6102072578868,
        "subway_lon": 126.92998576213,
        "subway_type": "지하철",
        "subway_name": "3호선-불광역",
        "distance": 462.7832193232731,
        "walking_time": "약 7분"
      },
      {
        "subway_lat": 37.6102072578868,
        "subway_lon": 126.92998576213,
        "subway_type": "지하철",
        "subway_name": "6호선-불광역",
        "distance": 462.7832193232731,
        "walking_time": "약 7분"
      },
      {
        "subway_lat": 37.6007672113884,
        "subway_lon": 126.936154179023,
        "subway_type": "지하철",
        "subway_name": "3호선-녹번역",
        "distance": 724.4629733221153,
        "walking_time": "약 11분"
      },
      {
        "subway_lat": 37.6060390534435,
        "subway_lon": 126.922967946327,
        "subway_type": "지하철",
        "subway_name": "6호선-역촌역",
        "distance": 781.7874951863093,
        "walking_time": "약 12분"
      },
      {
        "subway_lat": 37.6183988849915,
        "subway_lon": 126.932810138476,
        "subway_type": "지하철",
        "subway_name": "6호선-독바위역",
        "distance": 1346.7365899083345,
        "walking_time": "약 21분"
      },
      {
        "subway_lat": 37.618962003178,
        "subway_lon": 126.921162124977,
        "subway_type": "지하철",
        "subway_name": "3호선-연신내역",
        "distance": 1691.9021844126232,
        "walking_time": "약 26분"
      },
      {
        "subway_lat": 37.618962003178,
        "subway_lon": 126.921162124977,
        "subway_type": "지하철",
        "subway_name": "6호선-연신내역",
        "distance": 1691.9021844126232,
        "walking_time": "약 26분"
      }
    ],
    "supermarket": [
      {
        "supermarket_lat": 37.60973577,
        "supermarket_lon": 126.9289385,
        "supermarket_type": "마트",
        "supermarket_name": "엔씨백화점 불광점",
        "distance": 458.34860391812174,
        "walking_time": "약 7분"
      },
      {
        "supermarket_lat": 37.60973577,
        "supermarket_lon": 126.9289385,
        "supermarket_type": "마트",
        "supermarket_name": "팜스퀘어",
        "distance": 458.34860391812174,
        "walking_time": "약 7분"
      },
      {
        "supermarket_lat": 37.60607337,
        "supermarket_lon": 126.9224064,
        "supermarket_type": "마트",
        "supermarket_name": "롯데쇼핑(주) 롯데슈퍼 역촌점",
        "distance": 831.0889849022398,
        "walking_time": "약 13분"
      },
      {
        "supermarket_lat": 37.61506867,
        "supermarket_lon": 126.9330007,
        "supermarket_type": "마트",
        "supermarket_name": "대호프라자상가",
        "distance": 979.087255022218,
        "walking_time": "약 15분"
      },
      {
        "supermarket_lat": 37.61586219,
        "supermarket_lon": 126.9284327,
        "supermarket_type": "마트",
        "supermarket_name": "불광미성상가",
        "distance": 1103.4354498633345,
        "walking_time": "약 17분"
      },
      {
        "supermarket_lat": 37.60082547,
        "supermarket_lon": 126.9205135,
        "supermarket_type": "마트",
        "supermarket_name": "(주)이마트 은평점",
        "distance": 1169.227943605624,
        "walking_time": "약 18분"
      },
      {
        "supermarket_lat": 37.61763904,
        "supermarket_lon": 126.9328861,
        "supermarket_type": "마트",
        "supermarket_name": "홈플러스(주)익스프레스 불광점",
        "distance": 1262.901285694351,
        "walking_time": "약 19분"
      },
      {
        "supermarket_lat": 37.5990277,
        "supermarket_lon": 126.947352,
        "supermarket_type": "마트",
        "supermarket_name": "이마트에브리데이 홍은점",
        "distance": 1588.8510543583757,
        "walking_time": "약 24분"
      },
      {
        "supermarket_lat": 37.61869023,
        "supermarket_lon": 126.9220638,
        "supermarket_type": "마트",
        "supermarket_name": "롯데쇼핑(주)롯데슈퍼범서점",
        "distance": 1623.3902788428738,
        "walking_time": "약 25분"
      },
      {
        "supermarket_lat": 37.61869023,
        "supermarket_lon": 126.9220638,
        "supermarket_type": "마트",
        "supermarket_name": "범서쇼핑",
        "distance": 1623.3902788428738,
        "walking_time": "약 25분"
      }
    ],
    "tax_office": [
      {
        "tax_office_lat": 37.60182071,
        "tax_office_lon": 126.9263548,
        "tax_office_type": "세무서",
        "tax_office_name": "은평세무서",
        "distance": 694.6671048498042,
        "walking_time": "약 11분"
      }
    ],
    "theater": [
      {
        "theater_lat": 37.6036996869964,
        "theater_lon": 126.927901672834,
        "theater_type": "영화관",
        "theater_name": "이동상영관",
        "distance": 452.2141926694191,
        "walking_time": "약 7분"
      },
      {
        "theater_lat": 37.6097357749976,
        "theater_lon": 126.928938477038,
        "theater_type": "영화관",
        "theater_name": "CGV불광",
        "distance": 458.3501918590465,
        "walking_time": "약 7분"
      }
    ]
  }
}