{
  "클러스터_위도": 37.48722650000988,
  "클러스터_경도": 126.92085450009009,
  "클러스터_level": 3.0,
  "facilities": {
    "bus": [
      {
        "bus_lat": 37.48832724,
        "bus_lon": 126.9214263,
        "bus_type": "버스정류장",
        "bus_name": "은천성결교회",
        "distance": 132.3866349030959,
        "walking_time": "약 2분"
      },
      {
        "bus_lat": 37.48644918,
        "bus_lon": 126.9222367,
        "bus_type": "버스정류장",
        "bus_name": "남부초교후문",
        "distance": 149.47851134123175,
        "walking_time": "약 3분"
      },
      {
        "bus_lat": 37.48671975,
        "bus_lon": 126.9226406,
        "bus_type": "버스정류장",
        "bus_name": "남부초교후문",
        "distance": 167.36254007190186,
        "walking_time": "약 3분"
      },
      {
        "bus_lat": 37.489233,
        "bus_lon": 126.919247,
        "bus_type": "버스정류장",
        "bus_name": "우방아파트",
        "distance": 264.37712699902147,
        "walking_time": "약 4분"
      },
      {
        "bus_lat": 37.48964863,
        "bus_lon": 126.9220386,
        "bus_type": "버스정류장",
        "bus_name": "보라매갑을아파트",
        "distance": 288.8817103798999,
        "walking_time": "약 5분"
      },
      {
        "bus_lat": 37.4897535,
        "bus_lon": 126.9220552,
        "bus_type": "버스정류장",
        "bus_name": "갑을아파트",
        "distance": 300.29663425921296,
        "walking_time": "약 5분"
      },
      {
        "bus_lat": 37.4855926,
        "bus_lon": 126.9178057,
        "bus_type": "버스정류장",
        "bus_name": "신사동주민센터.신사시장",
        "distance": 324.6098704458097,
        "walking_time": "약 5분"
      },
      {
        "bus_lat": 37.4891229,
        "bus_lon": 126.9174897,
        "bus_type": "버스정류장",
        "bus_name": "보라매공원입구",
        "distance": 364.1474905523216,
        "walking_time": "약 6분"
      },
      {
        "bus_lat": 37.48943527,
        "bus_lon": 126.9178011,
        "bus_type": "버스정류장",
        "bus_name": "보라매공원입구",
        "distance": 364.5539285863826,
        "walking_time": "약 6분"
      },
      {
        "bus_lat": 37.48497178,
        "bus_lon": 126.9246318,
        "bus_type": "버스정류장",
        "bus_name": "봉림교",
        "distance": 417.05535715306,
        "walking_time": "약 7분"
      }
    ],
    "community_center": [
      {
        "community_center_lat": 37.48595224,
        "community_center_lon": 126.9191029,
        "community_center_type": "주민센터",
        "community_center_name": "신사동 자치회관",
        "distance": 209.6702736711184,
        "walking_time": "약 4분"
      },
      {
        "community_center_lat": 37.487396,
        "community_center_lon": 126.9271139,
        "community_center_type": "주민센터",
        "community_center_name": "신림동 자치회관",
        "distance": 552.5999768345097,
        "walking_time": "약 9분"
      },
      {
        "community_center_lat": 37.48161061,
        "community_center_lon": 126.9273799,
        "community_center_type": "주민센터",
        "community_center_name": "신원동 자치회관",
        "distance": 849.3880043270951,
        "walking_time": "약 13분"
      },
      {
        "community_center_lat": 37.48894469,
        "community_center_lon": 126.9100394,
        "community_center_type": "주민센터",
        "community_center_name": "신대방1동 자치회관",
        "distance": 973.1648161602562,
        "walking_time": "약 15분"
      },
      {
        "community_center_lat": 37.48817585,
        "community_center_lon": 126.932778,
        "community_center_type": "주민센터",
        "community_center_name": "보라매동 자치회관",
        "distance": 1057.3099780700643,
        "walking_time": "약 16분"
      },
      {
        "community_center_lat": 37.47976918,
        "community_center_lon": 126.9313747,
        "community_center_type": "주민센터",
        "community_center_name": "서원동 자치회관",
        "distance": 1244.698247921472,
        "walking_time": "약 19분"
      },
      {
        "community_center_lat": 37.49841253,
        "community_center_lon": 126.924544,
        "community_center_type": "주민센터",
        "community_center_name": "신대방2동 자치회관",
        "distance": 1285.7167689189762,
        "walking_time": "약 20분"
      },
      {
        "community_center_lat": 37.47617498,
        "community_center_lon": 126.9155517,
        "community_center_type": "주민센터",
        "community_center_name": "미성동 자치회관",
        "distance": 1314.9408621952862,
        "walking_time": "약 20분"
      },
      {
        "community_center_lat": 37.49912572,
        "community_center_lon": 126.931404,
        "community_center_type": "주민센터",
        "community_center_name": "상도3동 자치회관",
        "distance": 1617.6949253514092,
        "walking_time": "약 25분"
      },
      {
        "community_center_lat": 37.47102189,
        "community_center_lon": 126.9216418,
        "community_center_type": "주민센터",
        "community_center_name": "난곡동 자치회관",
        "distance": 1803.2092084972448,
        "walking_time": "약 27분"
      }
    ],
    "convenience_store": [
      {
        "convenience_store_lat": 37.48657738,
        "convenience_store_lon": 126.9209957,
        "convenience_store_type": "편의점",
        "convenience_store_name": "CU 관악네잎클로버점",
        "distance": 73.24614902185596,
        "walking_time": "약 2분"
      },
      {
        "convenience_store_lat": 37.4878029,
        "convenience_store_lon": 126.9217692,
        "convenience_store_type": "편의점",
        "convenience_store_name": "GS25 신림관천로점",
        "distance": 103.05945319324783,
        "walking_time": "약 2분"
      },
      {
        "convenience_store_lat": 37.48557718,
        "convenience_store_lon": 126.921285,
        "convenience_store_type": "편의점",
        "convenience_store_name": "GS25 관악남부점",
        "distance": 187.2882907816944,
        "walking_time": "약 3분"
      },
      {
        "convenience_store_lat": 37.48907561,
        "convenience_store_lon": 126.9196756,
        "convenience_store_type": "편의점",
        "convenience_store_name": "세븐일레븐 신림한양점",
        "distance": 230.42427879640937,
        "walking_time": "약 4분"
      },
      {
        "convenience_store_lat": 37.48573609,
        "convenience_store_lon": 126.9181821,
        "convenience_store_type": "편의점",
        "convenience_store_name": "CU 신림4동점",
        "distance": 288.20767293253266,
        "walking_time": "약 5분"
      },
      {
        "convenience_store_lat": 37.48947584,
        "convenience_store_lon": 126.922504,
        "convenience_store_type": "편의점",
        "convenience_store_name": "CU 관악산들점",
        "distance": 289.3759801041177,
        "walking_time": "약 5분"
      },
      {
        "convenience_store_lat": 37.48964564,
        "convenience_store_lon": 126.9223005,
        "convenience_store_type": "편의점",
        "convenience_store_name": "CU 보라매산들점",
        "distance": 297.71781125988343,
        "walking_time": "약 5분"
      },
      {
        "convenience_store_lat": 37.48757908,
        "convenience_store_lon": 126.9242301,
        "convenience_store_type": "편의점",
        "convenience_store_name": "세븐일레븐 관악웰피아점",
        "distance": 300.4043504958217,
        "walking_time": "약 5분"
      },
      {
        "convenience_store_lat": 37.48689022,
        "convenience_store_lon": 126.9244584,
        "convenience_store_type": "편의점",
        "convenience_store_name": "CU 관악리베로점",
        "distance": 320.1708838140897,
        "walking_time": "약 5분"
      },
      {
        "convenience_store_lat": 37.48520213,
        "convenience_store_lon": 126.9239545,
        "convenience_store_type": "편의점",
        "convenience_store_name": "CU 관악승리점",
        "distance": 354.2380040673771,
        "walking_time": "약 6분"
      }
    ],
    "daycare": [
      {
        "daycare_lat": 37.48779998876579,
        "daycare_lon": 126.92117805374444,
        "daycare_type": "어린이집",
        "daycare_name": "구립신사어린이집",
        "distance": 69.86744224960502,
        "walking_time": "약 2분"
      },
      {
        "daycare_lat": 37.4860032,
        "daycare_lon": 126.9209108,
        "daycare_type": "어린이집",
        "daycare_name": "알토랑밤토랑어린이집",
        "distance": 136.11542862722348,
        "walking_time": "약 3분"
      },
      {
        "daycare_lat": 37.48612652,
        "daycare_lon": 126.9220821,
        "daycare_type": "어린이집",
        "daycare_name": "아이세상어린이집",
        "distance": 163.3776887969637,
        "walking_time": "약 3분"
      },
      {
        "daycare_lat": 37.48846321347776,
        "daycare_lon": 126.91864227820253,
        "daycare_type": "어린이집",
        "daycare_name": "구립해뜨는어린이집",
        "distance": 238.7649598040603,
        "walking_time": "약 4분"
      },
      {
        "daycare_lat": 37.48522394313062,
        "daycare_lon": 126.91974480527745,
        "daycare_type": "어린이집",
        "daycare_name": "리라키즈스쿨어린이집",
        "distance": 243.2499030291828,
        "walking_time": "약 4분"
      },
      {
        "daycare_lat": 37.48886468,
        "daycare_lon": 126.9188476,
        "daycare_type": "어린이집",
        "daycare_name": "해뜨는어린이집",
        "distance": 254.03807510319328,
        "walking_time": "약 4분"
      },
      {
        "daycare_lat": 37.48687049,
        "daycare_lon": 126.9175488,
        "daycare_type": "어린이집",
        "daycare_name": "조은어린이집",
        "distance": 294.3432390863538,
        "walking_time": "약 5분"
      },
      {
        "daycare_lat": 37.48454735,
        "daycare_lon": 126.9211837,
        "daycare_type": "어린이집",
        "daycare_name": "새동원어린이집",
        "distance": 299.3205769565832,
        "walking_time": "약 5분"
      },
      {
        "daycare_lat": 37.48598974602752,
        "daycare_lon": 126.9170574792566,
        "daycare_type": "어린이집",
        "daycare_name": "훈세어린이집",
        "distance": 362.14812412062383,
        "walking_time": "약 6분"
      },
      {
        "daycare_lat": 37.48372426,
        "daycare_lon": 126.9202299,
        "daycare_type": "어린이집",
        "daycare_name": "슬기어린이집",
        "distance": 393.3115479825358,
        "walking_time": "약 6분"
      }
    ],
    "education": [
      {
        "education_lat": 37.4808823,
        "education_lon": 126.9182364,
        "education_type": "박물관/기념관",
        "education_name": "호림박물관(신림본관)",
        "distance": 742.3039770853256,
        "walking_time": "약 12분"
      },
      {
        "education_lat": 37.49379251,
        "education_lon": 126.9231084,
        "education_type": "미술관/갤러리",
        "education_name": "동작아트갤러리",
        "distance": 756.7036662633586,
        "walking_time": "약 12분"
      }
    ],
    "fitness": [
      {
        "fitness_lat": 37.48681825,
        "fitness_lon": 126.9178756,
        "fitness_type": "운동시설",
        "fitness_name": "프리원핏 신림점",
        "distance": 266.72630074340645,
        "walking_time": "약 4분"
      },
      {
        "fitness_lat": 37.48525479,
        "fitness_lon": 126.9169215,
        "fitness_type": "운동시설",
        "fitness_name": "짐엑스 신사시장점",
        "distance": 410.4771368409295,
        "walking_time": "약 7분"
      },
      {
        "fitness_lat": 37.48497625,
        "fitness_lon": 126.916872,
        "fitness_type": "운동시설",
        "fitness_name": "짐엑스 신대방점",
        "distance": 431.37282275159896,
        "walking_time": "약 7분"
      },
      {
        "fitness_lat": 37.48963706,
        "fitness_lon": 126.9250607,
        "fitness_type": "운동시설",
        "fitness_name": "바디클래스",
        "distance": 457.7915116453887,
        "walking_time": "약 7분"
      },
      {
        "fitness_lat": 37.49069953,
        "fitness_lon": 126.9239441,
        "fitness_type": "운동시설",
        "fitness_name": "크로스핏 보라매. 엘루이짐",
        "distance": 472.7003740741645,
        "walking_time": "약 8분"
      },
      {
        "fitness_lat": 37.48790223,
        "fitness_lon": 126.9151564,
        "fitness_type": "운동시설",
        "fitness_name": "비더원 PT 신대방역점",
        "distance": 508.3360055171007,
        "walking_time": "약 8분"
      },
      {
        "fitness_lat": 37.4912751,
        "fitness_lon": 126.9240947,
        "fitness_type": "운동시설",
        "fitness_name": "짐박스피트니스 보라매점",
        "distance": 533.2856877628051,
        "walking_time": "약 8분"
      },
      {
        "fitness_lat": 37.4912751,
        "fitness_lon": 126.9240947,
        "fitness_type": "운동시설",
        "fitness_name": "제이디 피티샵",
        "distance": 533.2856877628051,
        "walking_time": "약 8분"
      },
      {
        "fitness_lat": 37.49014616,
        "fitness_lon": 126.9259748,
        "fitness_type": "운동시설",
        "fitness_name": "파인필드",
        "distance": 556.318571864678,
        "walking_time": "약 9분"
      },
      {
        "fitness_lat": 37.49121134,
        "fitness_lon": 126.9249903,
        "fitness_type": "운동시설",
        "fitness_name": "제이디피티샵",
        "distance": 574.0072122425792,
        "walking_time": "약 9분"
      }
    ],
    "gas_station": [
      {
        "gas_station_lat": 37.48302235,
        "gas_station_lon": 126.9188525,
        "gas_station_type": "주유소",
        "gas_station_name": "씨제이대한통운(주)",
        "distance": 499.74120613933184,
        "walking_time": "약 8분"
      },
      {
        "gas_station_lat": 37.4824162,
        "gas_station_lon": 126.9194521,
        "gas_station_type": "주유소",
        "gas_station_name": "현대오일뱅크㈜직영관악셀프주유소",
        "distance": 549.0076007481518,
        "walking_time": "약 9분"
      },
      {
        "gas_station_lat": 37.49159774,
        "gas_station_lon": 126.927219,
        "gas_station_type": "주유소",
        "gas_station_name": "대양석유㈜보라매주유소",
        "distance": 742.6819931583167,
        "walking_time": "약 12분"
      },
      {
        "gas_station_lat": 37.49322282,
        "gas_station_lon": 126.9266746,
        "gas_station_type": "주유소",
        "gas_station_name": "㈜엠오티이엔지직영삼화주유소",
        "distance": 841.5757629945343,
        "walking_time": "약 13분"
      },
      {
        "gas_station_lat": 37.48041974,
        "gas_station_lon": 126.9306687,
        "gas_station_type": "주유소",
        "gas_station_name": "신관주유소",
        "distance": 1150.1127353065049,
        "walking_time": "약 18분"
      },
      {
        "gas_station_lat": 37.47786965,
        "gas_station_lon": 126.9143629,
        "gas_station_type": "주유소",
        "gas_station_name": "문성골주유소",
        "distance": 1187.6893785283476,
        "walking_time": "약 18분"
      },
      {
        "gas_station_lat": 37.49838192,
        "gas_station_lon": 126.9197833,
        "gas_station_type": "주유소",
        "gas_station_name": "한경석유㈜경덕주유소",
        "distance": 1244.0211031674728,
        "walking_time": "약 19분"
      },
      {
        "gas_station_lat": 37.47341197,
        "gas_station_lon": 126.9188013,
        "gas_station_type": "주유소",
        "gas_station_name": "난곡주유소",
        "distance": 1546.7529890876915,
        "walking_time": "약 24분"
      },
      {
        "gas_station_lat": 37.4737677,
        "gas_station_lon": 126.9348256,
        "gas_station_type": "주유소",
        "gas_station_name": "유림주유소",
        "distance": 1938.9377270227733,
        "walking_time": "약 29분"
      }
    ],
    "hospital": [
      {
        "hospital_lat": 37.48577621,
        "hospital_lon": 126.9183603,
        "hospital_type": "병원",
        "hospital_name": "남산당한의원",
        "distance": 272.83199301262954,
        "walking_time": "약 5분"
      },
      {
        "hospital_lat": 37.48534822,
        "hospital_lon": 126.9187327,
        "hospital_type": "병원",
        "hospital_name": "닥터강이비인후과의원",
        "distance": 280.48026111828733,
        "walking_time": "약 5분"
      },
      {
        "hospital_lat": 37.48534822,
        "hospital_lon": 126.9187327,
        "hospital_type": "병원",
        "hospital_name": "청아의원",
        "distance": 280.48026111828733,
        "walking_time": "약 5분"
      },
      {
        "hospital_lat": 37.48534822,
        "hospital_lon": 126.9187327,
        "hospital_type": "병원",
        "hospital_name": "클린치과의원",
        "distance": 280.48026111828733,
        "walking_time": "약 5분"
      },
      {
        "hospital_lat": 37.48541703,
        "hospital_lon": 126.9185608,
        "hospital_type": "병원",
        "hospital_name": "주함정형외과의원",
        "distance": 285.3781808892045,
        "walking_time": "약 5분"
      },
      {
        "hospital_lat": 37.48559444,
        "hospital_lon": 126.9173959,
        "hospital_type": "병원",
        "hospital_name": "신사경희한의원",
        "distance": 355.04634319255763,
        "walking_time": "약 6분"
      },
      {
        "hospital_lat": 37.48527979,
        "hospital_lon": 126.9172397,
        "hospital_type": "병원",
        "hospital_name": "생일체질한의원",
        "distance": 385.4642899884946,
        "walking_time": "약 6분"
      },
      {
        "hospital_lat": 37.48527979,
        "hospital_lon": 126.9172397,
        "hospital_type": "병원",
        "hospital_name": "서울최치과의원",
        "distance": 385.4642899884946,
        "walking_time": "약 6분"
      },
      {
        "hospital_lat": 37.48505478,
        "hospital_lon": 126.9173224,
        "hospital_type": "병원",
        "hospital_name": "예당한의원",
        "distance": 394.25817487541445,
        "walking_time": "약 6분"
      },
      {
        "hospital_lat": 37.48505478,
        "hospital_lon": 126.9173224,
        "hospital_type": "병원",
        "hospital_name": "최준호내과의원",
        "distance": 394.25817487541445,
        "walking_time": "약 6분"
      }
    ],
    "music_room": [
      {
        "music_room_lat": 37.48692769,
        "music_room_lon": 126.9178206,
        "music_room_type": "노래방",
        "music_room_name": "뉴월드",
        "distance": 269.7416550968081,
        "walking_time": "약 5분"
      },
      {
        "music_room_lat": 37.48346168,
        "music_room_lon": 126.9213744,
        "music_room_type": "노래방",
        "music_room_name": "남부",
        "distance": 421.1347408753173,
        "walking_time": "약 7분"
      },
      {
        "music_room_lat": 37.48341254,
        "music_room_lon": 126.9216052,
        "music_room_type": "노래방",
        "music_room_name": "큐",
        "distance": 429.23451671712814,
        "walking_time": "약 7분"
      },
      {
        "music_room_lat": 37.48691496,
        "music_room_lon": 126.9259569,
        "music_room_type": "노래방",
        "music_room_name": "짠짜라",
        "distance": 451.5264965994353,
        "walking_time": "약 7분"
      },
      {
        "music_room_lat": 37.49094201,
        "music_room_lon": 126.9232712,
        "music_room_type": "노래방",
        "music_room_name": "파크 노래연습장",
        "distance": 464.9240167439713,
        "walking_time": "약 7분"
      },
      {
        "music_room_lat": 37.48671946,
        "music_room_lon": 126.9262776,
        "music_room_type": "노래방",
        "music_room_name": "로데오 노래연습장",
        "distance": 481.8024990871718,
        "walking_time": "약 8분"
      },
      {
        "music_room_lat": 37.48961644,
        "music_room_lon": 126.9255208,
        "music_room_type": "노래방",
        "music_room_name": "원 노래연습장",
        "distance": 490.0284786682217,
        "walking_time": "약 8분"
      },
      {
        "music_room_lat": 37.48685327,
        "music_room_lon": 126.9151572,
        "music_room_type": "노래방",
        "music_room_name": "하이난노래연습장",
        "distance": 504.395429659628,
        "walking_time": "약 8분"
      },
      {
        "music_room_lat": 37.4912751,
        "music_room_lon": 126.9240947,
        "music_room_type": "노래방",
        "music_room_name": "스핑크스 노래연습장",
        "distance": 533.2856877628051,
        "walking_time": "약 8분"
      },
      {
        "music_room_lat": 37.4912751,
        "music_room_lon": 126.9240947,
        "music_room_type": "노래방",
        "music_room_name": "홍콩노래연습장",
        "distance": 533.2856877628051,
        "walking_time": "약 8분"
      }
    ],
    "park": [
      {
        "park_lat": 37.492333,
        "park_lon": 126.918289,
        "park_type": "공원",
        "park_name": "보라매근린공원",
        "distance": 611.2699545487495,
        "walking_time": "약 10분"
      },
      {
        "park_lat": 37.492299,
        "park_lon": 126.9385469,
        "park_type": "공원",
        "park_name": "상도근린공원",
        "distance": 1659.759567250255,
        "walking_time": "약 25분"
      }
    ],
    "park_station": [
      {
        "park_station_lat": 37.48736362,
        "park_station_lon": 126.9234863,
        "park_station_type": "주차장",
        "park_station_name": "신림동공영주차장",
        "distance": 232.70866864732432,
        "walking_time": "약 4분"
      },
      {
        "park_station_lat": 37.4848902,
        "park_station_lon": 126.9221482,
        "park_station_type": "주차장",
        "park_station_name": "남부초등학교",
        "distance": 283.75647425764214,
        "walking_time": "약 5분"
      },
      {
        "park_station_lat": 37.48671106,
        "park_station_lon": 126.9172636,
        "park_station_type": "주차장",
        "park_station_name": "관악신사시장 공영주차장",
        "distance": 321.9755050114728,
        "walking_time": "약 5분"
      },
      {
        "park_station_lat": 37.490363,
        "park_station_lon": 126.9232398,
        "park_station_type": "주차장",
        "park_station_name": "보라매상업 공영주차장",
        "distance": 407.3413384183258,
        "walking_time": "약 7분"
      },
      {
        "park_station_lat": 37.48462415,
        "park_station_lon": 126.9252587,
        "park_station_type": "주차장",
        "park_station_name": "신림동제2공영",
        "distance": 484.5020797814775,
        "walking_time": "약 8분"
      },
      {
        "park_station_lat": 37.48445914,
        "park_station_lon": 126.9154432,
        "park_station_type": "주차장",
        "park_station_name": "신사동 제1공영주차장",
        "distance": 568.028108432099,
        "walking_time": "약 9분"
      },
      {
        "park_station_lat": 37.48823393,
        "park_station_lon": 126.914468,
        "park_station_type": "주차장",
        "park_station_name": "신대방역 공영주차장",
        "distance": 574.5165331452428,
        "walking_time": "약 9분"
      },
      {
        "park_station_lat": 37.48271916,
        "park_station_lon": 126.9275934,
        "park_station_type": "주차장",
        "park_station_name": "서원동제1공영",
        "distance": 777.6560825597841,
        "walking_time": "약 12분"
      },
      {
        "park_station_lat": 37.48685341,
        "park_station_lon": 126.9331906,
        "park_station_type": "주차장",
        "park_station_name": "봉천복개3 공영주차장",
        "distance": 1089.231256508441,
        "walking_time": "약 17분"
      },
      {
        "park_station_lat": 37.49193146,
        "park_station_lon": 126.9331501,
        "park_station_type": "주차장",
        "park_station_name": "당곡중학교공영 ",
        "distance": 1204.392782771482,
        "walking_time": "약 18분"
      }
    ],
    "pc_room": [
      {
        "pc_room_lat": 37.4850367672133,
        "pc_room_lon": 126.918506808414,
        "pc_room_type": "PC방",
        "pc_room_name": "수 PC방",
        "distance": 319.6792677214522,
        "walking_time": "약 5분"
      },
      {
        "pc_room_lat": 37.4871786916872,
        "pc_room_lon": 126.925828834235,
        "pc_room_type": "PC방",
        "pc_room_name": "대박PC",
        "distance": 438.9275621040655,
        "walking_time": "약 7분"
      },
      {
        "pc_room_lat": 37.4868916578486,
        "pc_room_lon": 126.92616007342,
        "pc_room_type": "PC방",
        "pc_room_name": "율PC",
        "distance": 469.6005031432447,
        "walking_time": "약 8분"
      },
      {
        "pc_room_lat": 37.48531038244,
        "pc_room_lon": 126.915905394653,
        "pc_room_type": "PC방",
        "pc_room_name": "신사PC",
        "distance": 485.8812363553644,
        "walking_time": "약 8분"
      },
      {
        "pc_room_lat": 37.4912751024086,
        "pc_room_lon": 126.924094714271,
        "pc_room_type": "PC방",
        "pc_room_name": "피에스타PC방 보라매점",
        "distance": 533.2865888353017,
        "walking_time": "약 8분"
      },
      {
        "pc_room_lat": 37.4912113425285,
        "pc_room_lon": 126.924990343437,
        "pc_room_type": "PC방",
        "pc_room_name": "수피아PC방",
        "distance": 574.0098655789683,
        "walking_time": "약 9분"
      },
      {
        "pc_room_lat": 37.4872013649081,
        "pc_room_lon": 126.927813421746,
        "pc_room_type": "PC방",
        "pc_room_name": "쿡피시방",
        "distance": 614.0057289383361,
        "walking_time": "약 10분"
      },
      {
        "pc_room_lat": 37.4858919115747,
        "pc_room_lon": 126.927636033729,
        "pc_room_type": "PC방",
        "pc_room_name": "뉴탑",
        "distance": 616.4812190365876,
        "walking_time": "약 10분"
      },
      {
        "pc_room_lat": 37.48492343619,
        "pc_room_lon": 126.927225743639,
        "pc_room_type": "PC방",
        "pc_room_name": "당근PC",
        "distance": 617.7385244098527,
        "walking_time": "약 10분"
      },
      {
        "pc_room_lat": 37.4847136870226,
        "pc_room_lon": 126.92752794785,
        "pc_room_type": "PC방",
        "pc_room_name": "꼬마PC",
        "distance": 651.7526816738314,
        "walking_time": "약 10분"
      }
    ],
    "police_office": [
      {
        "police_office_lat": 37.4872985,
        "police_office_lon": 126.9142051,
        "police_office_type": "경찰소",
        "police_office_name": "신사지구대",
        "distance": 586.743911995795,
        "walking_time": "약 9분"
      },
      {
        "police_office_lat": 37.47992421,
        "police_office_lon": 126.9156105,
        "police_office_type": "경찰소",
        "police_office_name": "미성파출소",
        "distance": 934.5635825550544,
        "walking_time": "약 14분"
      },
      {
        "police_office_lat": 37.48401647,
        "police_office_lon": 126.9333173,
        "police_office_type": "경찰소",
        "police_office_name": "신림지구대",
        "distance": 1156.1208580980292,
        "walking_time": "약 18분"
      },
      {
        "police_office_lat": 37.48600685,
        "police_office_lon": 126.9343644,
        "police_office_type": "경찰소",
        "police_office_name": "당곡지구대",
        "distance": 1199.7046829439016,
        "walking_time": "약 18분"
      },
      {
        "police_office_lat": 37.49856527,
        "police_office_lon": 126.920574,
        "police_office_type": "경찰소",
        "police_office_name": "대방파출소",
        "distance": 1261.056542282771,
        "walking_time": "약 19분"
      },
      {
        "police_office_lat": 37.49909994,
        "police_office_lon": 126.9128049,
        "police_office_type": "경찰소",
        "police_office_name": "신풍지구대",
        "distance": 1499.150533534541,
        "walking_time": "약 23분"
      },
      {
        "police_office_lat": 37.4738594,
        "police_office_lon": 126.9352631,
        "police_office_type": "경찰소",
        "police_office_name": "관악산지구대",
        "distance": 1955.949258692585,
        "walking_time": "약 30분"
      }
    ],
    "post_office": [
      {
        "post_office_lat": 37.48501945,
        "post_office_lon": 126.9155289,
        "post_office_type": "우체국",
        "post_office_name": "서울관악신사동우편취급국",
        "distance": 530.1214794133289,
        "walking_time": "약 8분"
      },
      {
        "post_office_lat": 37.49121134,
        "post_office_lon": 126.9249903,
        "post_office_type": "우체국",
        "post_office_name": "서울보라매우편취급국",
        "distance": 574.0072122425792,
        "walking_time": "약 9분"
      },
      {
        "post_office_lat": 37.48066748,
        "post_office_lon": 126.9284834,
        "post_office_type": "우체국",
        "post_office_name": "서울신림동부우편취급국",
        "distance": 992.4930445103942,
        "walking_time": "약 15분"
      },
      {
        "post_office_lat": 37.47854878,
        "post_office_lon": 126.9149155,
        "post_office_type": "우체국",
        "post_office_name": "서울난곡우체국",
        "distance": 1098.037130993608,
        "walking_time": "약 17분"
      },
      {
        "post_office_lat": 37.48501424,
        "post_office_lon": 126.9331367,
        "post_office_type": "우체국",
        "post_office_name": "서울관악우체국",
        "distance": 1111.267147932885,
        "walking_time": "약 17분"
      },
      {
        "post_office_lat": 37.49791931,
        "post_office_lon": 126.9245212,
        "post_office_type": "우체국",
        "post_office_name": "서울동작우체국",
        "distance": 1232.20879377613,
        "walking_time": "약 19분"
      }
    ],
    "public_health_center": [
      {
        "public_health_center_lat": 37.48784455,
        "public_health_center_lon": 126.932302,
        "public_health_center_type": "보건소",
        "public_health_center_name": "관악구보건지소",
        "distance": 1012.3664645484882,
        "walking_time": "약 16분"
      },
      {
        "public_health_center_lat": 37.49961665,
        "public_health_center_lon": 126.9242845,
        "public_health_center_type": "보건소",
        "public_health_center_name": "동작구보건지소",
        "distance": 1410.563903183485,
        "walking_time": "약 22분"
      }
    ],
    "school": [
      {
        "school_lat": 37.4851194359099,
        "school_lon": 126.922183775699,
        "school_type": "초등학교",
        "school_name": "서울남부초등학교",
        "distance": 262.01170442746707,
        "walking_time": "약 4분"
      },
      {
        "school_lat": 37.4821362472153,
        "school_lon": 126.921037135349,
        "school_type": "중학교",
        "school_name": "남서울중학교",
        "distance": 566.2396411663101,
        "walking_time": "약 9분"
      },
      {
        "school_lat": 37.4889482943857,
        "school_lon": 126.914528045959,
        "school_type": "초등학교",
        "school_name": "서울문창초등학교",
        "distance": 590.1100605407928,
        "walking_time": "약 9분"
      },
      {
        "school_lat": 37.4807283676946,
        "school_lon": 126.920957326353,
        "school_type": "고등학교",
        "school_name": "성보고등학교",
        "distance": 722.6163070513225,
        "walking_time": "약 11분"
      },
      {
        "school_lat": 37.4807283676946,
        "school_lon": 126.920957326353,
        "school_type": "중학교",
        "school_name": "성보중학교",
        "distance": 722.6163070513225,
        "walking_time": "약 11분"
      },
      {
        "school_lat": 37.4928014552579,
        "school_lon": 126.914907105304,
        "school_type": "고등학교",
        "school_name": "수도여자고등학교",
        "distance": 812.174034640517,
        "walking_time": "약 13분"
      },
      {
        "school_lat": 37.4928014552579,
        "school_lon": 126.914907105304,
        "school_type": "고등학교",
        "school_name": "수도여자고등학교부설방송통신고등학교",
        "distance": 812.174034640517,
        "walking_time": "약 13분"
      },
      {
        "school_lat": 37.4901681154487,
        "school_lon": 126.930369788237,
        "school_type": "초등학교",
        "school_name": "서울당곡초등학교",
        "distance": 901.0051339202338,
        "walking_time": "약 14분"
      },
      {
        "school_lat": 37.4792104943499,
        "school_lon": 126.916967177377,
        "school_type": "고등학교",
        "school_name": "신림고등학교",
        "distance": 955.0589388799726,
        "walking_time": "약 15분"
      },
      {
        "school_lat": 37.4958609410012,
        "school_lon": 126.922405470441,
        "school_type": "중학교",
        "school_name": "문창중학교",
        "distance": 969.8082405811152,
        "walking_time": "약 15분"
      }
    ],
    "self_laundromat": [
      {
        "self_laundromat_lat": 37.49878935,
        "self_laundromat_lon": 126.917808,
        "self_laundromat_type": "셀프 빨래방",
        "self_laundromat_name": "이지셀프빨래방",
        "distance": 1313.523440008952,
        "walking_time": "약 20분"
      },
      {
        "self_laundromat_lat": 37.49878935,
        "self_laundromat_lon": 126.917808,
        "self_laundromat_type": "셀프 빨래방",
        "self_laundromat_name": "이지셀프빨래방",
        "distance": 1313.523440008952,
        "walking_time": "약 20분"
      }
    ],
    "subway": [
      {
        "subway_lat": 37.4875759745635,
        "subway_lon": 126.913175585996,
        "subway_type": "지하철",
        "subway_name": "2호선-신대방역",
        "distance": 678.637518881703,
        "walking_time": "약 11분"
      },
      {
        "subway_lat": 37.4842176141092,
        "subway_lon": 126.92980331103,
        "subway_type": "지하철",
        "subway_name": "2호선-신림역",
        "distance": 857.5468503033413,
        "walking_time": "약 13분"
      },
      {
        "subway_lat": 37.499910050321,
        "subway_lon": 126.920489390309,
        "subway_type": "지하철",
        "subway_name": "7호선-보라매역",
        "distance": 1410.714247147553,
        "walking_time": "약 22분"
      },
      {
        "subway_lat": 37.4997218266711,
        "subway_lon": 126.928222967016,
        "subway_type": "지하철",
        "subway_name": "7호선-신대방삼거리역",
        "distance": 1533.976284060622,
        "walking_time": "약 23분"
      }
    ],
    "supermarket": [
      {
        "supermarket_lat": 37.49049549,
        "supermarket_lon": 126.9249817,
        "supermarket_type": "마트",
        "supermarket_name": "롯데쇼핑(주) 관악점",
        "distance": 514.5180050549797,
        "walking_time": "약 8분"
      },
      {
        "supermarket_lat": 37.48476254,
        "supermarket_lon": 126.9300965,
        "supermarket_type": "마트",
        "supermarket_name": "르네상스쇼핑몰(주)",
        "distance": 860.2492852085772,
        "walking_time": "약 13분"
      },
      {
        "supermarket_lat": 37.48385134,
        "supermarket_lon": 126.9302345,
        "supermarket_type": "마트",
        "supermarket_name": "타임스트림",
        "distance": 908.7515277964138,
        "walking_time": "약 14분"
      },
      {
        "supermarket_lat": 37.48314523,
        "supermarket_lon": 126.9114212,
        "supermarket_type": "마트",
        "supermarket_name": "신림중앙시장",
        "distance": 948.019717223234,
        "walking_time": "약 15분"
      },
      {
        "supermarket_lat": 37.49732616,
        "supermarket_lon": 126.9130959,
        "supermarket_type": "마트",
        "supermarket_name": "홈플러스(주) 익스프레스 신길점",
        "distance": 1315.2006312488072,
        "walking_time": "약 20분"
      },
      {
        "supermarket_lat": 37.47428544,
        "supermarket_lon": 126.9180585,
        "supermarket_type": "마트",
        "supermarket_name": "(주)천성세이브마트",
        "distance": 1459.9773290062822,
        "walking_time": "약 22분"
      },
      {
        "supermarket_lat": 37.49995131,
        "supermarket_lon": 126.9295592,
        "supermarket_type": "마트",
        "supermarket_name": "(주)이마트에브리데이 대방동점",
        "distance": 1609.9108181259576,
        "walking_time": "약 25분"
      },
      {
        "supermarket_lat": 37.48665276,
        "supermarket_lon": 126.9392236,
        "supermarket_type": "마트",
        "supermarket_name": "GS THE FRESH 관악은천점",
        "distance": 1622.0029479734592,
        "walking_time": "약 25분"
      },
      {
        "supermarket_lat": 37.4755685,
        "supermarket_lon": 126.9328111,
        "supermarket_type": "마트",
        "supermarket_name": "신림현대종합상가",
        "distance": 1671.383499392327,
        "walking_time": "약 25분"
      },
      {
        "supermarket_lat": 37.4999427,
        "supermarket_lon": 126.9317763,
        "supermarket_type": "마트",
        "supermarket_name": "성대종합시장",
        "distance": 1711.0807621000304,
        "walking_time": "약 26분"
      }
    ],
    "tax_office": [
      {
        "tax_office_lat": 37.47933644,
        "tax_office_lon": 126.9243295,
        "tax_office_type": "세무서",
        "tax_office_name": "관악세무서",
        "distance": 929.3725128627487,
        "walking_time": "약 14분"
      },
      {
        "tax_office_lat": 37.49908057,
        "tax_office_lon": 126.9198001,
        "tax_office_type": "세무서",
        "tax_office_name": "동작세무서",
        "distance": 1321.390915388132,
        "walking_time": "약 20분"
      }
    ],
    "theater": [
      {
        "theater_lat": 37.4838513393186,
        "theater_lon": 126.930234545397,
        "theater_type": "영화관",
        "theater_name": "롯데시네마 신림",
        "distance": 908.7552071043636,
        "walking_time": "약 14분"
      }
    ]
  }
}