{
  "클러스터_위도": 37.56518799999999,
  "클러스터_경도": 126.930667,
  "클러스터_level": 3.0,
  "facilities": {
    "bus": [
      {
        "bus_lat": 37.56570825,
        "bus_lon": 126.9302298,
        "bus_type": "버스정류장",
        "bus_name": "연희브라운스톤",
        "distance": 69.50855702169407,
        "walking_time": "약 2분"
      },
      {
        "bus_lat": 37.5657,
        "bus_lon": 126.930163,
        "bus_type": "버스정류장",
        "bus_name": "연희교차로",
        "distance": 72.21198780357949,
        "walking_time": "약 2분"
      },
      {
        "bus_lat": 37.5659472,
        "bus_lon": 126.9300349,
        "bus_type": "버스정류장",
        "bus_name": "연희교차로",
        "distance": 101.14605452197462,
        "walking_time": "약 2분"
      },
      {
        "bus_lat": 37.56604971,
        "bus_lon": 126.930131,
        "bus_type": "버스정류장",
        "bus_name": "연희브라운스톤",
        "distance": 106.83124820037794,
        "walking_time": "약 2분"
      },
      {
        "bus_lat": 37.56699381,
        "bus_lon": 126.9312475,
        "bus_type": "버스정류장",
        "bus_name": "하나은행연희동지점",
        "distance": 207.21295427885303,
        "walking_time": "약 4분"
      },
      {
        "bus_lat": 37.56322869,
        "bus_lon": 126.9304421,
        "bus_type": "버스정류장",
        "bus_name": "서대문우체국",
        "distance": 218.76528551276,
        "walking_time": "약 4분"
      },
      {
        "bus_lat": 37.56721105,
        "bus_lon": 126.9303733,
        "bus_type": "버스정류장",
        "bus_name": "사러가쇼핑",
        "distance": 226.4374227342516,
        "walking_time": "약 4분"
      },
      {
        "bus_lat": 37.56729432,
        "bus_lon": 126.9302459,
        "bus_type": "버스정류장",
        "bus_name": "사러가쇼핑",
        "distance": 237.1346465728325,
        "walking_time": "약 4분"
      },
      {
        "bus_lat": 37.56305144,
        "bus_lon": 126.9311005,
        "bus_type": "버스정류장",
        "bus_name": "연희성당",
        "distance": 240.6276065501589,
        "walking_time": "약 4분"
      },
      {
        "bus_lat": 37.56300102,
        "bus_lon": 126.9311629,
        "bus_type": "버스정류장",
        "bus_name": "서대문우체국",
        "distance": 247.0779819049041,
        "walking_time": "약 4분"
      }
    ],
    "community_center": [
      {
        "community_center_lat": 37.56933601,
        "community_center_lon": 126.9307755,
        "community_center_type": "주민센터",
        "community_center_name": "연희동 자치회관",
        "distance": 461.33679146857446,
        "walking_time": "약 7분"
      },
      {
        "community_center_lat": 37.56450401,
        "community_center_lon": 126.9220214,
        "community_center_type": "주민센터",
        "community_center_name": "연남동 자치회관",
        "distance": 765.8110074796491,
        "walking_time": "약 12분"
      },
      {
        "community_center_lat": 37.55781754,
        "community_center_lon": 126.939546,
        "community_center_type": "주민센터",
        "community_center_name": "신촌동 자치회관",
        "distance": 1133.2200488851151,
        "walking_time": "약 17분"
      },
      {
        "community_center_lat": 37.55585899,
        "community_center_lon": 126.9423208,
        "community_center_type": "주민센터",
        "community_center_name": "대흥동 자치회관",
        "distance": 1459.8864251592263,
        "walking_time": "약 22분"
      },
      {
        "community_center_lat": 37.57843406,
        "community_center_lon": 126.9238669,
        "community_center_type": "주민센터",
        "community_center_name": "남가좌2동 자치회관",
        "distance": 1590.1529903154906,
        "walking_time": "약 24분"
      }
    ],
    "convenience_store": [
      {
        "convenience_store_lat": 37.56462511,
        "convenience_store_lon": 126.9306982,
        "convenience_store_type": "편의점",
        "convenience_store_name": "CU 연대연희점",
        "distance": 62.650894410816925,
        "walking_time": "약 1분"
      },
      {
        "convenience_store_lat": 37.56480384,
        "convenience_store_lon": 126.9298852,
        "convenience_store_type": "편의점",
        "convenience_store_name": "세븐일레븐 동서한방병원점",
        "distance": 81.07407697704497,
        "walking_time": "약 2분"
      },
      {
        "convenience_store_lat": 37.56599758,
        "convenience_store_lon": 126.9298947,
        "convenience_store_type": "편의점",
        "convenience_store_name": "세븐일레븐 서대문연희로점",
        "distance": 112.8598173606328,
        "walking_time": "약 2분"
      },
      {
        "convenience_store_lat": 37.56533588,
        "convenience_store_lon": 126.932366,
        "convenience_store_type": "편의점",
        "convenience_store_name": "GS25 연세시티점",
        "distance": 150.6494611684032,
        "walking_time": "약 3분"
      },
      {
        "convenience_store_lat": 37.56698647,
        "convenience_store_lon": 126.9313555,
        "convenience_store_type": "편의점",
        "convenience_store_name": "CU 연희로점",
        "distance": 208.98513185040943,
        "walking_time": "약 4분"
      },
      {
        "convenience_store_lat": 37.56318791,
        "convenience_store_lon": 126.9315844,
        "convenience_store_type": "편의점",
        "convenience_store_name": "CU 연세학사점",
        "distance": 236.6434529503892,
        "walking_time": "약 4분"
      },
      {
        "convenience_store_lat": 37.56252056,
        "convenience_store_lon": 126.9310014,
        "convenience_store_type": "편의점",
        "convenience_store_name": "GS25 연희IC2점",
        "distance": 298.0666743683324,
        "walking_time": "약 5분"
      },
      {
        "convenience_store_lat": 37.5639275,
        "convenience_store_lon": 126.933726,
        "convenience_store_type": "편의점",
        "convenience_store_name": "CU 연대서문점",
        "distance": 303.8768473625335,
        "walking_time": "약 5분"
      },
      {
        "convenience_store_lat": 37.56370799,
        "convenience_store_lon": 126.9336903,
        "convenience_store_type": "편의점",
        "convenience_store_name": "GS25 연대서문점",
        "distance": 313.19713573844496,
        "walking_time": "약 5분"
      },
      {
        "convenience_store_lat": 37.56517174,
        "convenience_store_lon": 126.9265223,
        "convenience_store_type": "편의점",
        "convenience_store_name": "GS25 연희임광점",
        "distance": 365.3175185269562,
        "walking_time": "약 6분"
      }
    ],
    "daycare": [
      {
        "daycare_lat": 37.56535187816856,
        "daycare_lon": 126.93115072830298,
        "daycare_type": "어린이집",
        "daycare_name": "우정어린이집",
        "distance": 46.36654666736156,
        "walking_time": "약 1분"
      },
      {
        "daycare_lat": 37.56708653,
        "daycare_lon": 126.9287432,
        "daycare_type": "어린이집",
        "daycare_name": "연희이화어린이집",
        "distance": 270.7713371882237,
        "walking_time": "약 5분"
      },
      {
        "daycare_lat": 37.56287732097153,
        "daycare_lon": 126.92748137787709,
        "daycare_type": "어린이집",
        "daycare_name": "해찬솔어린이집",
        "distance": 380.5993893486216,
        "walking_time": "약 6분"
      },
      {
        "daycare_lat": 37.56209232,
        "daycare_lon": 126.9285767,
        "daycare_type": "어린이집",
        "daycare_name": "천사어린이집",
        "distance": 390.42973389029805,
        "walking_time": "약 6분"
      },
      {
        "daycare_lat": 37.56213796,
        "daycare_lon": 126.9281361,
        "daycare_type": "어린이집",
        "daycare_name": "리틀빌리지어린이집",
        "distance": 405.9379625744594,
        "walking_time": "약 7분"
      },
      {
        "daycare_lat": 37.5650344,
        "daycare_lon": 126.9245279,
        "daycare_type": "어린이집",
        "daycare_name": "꼬마또래어린이집",
        "distance": 541.3690540987903,
        "walking_time": "약 9분"
      },
      {
        "daycare_lat": 37.56923842,
        "daycare_lon": 126.9347425,
        "daycare_type": "어린이집",
        "daycare_name": "푸른누리어린이집",
        "distance": 576.0860843638767,
        "walking_time": "약 9분"
      },
      {
        "daycare_lat": 37.56002506,
        "daycare_lon": 126.9299264,
        "daycare_type": "어린이집",
        "daycare_name": "내일어린이집",
        "distance": 577.7921448447026,
        "walking_time": "약 9분"
      },
      {
        "daycare_lat": 37.56960307,
        "daycare_lon": 126.9259621,
        "daycare_type": "어린이집",
        "daycare_name": "하린어린이집",
        "distance": 642.6292040043747,
        "walking_time": "약 10분"
      },
      {
        "daycare_lat": 37.5628481,
        "daycare_lon": 126.9231999,
        "daycare_type": "어린이집",
        "daycare_name": "지혜어린이집",
        "distance": 707.7213421092939,
        "walking_time": "약 11분"
      }
    ],
    "education": [
      {
        "education_lat": 37.5656579,
        "education_lon": 126.9285381,
        "education_type": "공연장",
        "education_name": "연희예술극장",
        "distance": 194.7792722997493,
        "walking_time": "약 3분"
      },
      {
        "education_lat": 37.57009912,
        "education_lon": 126.9294945,
        "education_type": "미술관/갤러리",
        "education_name": "스페이스애프터",
        "distance": 555.7835240839729,
        "walking_time": "약 9분"
      },
      {
        "education_lat": 37.55698238,
        "education_lon": 126.92959,
        "education_type": "도서관",
        "education_name": "연세대학교 김대중도서관",
        "distance": 917.348542190074,
        "walking_time": "약 14분"
      },
      {
        "education_lat": 37.55760078,
        "education_lon": 126.9381984,
        "education_type": "공연장",
        "education_name": "극장PLOT",
        "distance": 1073.5266376329955,
        "walking_time": "약 17분"
      },
      {
        "education_lat": 37.55886566,
        "education_lon": 126.9400664,
        "education_type": "미술관/갤러리",
        "education_name": "ANDNEW GALLERY(앤드뉴 갤러리)",
        "distance": 1086.5690192242091,
        "walking_time": "약 17분"
      },
      {
        "education_lat": 37.5550833,
        "education_lon": 126.9301095,
        "education_type": "공연장",
        "education_name": "소극장 산울림",
        "distance": 1124.6654803709964,
        "walking_time": "약 17분"
      },
      {
        "education_lat": 37.55504357,
        "education_lon": 126.9338654,
        "education_type": "박물관/기념관",
        "education_name": "이한열기념관",
        "distance": 1162.7065988467975,
        "walking_time": "약 18분"
      },
      {
        "education_lat": 37.56605084,
        "education_lon": 126.9439162,
        "education_type": "공연장",
        "education_name": "금호아트홀 연세",
        "distance": 1171.7096834124416,
        "walking_time": "약 18분"
      },
      {
        "education_lat": 37.56605084,
        "education_lon": 126.9439162,
        "education_type": "박물관/기념관",
        "education_name": "연세대학교신촌캠퍼스박물관",
        "distance": 1171.7096834124416,
        "walking_time": "약 18분"
      },
      {
        "education_lat": 37.5541249,
        "education_lon": 126.9296484,
        "education_type": "공연장",
        "education_name": "포스트극장",
        "distance": 1233.4328458136604,
        "walking_time": "약 19분"
      }
    ],
    "fitness": [
      {
        "fitness_lat": 37.56521326,
        "fitness_lon": 126.9302076,
        "fitness_type": "운동시설",
        "fitness_name": "스타칼리 휘트니스",
        "distance": 40.5887166296338,
        "walking_time": "약 1분"
      },
      {
        "fitness_lat": 37.56641263,
        "fitness_lon": 126.9299881,
        "fitness_type": "운동시설",
        "fitness_name": "피트니스 소마",
        "distance": 148.73980232876863,
        "walking_time": "약 3분"
      },
      {
        "fitness_lat": 37.56583861,
        "fitness_lon": 126.928938,
        "fitness_type": "운동시설",
        "fitness_name": "SU FITNESS",
        "distance": 168.69312188401605,
        "walking_time": "약 3분"
      },
      {
        "fitness_lat": 37.56606644,
        "fitness_lon": 126.9290413,
        "fitness_type": "운동시설",
        "fitness_name": "리커버리PT스튜디오",
        "distance": 173.41413390153502,
        "walking_time": "약 3분"
      },
      {
        "fitness_lat": 37.56693557,
        "fitness_lon": 126.9301467,
        "fitness_type": "운동시설",
        "fitness_name": "연희 피티 앤 피트니스",
        "distance": 199.65878410123145,
        "walking_time": "약 3분"
      },
      {
        "fitness_lat": 37.56728114,
        "fitness_lon": 126.9305207,
        "fitness_type": "운동시설",
        "fitness_name": "짐라이트 연희/연세대점",
        "distance": 233.10347164151045,
        "walking_time": "약 4분"
      },
      {
        "fitness_lat": 37.56754755,
        "fitness_lon": 126.9307944,
        "fitness_type": "운동시설",
        "fitness_name": "플렉스피티",
        "distance": 262.61016332370434,
        "walking_time": "약 4분"
      },
      {
        "fitness_lat": 37.56763493,
        "fitness_lon": 126.9303168,
        "fitness_type": "운동시설",
        "fitness_name": "연희 피티＆필라테스",
        "distance": 273.8313609072292,
        "walking_time": "약 5분"
      },
      {
        "fitness_lat": 37.56763493,
        "fitness_lon": 126.9303168,
        "fitness_type": "운동시설",
        "fitness_name": "제프웰니스센터",
        "distance": 273.8313609072292,
        "walking_time": "약 5분"
      },
      {
        "fitness_lat": 37.56768262,
        "fitness_lon": 126.9312745,
        "fitness_type": "운동시설",
        "fitness_name": "DAYSTAR PLAYGROUND",
        "distance": 282.50959109325794,
        "walking_time": "약 5분"
      }
    ],
    "gas_station": [
      {
        "gas_station_lat": 37.56502434,
        "gas_station_lon": 126.929929,
        "gas_station_type": "주유소",
        "gas_station_name": "㈜안국에너지 삼보주유소",
        "distance": 67.5449217437803,
        "walking_time": "약 2분"
      },
      {
        "gas_station_lat": 37.5693078,
        "gas_station_lon": 126.9324582,
        "gas_station_type": "주유소",
        "gas_station_name": "연희주유소",
        "distance": 484.5408645772291,
        "walking_time": "약 8분"
      },
      {
        "gas_station_lat": 37.56607084,
        "gas_station_lon": 126.9249412,
        "gas_station_type": "주유소",
        "gas_station_name": "구도일주유소 두꺼비",
        "distance": 514.1268866538386,
        "walking_time": "약 8분"
      },
      {
        "gas_station_lat": 37.55986958,
        "gas_station_lon": 126.9268498,
        "gas_station_type": "주유소",
        "gas_station_name": "㈜중앙에너비스 동교지점",
        "distance": 680.3945047868679,
        "walking_time": "약 11분"
      },
      {
        "gas_station_lat": 37.57347791,
        "gas_station_lon": 126.9359275,
        "gas_station_type": "주유소",
        "gas_station_name": "현대오일뱅크(주) 직영 연세주유소",
        "distance": 1031.825492131382,
        "walking_time": "약 16분"
      },
      {
        "gas_station_lat": 37.56101556,
        "gas_station_lon": 126.9415693,
        "gas_station_type": "주유소",
        "gas_station_name": "행촌제2주유소",
        "distance": 1067.0917827891228,
        "walking_time": "약 16분"
      },
      {
        "gas_station_lat": 37.5732609,
        "gas_station_lon": 126.9224624,
        "gas_station_type": "주유소",
        "gas_station_name": "㈜가재울뉴타운주유소",
        "distance": 1152.6904076486742,
        "walking_time": "약 18분"
      },
      {
        "gas_station_lat": 37.57567158,
        "gas_station_lon": 126.9255184,
        "gas_station_type": "주유소",
        "gas_station_name": "남정주유소",
        "distance": 1250.922682543889,
        "walking_time": "약 19분"
      }
    ],
    "hospital": [
      {
        "hospital_lat": 37.56466558,
        "hospital_lon": 126.9302594,
        "hospital_type": "병원",
        "hospital_name": "의료법인제민의료재단동서병원",
        "distance": 68.30206088685647,
        "walking_time": "약 2분"
      },
      {
        "hospital_lat": 37.56466558,
        "hospital_lon": 126.9302594,
        "hospital_type": "병원",
        "hospital_name": "의료법인제민의료재단동서한방병원",
        "distance": 68.30206088685647,
        "walking_time": "약 2분"
      },
      {
        "hospital_lat": 37.56548328,
        "hospital_lon": 126.9295802,
        "hospital_type": "병원",
        "hospital_name": "빛날빈치과의원",
        "distance": 101.26104081136852,
        "walking_time": "약 2분"
      },
      {
        "hospital_lat": 37.56581344,
        "hospital_lon": 126.929784,
        "hospital_type": "병원",
        "hospital_name": "드림서울치과의원",
        "distance": 104.37275173489496,
        "walking_time": "약 2분"
      },
      {
        "hospital_lat": 37.56599758,
        "hospital_lon": 126.9298947,
        "hospital_type": "병원",
        "hospital_name": "서울성모내과의원",
        "distance": 112.8598173606328,
        "walking_time": "약 2분"
      },
      {
        "hospital_lat": 37.56599758,
        "hospital_lon": 126.9298947,
        "hospital_type": "병원",
        "hospital_name": "서울컬럼비아치과의원",
        "distance": 112.8598173606328,
        "walking_time": "약 2분"
      },
      {
        "hospital_lat": 37.56599758,
        "hospital_lon": 126.9298947,
        "hospital_type": "병원",
        "hospital_name": "연희동경희한의원",
        "distance": 112.8598173606328,
        "walking_time": "약 2분"
      },
      {
        "hospital_lat": 37.56661919,
        "hospital_lon": 126.9310001,
        "hospital_type": "병원",
        "hospital_name": "홍영택산부인과의원",
        "distance": 161.82655839820464,
        "walking_time": "약 3분"
      },
      {
        "hospital_lat": 37.56680388,
        "hospital_lon": 126.9305165,
        "hospital_type": "병원",
        "hospital_name": "따뜻한인치과의원",
        "distance": 180.1666402296736,
        "walking_time": "약 3분"
      },
      {
        "hospital_lat": 37.56680388,
        "hospital_lon": 126.9305165,
        "hospital_type": "병원",
        "hospital_name": "연세봄봄의원",
        "distance": 180.1666402296736,
        "walking_time": "약 3분"
      }
    ],
    "music_room": [
      {
        "music_room_lat": 37.56583861,
        "music_room_lon": 126.928938,
        "music_room_type": "노래방",
        "music_room_name": "K2노래연습장",
        "distance": 168.69312188401605,
        "walking_time": "약 3분"
      },
      {
        "music_room_lat": 37.56680388,
        "music_room_lon": 126.9305165,
        "music_room_type": "노래방",
        "music_room_name": "ZI 코인노래연습장",
        "distance": 180.1666402296736,
        "walking_time": "약 3분"
      },
      {
        "music_room_lat": 37.56251805,
        "music_room_lon": 126.9271133,
        "music_room_type": "노래방",
        "music_room_name": "씨티 노래연습장",
        "distance": 431.56971625409847,
        "walking_time": "약 7분"
      },
      {
        "music_room_lat": 37.56315655,
        "music_room_lon": 126.9254732,
        "music_room_type": "노래방",
        "music_room_name": "M 노래연습장",
        "distance": 510.4836660625447,
        "walking_time": "약 8분"
      },
      {
        "music_room_lat": 37.56302416,
        "music_room_lon": 126.9248535,
        "music_room_type": "노래방",
        "music_room_name": "렉스코인노래연습장 연남점",
        "distance": 566.0868488769604,
        "walking_time": "약 9분"
      },
      {
        "music_room_lat": 37.56212477,
        "music_room_lon": 126.9245427,
        "music_room_type": "노래방",
        "music_room_name": "연남 노래연습장",
        "distance": 638.2860945821841,
        "walking_time": "약 10분"
      },
      {
        "music_room_lat": 37.56240107,
        "music_room_lon": 126.9242029,
        "music_room_type": "노래방",
        "music_room_name": "K 노래연습장",
        "distance": 648.578616061155,
        "walking_time": "약 10분"
      },
      {
        "music_room_lat": 37.56126619,
        "music_room_lon": 126.9240894,
        "music_room_type": "노래방",
        "music_room_name": "일번지 노래연습장",
        "distance": 725.4627840676155,
        "walking_time": "약 11분"
      },
      {
        "music_room_lat": 37.56095882,
        "music_room_lon": 126.924025,
        "music_room_type": "노래방",
        "music_room_name": "골든싱어코인노래연습장 연남점",
        "distance": 750.9253914603349,
        "walking_time": "약 12분"
      },
      {
        "music_room_lat": 37.5597239,
        "music_room_lon": 126.9249929,
        "music_room_type": "노래방",
        "music_room_name": "애플 노래연습장 동교점",
        "distance": 786.9473053413468,
        "walking_time": "약 12분"
      }
    ],
    "park": [
      {
        "park_lat": 37.5690506,
        "park_lon": 126.9229851,
        "park_type": "공원",
        "park_name": "궁동근린공원",
        "distance": 801.8020838445352,
        "walking_time": "약 12분"
      },
      {
        "park_lat": 37.5517298,
        "park_lon": 126.9289936,
        "park_type": "공원",
        "park_name": "와우근린공원",
        "distance": 1503.7357494651171,
        "walking_time": "약 23분"
      },
      {
        "park_lat": 37.5798246,
        "park_lon": 126.9390273,
        "park_type": "공원",
        "park_name": "안산도시자연공원",
        "distance": 1786.5288911757796,
        "walking_time": "약 27분"
      }
    ],
    "park_station": [
      {
        "park_station_lat": 37.56757751,
        "park_station_lon": 126.9290467,
        "park_station_type": "주차장",
        "park_station_name": "연희사러가쇼핑센터앞",
        "distance": 301.6489694360274,
        "walking_time": "약 5분"
      },
      {
        "park_station_lat": 37.56314258,
        "park_station_lon": 126.9254671,
        "park_station_type": "주차장",
        "park_station_name": "연남 유료 주차장",
        "distance": 511.6545362869877,
        "walking_time": "약 8분"
      },
      {
        "park_station_lat": 37.56258735,
        "park_station_lon": 126.9248387,
        "park_station_type": "주차장",
        "park_station_name": "연남 유료 주차장",
        "distance": 589.5139943648522,
        "walking_time": "약 9분"
      },
      {
        "park_station_lat": 37.56260201,
        "park_station_lon": 126.924384,
        "park_station_type": "주차장",
        "park_station_name": "연남 유료 주차장",
        "distance": 623.9951279072453,
        "walking_time": "약 10분"
      },
      {
        "park_station_lat": 37.5620216,
        "park_station_lon": 126.9241215,
        "park_station_type": "주차장",
        "park_station_name": "연남 유료 주차장",
        "distance": 675.8811982538314,
        "walking_time": "약 11분"
      },
      {
        "park_station_lat": 37.56158877,
        "park_station_lon": 126.9241269,
        "park_station_type": "주차장",
        "park_station_name": "연남 유료 주차장",
        "distance": 701.7660602347992,
        "walking_time": "약 11분"
      },
      {
        "park_station_lat": 37.56147992,
        "park_station_lon": 126.924116,
        "park_station_type": "주차장",
        "park_station_name": "연남 유료 주차장",
        "distance": 709.5204395794486,
        "walking_time": "약 11분"
      },
      {
        "park_station_lat": 37.56136972,
        "park_station_lon": 126.9241056,
        "park_station_type": "주차장",
        "park_station_name": "연남 유료 주차장",
        "distance": 717.4498038901129,
        "walking_time": "약 11분"
      },
      {
        "park_station_lat": 37.5569955,
        "park_station_lon": 126.9289222,
        "park_station_type": "주차장",
        "park_station_name": "공유) 9-88",
        "distance": 923.8555273400704,
        "walking_time": "약 14분"
      },
      {
        "park_station_lat": 37.55665923,
        "park_station_lon": 126.9272697,
        "park_station_type": "주차장",
        "park_station_name": "동교3공영주차장",
        "distance": 994.510930721518,
        "walking_time": "약 15분"
      }
    ],
    "pc_room": [
      {
        "pc_room_lat": 37.5651378360408,
        "pc_room_lon": 126.932823594828,
        "pc_room_type": "PC방",
        "pc_room_name": "티온 PC방 서문점",
        "distance": 190.163713672762,
        "walking_time": "약 3분"
      },
      {
        "pc_room_lat": 37.567234248303,
        "pc_room_lon": 126.930907083597,
        "pc_room_type": "PC방",
        "pc_room_name": "LEV9 PC방",
        "distance": 228.5142859063058,
        "walking_time": "약 4분"
      },
      {
        "pc_room_lat": 37.5623999133101,
        "pc_room_lon": 126.927239750975,
        "pc_room_type": "PC방",
        "pc_room_name": "샘 피시방 (SAEM PC방)",
        "distance": 432.8591254672925,
        "walking_time": "약 7분"
      },
      {
        "pc_room_lat": 37.5614156250297,
        "pc_room_lon": 126.924450876158,
        "pc_room_type": "PC방",
        "pc_room_name": "으뜸 플스방",
        "distance": 690.0366160542616,
        "walking_time": "약 11분"
      },
      {
        "pc_room_lat": 37.5582028873199,
        "pc_room_lon": 126.9290107594,
        "pc_room_type": "PC방",
        "pc_room_name": "GEEKSTAR PC방 창천점",
        "distance": 790.3096723295065,
        "walking_time": "약 12분"
      },
      {
        "pc_room_lat": 37.5583280533329,
        "pc_room_lon": 126.926246501876,
        "pc_room_type": "PC방",
        "pc_room_name": "칵투스 PC CAFE",
        "distance": 856.5451753507613,
        "walking_time": "약 13분"
      },
      {
        "pc_room_lat": 37.5587839163385,
        "pc_room_lon": 126.937240313986,
        "pc_room_type": "PC방",
        "pc_room_name": "아크PC",
        "distance": 918.034741460983,
        "walking_time": "약 14분"
      },
      {
        "pc_room_lat": 37.5587839163385,
        "pc_room_lon": 126.937240313986,
        "pc_room_type": "PC방",
        "pc_room_name": "블루포스PC",
        "distance": 918.034741460983,
        "walking_time": "약 14분"
      },
      {
        "pc_room_lat": 37.5576684824211,
        "pc_room_lon": 126.92589313527,
        "pc_room_type": "PC방",
        "pc_room_name": "원신PC라운지 인 서울",
        "distance": 936.0449700584388,
        "walking_time": "약 14분"
      },
      {
        "pc_room_lat": 37.5588764092034,
        "pc_room_lon": 126.922876410496,
        "pc_room_type": "PC방",
        "pc_room_name": "제노피시방(동교점)",
        "distance": 981.880919555764,
        "walking_time": "약 15분"
      }
    ],
    "police_office": [
      {
        "police_office_lat": 37.57027551,
        "police_office_lon": 126.9328491,
        "police_office_type": "경찰소",
        "police_office_name": "연희파출소",
        "distance": 597.5037494831014,
        "walking_time": "약 9분"
      },
      {
        "police_office_lat": 37.56033561,
        "police_office_lon": 126.9237621,
        "police_office_type": "경찰소",
        "police_office_name": "연남파출소",
        "distance": 813.3511027416268,
        "walking_time": "약 13분"
      },
      {
        "police_office_lat": 37.55855258,
        "police_office_lon": 126.9430099,
        "police_office_type": "경찰소",
        "police_office_name": "신촌지구대",
        "distance": 1314.5413874756318,
        "walking_time": "약 20분"
      },
      {
        "police_office_lat": 37.57604086,
        "police_office_lon": 126.9240383,
        "police_office_type": "경찰소",
        "police_office_name": "남가좌파출소",
        "distance": 1340.7557945409983,
        "walking_time": "약 21분"
      }
    ],
    "post_office": [
      {
        "post_office_lat": 37.56958301,
        "post_office_lon": 126.9316141,
        "post_office_type": "우체국",
        "post_office_name": "서울연희동우체국",
        "distance": 495.7806698122896,
        "walking_time": "약 8분"
      },
      {
        "post_office_lat": 37.56084354,
        "post_office_lon": 126.9320908,
        "post_office_type": "우체국",
        "post_office_name": "서대문우체국",
        "distance": 499.11687444260855,
        "walking_time": "약 8분"
      },
      {
        "post_office_lat": 37.55769106,
        "post_office_lon": 126.928758,
        "post_office_type": "우체국",
        "post_office_name": "서울동교동우편취급국",
        "distance": 850.4346082716916,
        "walking_time": "약 13분"
      },
      {
        "post_office_lat": 37.56605084,
        "post_office_lon": 126.9439162,
        "post_office_type": "우체국",
        "post_office_name": "서울연세대학교우체국",
        "distance": 1171.7096834124416,
        "walking_time": "약 18분"
      },
      {
        "post_office_lat": 37.55462944,
        "post_office_lon": 126.9379735,
        "post_office_type": "우체국",
        "post_office_name": "서울노고산동우편취급국",
        "distance": 1339.1038744631096,
        "walking_time": "약 20분"
      },
      {
        "post_office_lat": 37.55694048,
        "post_office_lon": 126.943879,
        "post_office_type": "우체국",
        "post_office_name": "서울신촌우체국",
        "distance": 1482.3148657086165,
        "walking_time": "약 23분"
      },
      {
        "post_office_lat": 37.57981456,
        "post_office_lon": 126.9345321,
        "post_office_type": "우체국",
        "post_office_name": "서울홍은2동우편취급국",
        "distance": 1661.68806691214,
        "walking_time": "약 25분"
      },
      {
        "post_office_lat": 37.55146496,
        "post_office_lon": 126.94298,
        "post_office_type": "우체국",
        "post_office_name": "서강대학교우편취급국",
        "distance": 1872.5617357370625,
        "walking_time": "약 28분"
      }
    ],
    "public_health_center": [
      {
        "public_health_center_lat": 37.5786098,
        "public_health_center_lon": 126.9362749,
        "public_health_center_type": "보건소",
        "public_health_center_name": "서대문구보건소",
        "distance": 1572.1428906447477,
        "walking_time": "약 24분"
      }
    ],
    "school": [
      {
        "school_lat": 37.5682162296874,
        "school_lon": 126.927137653568,
        "school_type": "중학교",
        "school_name": "서연중학교",
        "distance": 458.4181108138183,
        "walking_time": "약 7분"
      },
      {
        "school_lat": 37.5690459271047,
        "school_lon": 126.934142303217,
        "school_type": "초등학교",
        "school_name": "서울연희초등학교",
        "distance": 527.1128752659173,
        "walking_time": "약 8분"
      },
      {
        "school_lat": 37.5581430512569,
        "school_lon": 126.933480871339,
        "school_type": "초등학교",
        "school_name": "서울창서초등학교",
        "distance": 821.689527404561,
        "walking_time": "약 13분"
      },
      {
        "school_lat": 37.5715036063411,
        "school_lon": 126.938378258532,
        "school_type": "고등학교",
        "school_name": "한국한성화교고등학교",
        "distance": 977.2841391889892,
        "walking_time": "약 15분"
      },
      {
        "school_lat": 37.5715036063411,
        "school_lon": 126.938378258532,
        "school_type": "중학교",
        "school_name": "한국한성화교중학교",
        "distance": 977.2841391889892,
        "walking_time": "약 15분"
      },
      {
        "school_lat": 37.5611502235257,
        "school_lon": 126.942775077877,
        "school_type": "초등학교",
        "school_name": "이화여자대학교사범대학부속초등학교",
        "distance": 1157.8291294656246,
        "walking_time": "약 18분"
      },
      {
        "school_lat": 37.5626393076934,
        "school_lon": 126.944488566727,
        "school_type": "중학교",
        "school_name": "이화여자대학교사범대학부속이화·금란중학교",
        "distance": 1250.780441375878,
        "walking_time": "약 19분"
      },
      {
        "school_lat": 37.554881730967,
        "school_lon": 126.924382439365,
        "school_type": "초등학교",
        "school_name": "서울서교초등학교",
        "distance": 1272.8694938816343,
        "walking_time": "약 19분"
      },
      {
        "school_lat": 37.5549178201995,
        "school_lon": 126.939295148137,
        "school_type": "중학교",
        "school_name": "창천중학교",
        "distance": 1372.0641018971598,
        "walking_time": "약 21분"
      },
      {
        "school_lat": 37.5549178201995,
        "school_lon": 126.939295148137,
        "school_type": "초등학교",
        "school_name": "서울창천초등학교",
        "distance": 1372.0641018971598,
        "walking_time": "약 21분"
      }
    ],
    "self_laundromat": [
      {
        "self_laundromat_lat": 37.56521326,
        "self_laundromat_lon": 126.9302076,
        "self_laundromat_type": "셀프 빨래방",
        "self_laundromat_name": "워시큐 연희브라운스톤점",
        "distance": 40.5887166296338,
        "walking_time": "약 1분"
      },
      {
        "self_laundromat_lat": 37.56521326,
        "self_laundromat_lon": 126.9302076,
        "self_laundromat_type": "셀프 빨래방",
        "self_laundromat_name": "워시큐 연희브라운스톤점",
        "distance": 40.5887166296338,
        "walking_time": "약 1분"
      },
      {
        "self_laundromat_lat": 37.5663532,
        "self_laundromat_lon": 126.9309751,
        "self_laundromat_type": "셀프 빨래방",
        "self_laundromat_name": "화이트365 연희점",
        "distance": 132.37954901508346,
        "walking_time": "약 2분"
      },
      {
        "self_laundromat_lat": 37.5663532,
        "self_laundromat_lon": 126.9309751,
        "self_laundromat_type": "셀프 빨래방",
        "self_laundromat_name": "화이트365 연희점",
        "distance": 132.37954901508346,
        "walking_time": "약 2분"
      },
      {
        "self_laundromat_lat": 37.56676336,
        "self_laundromat_lon": 126.9321058,
        "self_laundromat_type": "셀프 빨래방",
        "self_laundromat_name": "세탁풍경 연희점",
        "distance": 216.25698478316264,
        "walking_time": "약 4분"
      },
      {
        "self_laundromat_lat": 37.56676336,
        "self_laundromat_lon": 126.9321058,
        "self_laundromat_type": "셀프 빨래방",
        "self_laundromat_name": "세탁풍경 연희점",
        "distance": 216.25698478316264,
        "walking_time": "약 4분"
      },
      {
        "self_laundromat_lat": 37.56312103,
        "self_laundromat_lon": 126.9312236,
        "self_laundromat_type": "셀프 빨래방",
        "self_laundromat_name": "워시스토리셀프빨래방 연희연세대점",
        "distance": 235.0141831930561,
        "walking_time": "약 4분"
      },
      {
        "self_laundromat_lat": 37.56312103,
        "self_laundromat_lon": 126.9312236,
        "self_laundromat_type": "셀프 빨래방",
        "self_laundromat_name": "워시스토리셀프빨래방 연희연세대점",
        "distance": 235.0141831930561,
        "walking_time": "약 4분"
      },
      {
        "self_laundromat_lat": 37.5617072,
        "self_laundromat_lon": 126.9279347,
        "self_laundromat_type": "셀프 빨래방",
        "self_laundromat_name": "코인워시24빨래터 연희점",
        "distance": 455.8560023514865,
        "walking_time": "약 7분"
      },
      {
        "self_laundromat_lat": 37.5617072,
        "self_laundromat_lon": 126.9279347,
        "self_laundromat_type": "셀프 빨래방",
        "self_laundromat_name": "코인워시24빨래터 연희점",
        "distance": 455.8560023514865,
        "walking_time": "약 7분"
      }
    ],
    "subway": [
      {
        "subway_lat": 37.5568904093718,
        "subway_lon": 126.923674307594,
        "subway_type": "지하철",
        "subway_name": "2호선-홍대입구역",
        "distance": 1109.591580058943,
        "walking_time": "약 17분"
      },
      {
        "subway_lat": 37.5553118177651,
        "subway_lon": 126.935539064832,
        "subway_type": "지하철",
        "subway_name": "2호선-신촌(지하)역",
        "distance": 1179.1652458162791,
        "walking_time": "약 18분"
      },
      {
        "subway_lat": 37.5565092992834,
        "subway_lon": 126.945485771834,
        "subway_type": "지하철",
        "subway_name": "2호선-이대역",
        "distance": 1624.0182817018635,
        "walking_time": "약 25분"
      }
    ],
    "supermarket": [
      {
        "supermarket_lat": 37.56715459,
        "supermarket_lon": 126.9296612,
        "supermarket_type": "마트",
        "supermarket_name": "연희슈퍼마켓",
        "distance": 235.9607484565054,
        "walking_time": "약 4분"
      },
      {
        "supermarket_lat": 37.56237655,
        "supermarket_lon": 126.9267634,
        "supermarket_type": "마트",
        "supermarket_name": "동진시장",
        "distance": 464.88073319500455,
        "walking_time": "약 7분"
      },
      {
        "supermarket_lat": 37.55840604,
        "supermarket_lon": 126.928533,
        "supermarket_type": "마트",
        "supermarket_name": "롯데슈퍼 창천점",
        "distance": 777.2242128657674,
        "walking_time": "약 12분"
      },
      {
        "supermarket_lat": 37.56271074,
        "supermarket_lon": 126.921857,
        "supermarket_type": "마트",
        "supermarket_name": "홈플러스익스프레스 연남점",
        "distance": 823.9343501021971,
        "walking_time": "약 13분"
      },
      {
        "supermarket_lat": 37.55774581,
        "supermarket_lon": 126.9264983,
        "supermarket_type": "마트",
        "supermarket_name": "AK PLAZA 홍대",
        "distance": 905.4442160265152,
        "walking_time": "약 14분"
      },
      {
        "supermarket_lat": 37.55653513,
        "supermarket_lon": 126.9283908,
        "supermarket_type": "마트",
        "supermarket_name": "홍대복합역사 상업시설",
        "distance": 982.8516160150416,
        "walking_time": "약 15분"
      },
      {
        "supermarket_lat": 37.55724678,
        "supermarket_lon": 126.9249862,
        "supermarket_type": "마트",
        "supermarket_name": "스타피카소 아울렛",
        "distance": 1015.1167637990584,
        "walking_time": "약 16분"
      },
      {
        "supermarket_lat": 37.55724678,
        "supermarket_lon": 126.9249862,
        "supermarket_type": "마트",
        "supermarket_name": "YZ Park 홍대점",
        "distance": 1015.1167637990584,
        "walking_time": "약 16분"
      },
      {
        "supermarket_lat": 37.55608306,
        "supermarket_lon": 126.9358449,
        "supermarket_type": "마트",
        "supermarket_name": "현대백화점 신촌점",
        "distance": 1110.5439605540373,
        "walking_time": "약 17분"
      },
      {
        "supermarket_lat": 37.55982413,
        "supermarket_lon": 126.942387,
        "supermarket_type": "마트",
        "supermarket_name": "신촌 밀리오레",
        "distance": 1192.8526156685543,
        "walking_time": "약 18분"
      }
    ],
    "theater": [
      {
        "theater_lat": 37.5651674709792,
        "theater_lon": 126.930936157626,
        "theater_type": "영화관",
        "theater_name": "라이카시네마",
        "distance": 23.83307205814037,
        "walking_time": "약 1분"
      },
      {
        "theater_lat": 37.5576684824211,
        "theater_lon": 126.92589313527,
        "theater_type": "영화관",
        "theater_name": "CGV연남",
        "distance": 936.0449700584388,
        "walking_time": "약 14분"
      },
      {
        "theater_lat": 37.5572467836494,
        "theater_lon": 126.924986220455,
        "theater_type": "영화관",
        "theater_name": "독립영화전용관 인디스페이스",
        "distance": 1015.1155214325214,
        "walking_time": "약 16분"
      },
      {
        "theater_lat": 37.5598241279561,
        "theater_lon": 126.942386979371,
        "theater_type": "영화관",
        "theater_name": "메가박스중앙(주) 신촌지점",
        "distance": 1192.8511546316474,
        "walking_time": "약 18분"
      },
      {
        "theater_lat": 37.5637750959193,
        "theater_lon": 126.944090214952,
        "theater_type": "영화관",
        "theater_name": "필름포럼",
        "distance": 1193.5161981317715,
        "walking_time": "약 18분"
      },
      {
        "theater_lat": 37.5564943733388,
        "theater_lon": 126.922631917858,
        "theater_type": "영화관",
        "theater_name": "CGV홍대",
        "distance": 1198.375868826099,
        "walking_time": "약 18분"
      },
      {
        "theater_lat": 37.5560502523992,
        "theater_lon": 126.922054509333,
        "theater_type": "영화관",
        "theater_name": "메가박스중앙(주) 홍대지점",
        "distance": 1268.3488904668936,
        "walking_time": "약 19분"
      },
      {
        "theater_lat": 37.5565639285478,
        "theater_lon": 126.940328119434,
        "theater_type": "영화관",
        "theater_name": "CGV신촌아트레온",
        "distance": 1282.4884209684417,
        "walking_time": "약 20분"
      },
      {
        "theater_lat": 37.5543349117636,
        "theater_lon": 126.921207395382,
        "theater_type": "영화관",
        "theater_name": "모노플렉스 앳 라이즈",
        "distance": 1466.8524402584378,
        "walking_time": "약 22분"
      },
      {
        "theater_lat": 37.5509576951977,
        "theater_lon": 126.921063042067,
        "theater_type": "영화관",
        "theater_name": "KT&G 상상마당 cinema",
        "distance": 1794.568543577349,
        "walking_time": "약 27분"
      }
    ],
    "university": [
      {
        "university_lat": 37.5660508394158,
        "university_lon": 126.943916239886,
        "university_type": "대학교",
        "university_name": "연세대학교",
        "distance": 1171.713181814923,
        "walking_time": "약 18분"
      },
      {
        "university_lat": 37.5525245968145,
        "university_lon": 126.9250355422,
        "university_type": "대학교",
        "university_name": "홍익대학교",
        "distance": 1493.041770134006,
        "walking_time": "약 23분"
      },
      {
        "university_lat": 37.5631740311778,
        "university_lon": 126.947807434256,
        "university_type": "대학교",
        "university_name": "이화여자대학교",
        "distance": 1527.2821971940784,
        "walking_time": "약 23분"
      },
      {
        "university_lat": 37.5514649610226,
        "university_lon": 126.942979960696,
        "university_type": "대학교",
        "university_name": "서강대학교",
        "distance": 1872.5596349588284,
        "walking_time": "약 28분"
      }
    ]
  }
}