{
  "클러스터_위도": 37.469342,
  "클러스터_경도": 126.901289,
  "클러스터_level": 3.0,
  "facilities": {
    "bus": [
      {
        "bus_lat": 37.46891568,
        "bus_lon": 126.9022258,
        "bus_type": "버스정류장",
        "bus_name": "독산동성당앞",
        "distance": 95.30200455518168,
        "walking_time": "약 2분"
      },
      {
        "bus_lat": 37.46970728,
        "bus_lon": 126.9027437,
        "bus_type": "버스정류장",
        "bus_name": "독산동성당앞",
        "distance": 134.65346677321568,
        "walking_time": "약 3분"
      },
      {
        "bus_lat": 37.46757975,
        "bus_lon": 126.9020379,
        "bus_type": "버스정류장",
        "bus_name": "독산4동주민센터",
        "distance": 206.7994958438464,
        "walking_time": "약 4분"
      },
      {
        "bus_lat": 37.47124119,
        "bus_lon": 126.9008469,
        "bus_type": "버스정류장",
        "bus_name": "남문시장입구",
        "distance": 214.75422930085,
        "walking_time": "약 4분"
      },
      {
        "bus_lat": 37.47122568,
        "bus_lon": 126.9000106,
        "bus_type": "버스정류장",
        "bus_name": "남문시장입구.청춘삘딩",
        "distance": 237.9082195592527,
        "walking_time": "약 4분"
      },
      {
        "bus_lat": 37.47126546,
        "bus_lon": 126.9029464,
        "bus_type": "버스정류장",
        "bus_name": "독산동쌈지공원",
        "distance": 259.1115108222156,
        "walking_time": "약 4분"
      },
      {
        "bus_lat": 37.47140854,
        "bus_lon": 126.9031983,
        "bus_type": "버스정류장",
        "bus_name": "독산동쌈지공원",
        "distance": 284.9471501751378,
        "walking_time": "약 5분"
      },
      {
        "bus_lat": 37.46897822,
        "bus_lon": 126.8980297,
        "bus_type": "버스정류장",
        "bus_name": "금천우체국",
        "distance": 290.47423491699794,
        "walking_time": "약 5분"
      },
      {
        "bus_lat": 37.470136,
        "bus_lon": 126.898003,
        "bus_type": "버스정류장",
        "bus_name": "금천우체국",
        "distance": 303.1398737659848,
        "walking_time": "약 5분"
      },
      {
        "bus_lat": 37.468914,
        "bus_lon": 126.897671,
        "bus_type": "버스정류장",
        "bus_name": "홈플러스금천점",
        "distance": 322.8277819759969,
        "walking_time": "약 5분"
      }
    ],
    "community_center": [
      {
        "community_center_lat": 37.46755353,
        "community_center_lon": 126.9021682,
        "community_center_type": "주민센터",
        "community_center_name": "독산4동 자치회관",
        "distance": 213.47007820346684,
        "walking_time": "약 4분"
      },
      {
        "community_center_lat": 37.46607783,
        "community_center_lon": 126.8997789,
        "community_center_type": "주민센터",
        "community_center_name": "독산2동 자치회관",
        "distance": 386.6539361060577,
        "walking_time": "약 6분"
      },
      {
        "community_center_lat": 37.47021905,
        "community_center_lon": 126.8970437,
        "community_center_type": "주민센터",
        "community_center_name": "독산1동 자치회관",
        "distance": 387.1432361144096,
        "walking_time": "약 6분"
      },
      {
        "community_center_lat": 37.47516041,
        "community_center_lon": 126.9031745,
        "community_center_type": "주민센터",
        "community_center_name": "독산3동 자치회관",
        "distance": 668.0324124541316,
        "walking_time": "약 10분"
      },
      {
        "community_center_lat": 37.47689182,
        "community_center_lon": 126.8917817,
        "community_center_type": "주민센터",
        "community_center_name": "가산동 자치회관",
        "distance": 1186.8842703248745,
        "walking_time": "약 18분"
      },
      {
        "community_center_lat": 37.45897879,
        "community_center_lon": 126.9061844,
        "community_center_type": "주민센터",
        "community_center_name": "시흥4동 자치회관",
        "distance": 1230.6739863497924,
        "walking_time": "약 19분"
      },
      {
        "community_center_lat": 37.47617498,
        "community_center_lon": 126.9155517,
        "community_center_type": "주민센터",
        "community_center_name": "미성동 자치회관",
        "distance": 1470.2156618047832,
        "walking_time": "약 22분"
      },
      {
        "community_center_lat": 37.45355197,
        "community_center_lon": 126.9032506,
        "community_center_type": "주민센터",
        "community_center_name": "시흥1동 자치회관",
        "distance": 1764.2869689466456,
        "walking_time": "약 27분"
      },
      {
        "community_center_lat": 37.46150906,
        "community_center_lon": 126.9187795,
        "community_center_type": "주민센터",
        "community_center_name": "난향동 자치회관",
        "distance": 1772.4369300262213,
        "walking_time": "약 27분"
      },
      {
        "community_center_lat": 37.4507346,
        "community_center_lon": 126.9083415,
        "community_center_type": "주민센터",
        "community_center_name": "시흥5동 자치회관",
        "distance": 2160.658640909304,
        "walking_time": "약 33분"
      }
    ],
    "convenience_store": [
      {
        "convenience_store_lat": 37.46925878,
        "convenience_store_lon": 126.9005516,
        "convenience_store_type": "편의점",
        "convenience_store_name": "GS25 독산우정점",
        "distance": 65.73246428236094,
        "walking_time": "약 1분"
      },
      {
        "convenience_store_lat": 37.46941989,
        "convenience_store_lon": 126.8996041,
        "convenience_store_type": "편의점",
        "convenience_store_name": "세븐일레븐 독산중앙점",
        "distance": 148.94954543449094,
        "walking_time": "약 3분"
      },
      {
        "convenience_store_lat": 37.46868718,
        "convenience_store_lon": 126.903813,
        "convenience_store_type": "편의점",
        "convenience_store_name": "GS25 독산정심점",
        "distance": 234.3502062869292,
        "walking_time": "약 4분"
      },
      {
        "convenience_store_lat": 37.46806858,
        "convenience_store_lon": 126.8988891,
        "convenience_store_type": "편의점",
        "convenience_store_name": "세븐일레븐 독산점",
        "distance": 254.7731156450548,
        "walking_time": "약 4분"
      },
      {
        "convenience_store_lat": 37.47157433,
        "convenience_store_lon": 126.9025481,
        "convenience_store_type": "편의점",
        "convenience_store_name": "세븐일레븐 신당역점",
        "distance": 271.9599286290619,
        "walking_time": "약 5분"
      },
      {
        "convenience_store_lat": 37.46833296,
        "convenience_store_lon": 126.904553,
        "convenience_store_type": "편의점",
        "convenience_store_name": "CU 독산AK점",
        "distance": 309.13980673225865,
        "walking_time": "약 5분"
      },
      {
        "convenience_store_lat": 37.47118218,
        "convenience_store_lon": 126.9039408,
        "convenience_store_type": "편의점",
        "convenience_store_name": "GS25 독산쌈지점",
        "distance": 310.8653468953884,
        "walking_time": "약 5분"
      },
      {
        "convenience_store_lat": 37.4667138,
        "convenience_store_lon": 126.903059,
        "convenience_store_type": "편의점",
        "convenience_store_name": "세븐일레븐 독산희망점",
        "distance": 331.3720888798249,
        "walking_time": "약 5분"
      },
      {
        "convenience_store_lat": 37.46635793,
        "convenience_store_lon": 126.9020059,
        "convenience_store_type": "편의점",
        "convenience_store_name": "CU 독산2동점",
        "distance": 337.7917129175555,
        "walking_time": "약 6분"
      },
      {
        "convenience_store_lat": 37.47029964,
        "convenience_store_lon": 126.9049475,
        "convenience_store_type": "편의점",
        "convenience_store_name": "CU 독산4동점",
        "distance": 339.9782274742479,
        "walking_time": "약 6분"
      }
    ],
    "daycare": [
      {
        "daycare_lat": 37.46980608,
        "daycare_lon": 126.90149,
        "daycare_type": "어린이집",
        "daycare_name": "예뜰창의어린이집",
        "distance": 54.56711776851253,
        "walking_time": "약 1분"
      },
      {
        "daycare_lat": 37.46919601,
        "daycare_lon": 126.9021613,
        "daycare_type": "어린이집",
        "daycare_name": "은혜어린이집",
        "distance": 78.67616888706787,
        "walking_time": "약 2분"
      },
      {
        "daycare_lat": 37.4684851,
        "daycare_lon": 126.9011939,
        "daycare_type": "어린이집",
        "daycare_name": "향기어린이집",
        "distance": 95.65185979726066,
        "walking_time": "약 2분"
      },
      {
        "daycare_lat": 37.46952562,
        "daycare_lon": 126.9027252,
        "daycare_type": "어린이집",
        "daycare_name": "자연어린이집",
        "distance": 128.3828842683734,
        "walking_time": "약 2분"
      },
      {
        "daycare_lat": 37.4705383,
        "daycare_lon": 126.900195,
        "daycare_type": "어린이집",
        "daycare_name": "푸른솔어린이집",
        "distance": 164.36701875187762,
        "walking_time": "약 3분"
      },
      {
        "daycare_lat": 37.46846646,
        "daycare_lon": 126.9030673,
        "daycare_type": "어린이집",
        "daycare_name": "구립예람어린이집",
        "distance": 184.68542127563143,
        "walking_time": "약 3분"
      },
      {
        "daycare_lat": 37.46865939,
        "daycare_lon": 126.8989123,
        "daycare_type": "어린이집",
        "daycare_name": "친구어린이집",
        "distance": 223.06310382934967,
        "walking_time": "약 4분"
      },
      {
        "daycare_lat": 37.46875537,
        "daycare_lon": 126.9042942,
        "daycare_type": "어린이집",
        "daycare_name": "청아어린이집",
        "distance": 273.1230538085793,
        "walking_time": "약 5분"
      },
      {
        "daycare_lat": 37.46708774567476,
        "daycare_lon": 126.89995959076198,
        "daycare_type": "어린이집",
        "daycare_name": "구립한빛어린이집",
        "distance": 276.7610921319538,
        "walking_time": "약 5분"
      },
      {
        "daycare_lat": 37.46730512,
        "daycare_lon": 126.8991063,
        "daycare_type": "어린이집",
        "daycare_name": "렘넌트어린이집",
        "distance": 297.33040458925046,
        "walking_time": "약 5분"
      }
    ],
    "education": [
      {
        "education_lat": 37.4718013,
        "education_lon": 126.896009,
        "education_type": "공연장",
        "education_name": "문화정원아트홀",
        "distance": 540.2851073112703,
        "walking_time": "약 9분"
      },
      {
        "education_lat": 37.46877706,
        "education_lon": 126.8944749,
        "education_type": "공연장",
        "education_name": "금천뮤지컬센터",
        "distance": 604.6396314742577,
        "walking_time": "약 10분"
      },
      {
        "education_lat": 37.46758019,
        "education_lon": 126.9081059,
        "education_type": "도서관",
        "education_name": "금천구립독산도서관",
        "distance": 632.7120167119385,
        "walking_time": "약 10분"
      },
      {
        "education_lat": 37.47349155,
        "education_lon": 126.8921298,
        "education_type": "도서관",
        "education_name": "금천구립가산도서관",
        "distance": 930.7283968390308,
        "walking_time": "약 14분"
      },
      {
        "education_lat": 37.4798477,
        "education_lon": 126.8953185,
        "education_type": "박물관/기념관",
        "education_name": "G밸리산업박물관",
        "distance": 1281.5015213320005,
        "walking_time": "약 20분"
      },
      {
        "education_lat": 37.45706565,
        "education_lon": 126.8960369,
        "education_type": "도서관",
        "education_name": "금천구립금나래도서관",
        "distance": 1441.6277894335374,
        "walking_time": "약 22분"
      },
      {
        "education_lat": 37.45657850809659,
        "education_lon": 126.89597253576768,
        "education_type": "문화예술회관",
        "education_name": "금나래아트홀",
        "distance": 1494.794441502405,
        "walking_time": "약 23분"
      }
    ],
    "electric_gas_station": [
      {
        "electric_gas_station_lat": 37.46494122,
        "electric_gas_station_lon": 126.8948157,
        "electric_gas_station_type": "전기차 충전소",
        "electric_gas_station_name": "독산1동 공영주차장",
        "distance": 752.2285941008618,
        "walking_time": "약 12분"
      },
      {
        "electric_gas_station_lat": 37.45197902,
        "electric_gas_station_lon": 126.9007904,
        "electric_gas_station_type": "전기차 충전소",
        "electric_gas_station_name": "홈플러스 시흥점",
        "distance": 1931.176785712876,
        "walking_time": "약 29분"
      }
    ],
    "fitness": [
      {
        "fitness_lat": 37.46845624,
        "fitness_lon": 126.898315,
        "fitness_type": "운동시설",
        "fitness_name": "바디채널핏 독산점",
        "distance": 280.3376225985329,
        "walking_time": "약 5분"
      },
      {
        "fitness_lat": 37.46677423,
        "fitness_lon": 126.9015068,
        "fitness_type": "운동시설",
        "fitness_name": "에이치 짐",
        "distance": 286.16928766295945,
        "walking_time": "약 5분"
      },
      {
        "fitness_lat": 37.47181169,
        "fitness_lon": 126.9029207,
        "fitness_type": "운동시설",
        "fitness_name": "신협헬스장",
        "distance": 310.081509555092,
        "walking_time": "약 5분"
      },
      {
        "fitness_lat": 37.47156899,
        "fitness_lon": 126.8987722,
        "fitness_type": "운동시설",
        "fitness_name": "크로스핏 모브",
        "distance": 332.64750869183587,
        "walking_time": "약 5분"
      },
      {
        "fitness_lat": 37.46614432,
        "fitness_lon": 126.9016016,
        "fitness_type": "운동시설",
        "fitness_name": "퍼플짐앤요가",
        "distance": 356.63448874903514,
        "walking_time": "약 6분"
      },
      {
        "fitness_lat": 37.46935918,
        "fitness_lon": 126.8970019,
        "fitness_type": "운동시설",
        "fitness_name": "1981골프앤휘트니스",
        "distance": 378.3545338062705,
        "walking_time": "약 6분"
      },
      {
        "fitness_lat": 37.46790837,
        "fitness_lon": 126.8969045,
        "fitness_type": "운동시설",
        "fitness_name": "바디다짐",
        "distance": 418.49979655815713,
        "walking_time": "약 7분"
      },
      {
        "fitness_lat": 37.4658572,
        "fitness_lon": 126.8980248,
        "fitness_type": "운동시설",
        "fitness_name": "슬림한 바디",
        "distance": 482.8473684631292,
        "walking_time": "약 8분"
      },
      {
        "fitness_lat": 37.4652296,
        "fitness_lon": 126.9034354,
        "fitness_type": "운동시설",
        "fitness_name": "짐웨이 독산점",
        "distance": 494.9621386127,
        "walking_time": "약 8분"
      },
      {
        "fitness_lat": 37.46896278,
        "fitness_lon": 126.8956207,
        "fitness_type": "운동시설",
        "fitness_name": "팩토리짐",
        "distance": 502.0202333985095,
        "walking_time": "약 8분"
      }
    ],
    "gas_station": [
      {
        "gas_station_lat": 37.46984519,
        "gas_station_lon": 126.9024301,
        "gas_station_type": "주유소",
        "gas_station_name": "남서울(경복에너지)",
        "distance": 115.20500027121862,
        "walking_time": "약 2분"
      },
      {
        "gas_station_lat": 37.47315113,
        "gas_station_lon": 126.8978961,
        "gas_station_type": "주유소",
        "gas_station_name": "SK에너지㈜ 이가주유소",
        "distance": 518.7057851575665,
        "walking_time": "약 8분"
      },
      {
        "gas_station_lat": 37.47682775,
        "gas_station_lon": 126.8991106,
        "gas_station_type": "주유소",
        "gas_station_name": "㈜화동유업",
        "distance": 854.288431970481,
        "walking_time": "약 13분"
      },
      {
        "gas_station_lat": 37.46050444,
        "gas_station_lon": 126.9044471,
        "gas_station_type": "주유소",
        "gas_station_name": "현대오일뱅크(주)직영 금천현대셀프주유소",
        "distance": 1021.4562277894572,
        "walking_time": "약 16분"
      },
      {
        "gas_station_lat": 37.45891357,
        "gas_station_lon": 126.8994039,
        "gas_station_type": "주유소",
        "gas_station_name": "(주)진우에너지 백운주유소",
        "distance": 1171.4636031887335,
        "walking_time": "약 18분"
      },
      {
        "gas_station_lat": 37.47786965,
        "gas_station_lon": 126.9143629,
        "gas_station_type": "주유소",
        "gas_station_name": "문성골주유소",
        "distance": 1493.4097765684985,
        "walking_time": "약 23분"
      },
      {
        "gas_station_lat": 37.47341197,
        "gas_station_lon": 126.9188013,
        "gas_station_type": "주유소",
        "gas_station_name": "난곡주유소",
        "distance": 1610.371073680957,
        "walking_time": "약 25분"
      },
      {
        "gas_station_lat": 37.46497234,
        "gas_station_lon": 126.9196659,
        "gas_station_type": "주유소",
        "gas_station_name": "현대주유소",
        "distance": 1693.083102353355,
        "walking_time": "약 26분"
      }
    ],
    "hospital": [
      {
        "hospital_lat": 37.46932767,
        "hospital_lon": 126.9022344,
        "hospital_type": "병원",
        "hospital_name": "보성한의원",
        "distance": 83.44967852642105,
        "walking_time": "약 2분"
      },
      {
        "hospital_lat": 37.46891899,
        "hospital_lon": 126.9025861,
        "hospital_type": "병원",
        "hospital_name": "박재영치과의원",
        "distance": 123.76023089013574,
        "walking_time": "약 2분"
      },
      {
        "hospital_lat": 37.46866206,
        "hospital_lon": 126.9026334,
        "hospital_type": "병원",
        "hospital_name": "청목한의원",
        "distance": 140.6896949280015,
        "walking_time": "약 3분"
      },
      {
        "hospital_lat": 37.46788619,
        "hospital_lon": 126.9017506,
        "hospital_type": "병원",
        "hospital_name": "조내과의원",
        "distance": 166.9260164254834,
        "walking_time": "약 3분"
      },
      {
        "hospital_lat": 37.46730791,
        "hospital_lon": 126.901624,
        "hospital_type": "병원",
        "hospital_name": "한가람한의원",
        "distance": 228.1046104265936,
        "walking_time": "약 4분"
      },
      {
        "hospital_lat": 37.46967888,
        "hospital_lon": 126.8984939,
        "hospital_type": "병원",
        "hospital_name": "한일치과의원",
        "distance": 249.5036276658358,
        "walking_time": "약 4분"
      },
      {
        "hospital_lat": 37.470584,
        "hospital_lon": 126.8985526,
        "hospital_type": "병원",
        "hospital_name": "연세길마취통증의학과의원",
        "distance": 278.1940909323811,
        "walking_time": "약 5분"
      },
      {
        "hospital_lat": 37.470584,
        "hospital_lon": 126.8985526,
        "hospital_type": "병원",
        "hospital_name": "이편한연세치과의원",
        "distance": 278.1940909323811,
        "walking_time": "약 5분"
      },
      {
        "hospital_lat": 37.46808784,
        "hospital_lon": 126.8985485,
        "hospital_type": "병원",
        "hospital_name": "아카시아병원",
        "distance": 279.184698252557,
        "walking_time": "약 5분"
      },
      {
        "hospital_lat": 37.46845624,
        "hospital_lon": 126.898315,
        "hospital_type": "병원",
        "hospital_name": "시민한의원",
        "distance": 280.3376225985329,
        "walking_time": "약 5분"
      }
    ],
    "music_room": [
      {
        "music_room_lat": 37.46911657,
        "music_room_lon": 126.9013696,
        "music_room_type": "노래방",
        "music_room_name": "팝 노래연습장",
        "distance": 26.056396454201632,
        "walking_time": "약 1분"
      },
      {
        "music_room_lat": 37.46906614,
        "music_room_lon": 126.901516,
        "music_room_type": "노래방",
        "music_room_name": "보노코인 노래연습장",
        "distance": 36.63671725575512,
        "walking_time": "약 1분"
      },
      {
        "music_room_lat": 37.46889364,
        "music_room_lon": 126.9013508,
        "music_room_type": "노래방",
        "music_room_name": "뉴월드",
        "distance": 50.15280035168333,
        "walking_time": "약 1분"
      },
      {
        "music_room_lat": 37.46890241,
        "music_room_lon": 126.9014921,
        "music_room_type": "노래방",
        "music_room_name": "브아이피(VIP) 노래연습장",
        "distance": 52.06294838733543,
        "walking_time": "약 1분"
      },
      {
        "music_room_lat": 37.46904123,
        "music_room_lon": 126.9017917,
        "music_room_type": "노래방",
        "music_room_name": "커플",
        "distance": 55.55855386522263,
        "walking_time": "약 1분"
      },
      {
        "music_room_lat": 37.46885875,
        "music_room_lon": 126.9017542,
        "music_room_type": "노래방",
        "music_room_name": "애플노래연습장",
        "distance": 67.6239284451114,
        "walking_time": "약 2분"
      },
      {
        "music_room_lat": 37.4689867,
        "music_room_lon": 126.9020874,
        "music_room_type": "노래방",
        "music_room_name": "텐시",
        "distance": 80.78155157795739,
        "walking_time": "약 2분"
      },
      {
        "music_room_lat": 37.46878048,
        "music_room_lon": 126.9021152,
        "music_room_type": "노래방",
        "music_room_name": "쟁반",
        "distance": 95.99540442024018,
        "walking_time": "약 2분"
      },
      {
        "music_room_lat": 37.4691027,
        "music_room_lon": 126.9002061,
        "music_room_type": "노래방",
        "music_room_name": "수",
        "distance": 99.20457435391096,
        "walking_time": "약 2분"
      },
      {
        "music_room_lat": 37.46939724,
        "music_room_lon": 126.9026885,
        "music_room_type": "노래방",
        "music_room_name": "차차차",
        "distance": 123.66277461043003,
        "walking_time": "약 2분"
      }
    ],
    "park": [
      {
        "park_lat": 37.469625,
        "park_lon": 126.9079509,
        "park_type": "공원",
        "park_name": "감로천생태공원(관악산)",
        "distance": 588.7735827418726,
        "walking_time": "약 9분"
      },
      {
        "park_lat": 37.468164,
        "park_lon": 126.908681,
        "park_type": "공원",
        "park_name": "금천체육공원(관악산)",
        "distance": 665.3922208758584,
        "walking_time": "약 10분"
      },
      {
        "park_lat": 37.4734274,
        "park_lon": 126.9090028,
        "park_type": "공원",
        "park_name": "만수천공원(관악산)",
        "distance": 818.4034735244454,
        "walking_time": "약 13분"
      }
    ],
    "park_station": [
      {
        "park_station_lat": 37.4694679,
        "park_station_lon": 126.9019459,
        "park_station_type": "주차장",
        "park_station_name": "공유) 05-07구역",
        "distance": 59.63974312043784,
        "walking_time": "약 1분"
      },
      {
        "park_station_lat": 37.4700058,
        "park_station_lon": 126.9011826,
        "park_station_type": "주차장",
        "park_station_name": "공유) 05-00구역",
        "distance": 74.40608720962757,
        "walking_time": "약 2분"
      },
      {
        "park_station_lat": 37.47067295,
        "park_station_lon": 126.9004824,
        "park_station_type": "주차장",
        "park_station_name": "공유) 05-99구역",
        "distance": 164.22451325120065,
        "walking_time": "약 3분"
      },
      {
        "park_station_lat": 37.46779186,
        "park_station_lon": 126.9015412,
        "park_station_type": "주차장",
        "park_station_name": "공유) 05-08구역",
        "distance": 173.79881615086424,
        "walking_time": "약 3분"
      },
      {
        "park_station_lat": 37.46788083,
        "park_station_lon": 126.9001846,
        "park_station_type": "주차장",
        "park_station_name": "공유) 05-09구역",
        "distance": 189.46758975166244,
        "walking_time": "약 3분"
      },
      {
        "park_station_lat": 37.4700021,
        "park_station_lon": 126.8990506,
        "park_station_type": "주차장",
        "park_station_name": "공유) 05-03구역",
        "distance": 210.7403094492012,
        "walking_time": "약 4분"
      },
      {
        "park_station_lat": 37.47064036,
        "park_station_lon": 126.8991301,
        "park_station_type": "주차장",
        "park_station_name": "공유) 05-04구역",
        "distance": 239.04786569608268,
        "walking_time": "약 4분"
      },
      {
        "park_station_lat": 37.46781371,
        "park_station_lon": 126.9034458,
        "park_station_type": "주차장",
        "park_station_name": "공유) 05-12구역",
        "distance": 255.16783254671333,
        "walking_time": "약 4분"
      },
      {
        "park_station_lat": 37.46814927,
        "park_station_lon": 126.8987423,
        "park_station_type": "주차장",
        "park_station_name": "공유) 05-01구역",
        "distance": 260.9688548138188,
        "walking_time": "약 4분"
      },
      {
        "park_station_lat": 37.47023379,
        "park_station_lon": 126.9040656,
        "park_station_type": "주차장",
        "park_station_name": "공유) 05-15구역",
        "distance": 264.34598492575407,
        "walking_time": "약 4분"
      }
    ],
    "pc_room": [
      {
        "pc_room_lat": 37.468918991702,
        "pc_room_lon": 126.902586072395,
        "pc_room_type": "PC방",
        "pc_room_name": "오뚝이PC",
        "distance": 123.75790554228288,
        "walking_time": "약 2분"
      },
      {
        "pc_room_lat": 37.4696788834165,
        "pc_room_lon": 126.898493915166,
        "pc_room_type": "PC방",
        "pc_room_name": "OX PC",
        "distance": 249.50236142433184,
        "walking_time": "약 4분"
      },
      {
        "pc_room_lat": 37.4712897864772,
        "pc_room_lon": 126.902873411767,
        "pc_room_type": "PC방",
        "pc_room_name": "초롱PC",
        "distance": 257.7989842783771,
        "walking_time": "약 4분"
      },
      {
        "pc_room_lat": 37.4686959961273,
        "pc_room_lon": 126.904245146011,
        "pc_room_type": "PC방",
        "pc_room_name": "생생PC방",
        "distance": 270.5984693306308,
        "walking_time": "약 5분"
      },
      {
        "pc_room_lat": 37.4711901107752,
        "pc_room_lon": 126.899187218548,
        "pc_room_type": "PC방",
        "pc_room_name": "188PC",
        "distance": 276.83148400719955,
        "walking_time": "약 5분"
      },
      {
        "pc_room_lat": 37.4716559549102,
        "pc_room_lon": 126.903310316281,
        "pc_room_type": "PC방",
        "pc_room_name": "PC게임",
        "distance": 313.0884614799872,
        "walking_time": "약 5분"
      },
      {
        "pc_room_lat": 37.4715689911066,
        "pc_room_lon": 126.89877216735,
        "pc_room_type": "PC방",
        "pc_room_name": "제닉스아레나pc",
        "distance": 332.6495242491431,
        "walking_time": "약 5분"
      },
      {
        "pc_room_lat": 37.4720694651831,
        "pc_room_lon": 126.903355228717,
        "pc_room_type": "PC방",
        "pc_room_name": "로또PC",
        "distance": 353.8779762452528,
        "walking_time": "약 6분"
      },
      {
        "pc_room_lat": 37.4701019566204,
        "pc_room_lon": 126.897299140809,
        "pc_room_type": "PC방",
        "pc_room_name": "스위티PC방",
        "distance": 362.11347863827945,
        "walking_time": "약 6분"
      },
      {
        "pc_room_lat": 37.4725624922826,
        "pc_room_lon": 126.90301850154,
        "pc_room_type": "PC방",
        "pc_room_name": "아이러브PC방",
        "distance": 389.27292842174927,
        "walking_time": "약 6분"
      }
    ],
    "police_office": [
      {
        "police_office_lat": 37.46953537,
        "police_office_lon": 126.9034616,
        "police_office_type": "경찰소",
        "police_office_name": "문성지구대",
        "distance": 192.9402306496748,
        "walking_time": "약 3분"
      },
      {
        "police_office_lat": 37.46464482,
        "police_office_lon": 126.8947575,
        "police_office_type": "경찰소",
        "police_office_name": "독산파출소",
        "distance": 777.8731237253402,
        "walking_time": "약 12분"
      },
      {
        "police_office_lat": 37.47920893,
        "police_office_lon": 126.8926603,
        "police_office_type": "경찰소",
        "police_office_name": "가리봉파출소",
        "distance": 1335.5012547662936,
        "walking_time": "약 20분"
      },
      {
        "police_office_lat": 37.45422118,
        "police_office_lon": 126.8998199,
        "police_office_type": "경찰소",
        "police_office_name": "금천파출소",
        "distance": 1686.350942524219,
        "walking_time": "약 26분"
      },
      {
        "police_office_lat": 37.47992421,
        "police_office_lon": 126.9156105,
        "police_office_type": "경찰소",
        "police_office_name": "미성파출소",
        "distance": 1726.8043627997135,
        "walking_time": "약 26분"
      },
      {
        "police_office_lat": 37.46111825,
        "police_office_lon": 126.91925,
        "police_office_type": "경찰소",
        "police_office_name": "난우파출소",
        "distance": 1830.04379424636,
        "walking_time": "약 28분"
      },
      {
        "police_office_lat": 37.45104272,
        "police_office_lon": 126.9125957,
        "police_office_type": "경찰소",
        "police_office_name": "백산지구대",
        "distance": 2266.3426333910147,
        "walking_time": "약 34분"
      }
    ],
    "post_office": [
      {
        "post_office_lat": 37.47019149,
        "post_office_lon": 126.8985251,
        "post_office_type": "우체국",
        "post_office_name": "서울금천우체국",
        "distance": 261.5723461926276,
        "walking_time": "약 4분"
      },
      {
        "post_office_lat": 37.47844469,
        "post_office_lon": 126.8937442,
        "post_office_type": "우체국",
        "post_office_name": "서울가산동우체국",
        "distance": 1211.5274219546775,
        "walking_time": "약 19분"
      },
      {
        "post_office_lat": 37.45822583,
        "post_office_lon": 126.9050709,
        "post_office_type": "우체국",
        "post_office_name": "서울시흥1동우체국",
        "distance": 1280.3373456247116,
        "walking_time": "약 20분"
      },
      {
        "post_office_lat": 37.47854878,
        "post_office_lon": 126.9149155,
        "post_office_type": "우체국",
        "post_office_name": "서울난곡우체국",
        "distance": 1579.2656987910286,
        "walking_time": "약 24분"
      },
      {
        "post_office_lat": 37.45315271,
        "post_office_lon": 126.900719,
        "post_office_type": "우체국",
        "post_office_name": "서울시흥동우체국",
        "distance": 1800.8697853967824,
        "walking_time": "약 27분"
      }
    ],
    "public_health_center": [
      {
        "public_health_center_lat": 37.45706565,
        "public_health_center_lon": 126.8960369,
        "public_health_center_type": "보건소",
        "public_health_center_name": "금천구보건소",
        "distance": 1441.6277894335374,
        "walking_time": "약 22분"
      }
    ],
    "school": [
      {
        "school_lat": 37.4656561906645,
        "school_lon": 126.899712928109,
        "school_type": "초등학교",
        "school_name": "서울독산초등학교",
        "distance": 432.8041113367878,
        "walking_time": "약 7분"
      },
      {
        "school_lat": 37.468777055274,
        "school_lon": 126.894474890365,
        "school_type": "중학교",
        "school_name": "가산중학교",
        "distance": 604.6405318098349,
        "walking_time": "약 10분"
      },
      {
        "school_lat": 37.4748818804257,
        "school_lon": 126.899471333222,
        "school_type": "초등학교",
        "school_name": "서울문성초등학교",
        "distance": 636.5493625842928,
        "walking_time": "약 10분"
      },
      {
        "school_lat": 37.4719826762833,
        "school_lon": 126.908186532287,
        "school_type": "초등학교",
        "school_name": "서울정심초등학교",
        "distance": 675.8370163688774,
        "walking_time": "약 11분"
      },
      {
        "school_lat": 37.4667696443557,
        "school_lon": 126.90892992546,
        "school_type": "초등학교",
        "school_name": "서울문교초등학교",
        "distance": 732.5014514527378,
        "walking_time": "약 11분"
      },
      {
        "school_lat": 37.4745944107703,
        "school_lon": 126.895368861106,
        "school_type": "중학교",
        "school_name": "세일중학교",
        "distance": 783.6201821390762,
        "walking_time": "약 12분"
      },
      {
        "school_lat": 37.4624053084957,
        "school_lon": 126.907170322675,
        "school_type": "중학교",
        "school_name": "한울중학교",
        "distance": 929.7174925005236,
        "walking_time": "약 14분"
      },
      {
        "school_lat": 37.4754682009333,
        "school_lon": 126.908493841535,
        "school_type": "중학교",
        "school_name": "문성중학교",
        "distance": 931.8305310986634,
        "walking_time": "약 14분"
      },
      {
        "school_lat": 37.467546675265,
        "school_lon": 126.890946472913,
        "school_type": "초등학교",
        "school_name": "서울두산초등학교",
        "distance": 934.34630503935,
        "walking_time": "약 14분"
      },
      {
        "school_lat": 37.4758806998687,
        "school_lon": 126.909922783649,
        "school_type": "초등학교",
        "school_name": "서울영남초등학교",
        "distance": 1053.1667869447472,
        "walking_time": "약 16분"
      }
    ],
    "supermarket": [
      {
        "supermarket_lat": 37.46935918,
        "supermarket_lon": 126.8970019,
        "supermarket_type": "마트",
        "supermarket_name": "시티렉스",
        "distance": 378.3545338062705,
        "walking_time": "약 6분"
      },
      {
        "supermarket_lat": 37.46866385,
        "supermarket_lon": 126.8968853,
        "supermarket_type": "마트",
        "supermarket_name": "홈플러스(주) 금천점",
        "distance": 395.889707217101,
        "walking_time": "약 6분"
      },
      {
        "supermarket_lat": 37.46866385,
        "supermarket_lon": 126.8968853,
        "supermarket_type": "마트",
        "supermarket_name": "삼성테스코(주)홈플러스 금천점",
        "distance": 395.889707217101,
        "walking_time": "약 6분"
      },
      {
        "supermarket_lat": 37.46866385,
        "supermarket_lon": 126.8968853,
        "supermarket_type": "마트",
        "supermarket_name": "삼성테스코(주)홈플러스 금천점",
        "distance": 395.889707217101,
        "walking_time": "약 6분"
      },
      {
        "supermarket_lat": 37.47068103,
        "supermarket_lon": 126.8956481,
        "supermarket_type": "마트",
        "supermarket_name": "롯데쇼핑(주) 롯데마트맥스 금천점",
        "distance": 519.6116602314531,
        "walking_time": "약 8분"
      },
      {
        "supermarket_lat": 37.46682635,
        "supermarket_lon": 126.8962825,
        "supermarket_type": "마트",
        "supermarket_name": "유창상가",
        "distance": 522.94910825475,
        "walking_time": "약 8분"
      },
      {
        "supermarket_lat": 37.47544481,
        "supermarket_lon": 126.8936809,
        "supermarket_type": "마트",
        "supermarket_name": "홈플러스(주)익스프레스 가산점",
        "distance": 954.616403219225,
        "walking_time": "약 15분"
      },
      {
        "supermarket_lat": 37.47806807,
        "supermarket_lon": 126.9014441,
        "supermarket_type": "마트",
        "supermarket_name": "푸른터시장",
        "distance": 970.3912468812356,
        "walking_time": "약 15분"
      },
      {
        "supermarket_lat": 37.46099111,
        "supermarket_lon": 126.8962652,
        "supermarket_type": "마트",
        "supermarket_name": "롯데캐슬 골드파크 4차 마르쉐도르 960",
        "distance": 1029.0042226122516,
        "walking_time": "약 16분"
      },
      {
        "supermarket_lat": 37.45995605,
        "supermarket_lon": 126.8966992,
        "supermarket_type": "마트",
        "supermarket_name": "롯데쇼핑(주) 금천 독산점",
        "distance": 1119.528707214478,
        "walking_time": "약 17분"
      }
    ],
    "tax_office": [
      {
        "tax_office_lat": 37.47801956,
        "tax_office_lon": 126.8997992,
        "tax_office_type": "세무서",
        "tax_office_name": "금천세무서",
        "distance": 973.8162524289046,
        "walking_time": "약 15분"
      }
    ],
    "theater": [
      {
        "theater_lat": 37.4693591753013,
        "theater_lon": 126.897001948519,
        "theater_type": "영화관",
        "theater_name": "롯데시네마 독산",
        "distance": 378.3502492841916,
        "walking_time": "약 6분"
      }
    ]
  }
}