카테고리,기관명,주소,위도,경도
어린이집,홍어린이집,"서울특별시 광진구 자양로 55 2동 15호(자양동, 자양)",32.5220735,123.7417872
어린이집,시흥어린이집,서울특별시 금천구 시흥대로20길 17 (시흥동),37.44115449,126.9041962
어린이집,기독어린이집,서울특별시 금천구 시흥대로26길 28 (시흥동),37.44167594,126.9053345
어린이집,청계산어린이집,서울특별시 서초구 원터4길 6 (원지동),37.44374795,127.0560504
어린이집,새서울어린이집,서울특별시 금천구 시흥대로36길 23 (시흥동),37.4440859,126.9051027
어린이집,구립남서울힐스테이트어린이집,서울특별시 금천구 시흥대로 165 남서울힐스테이트아파트 커뮤니티센터,37.44605871,126.90066564799208
어린이집,자연유아어린이집,서울특별시 금천구 시흥대로40길 93 (시흥동),37.4467397,126.9082431
어린이집,신세계어린이집,서울특별시 금천구 시흥대로40가길 16 (시흥동),37.44677444,126.9058614
어린이집,물빛사랑어린이집,서울특별시 금천구 시흥대로40마길 23-1,37.44751295,126.9086489
어린이집,샤론어린이집,서울특별시 금천구 시흥대로39길 48-3 (시흥1동) 시흥1동 492-24,37.44757999,126.9026559
어린이집,물빛어린이집,서울특별시 금천구 시흥대로40마길 23-3 (시흥5동),37.44758825,126.9086071
어린이집,또래끼리어린이집,서울특별시 금천구 독산로8다길 6-1,37.44763354,126.9080482
어린이집,양문어린이집,서울특별시 금천구 시흥대로45길 35 (시흥동) 1층,37.44825058,126.9002547
어린이집,꿈사랑가정어린이집,"서울특별시 금천구 금하로 816 505동 103호(시흥동, 벽산5단지아파트)",37.44825613,126.9186276
어린이집,키즈어린이집,"서울특별시 금천구 금하로 816 520동 101호(시흥동, 벽산5단지아파트)",37.44825613,126.9186276
어린이집,새동산어린이집,서울특별시 금천구 독산로2길 6 (시흥동),37.44833406,126.9037117
어린이집,본동어린이집,서울특별시 금천구 독산로 12 (시흥동),37.44859542,126.9043013
어린이집,아이원어린이집,서울특별시 금천구 시흥대로 165 남서울힐스테이트아파트 103동102호(시흥1동 789),37.4487623,126.8991826
어린이집,늘사랑어린이집,"서울특별시 금천구 시흥대로47길 43 5동 101호(시흥동, 럭키남서울아파트)",37.4487623,126.8991826
어린이집,큰사랑어린이집,"서울특별시 금천구 금하로30길 34 101동 106호(시흥동, 탑스빌아파트)",37.44892434,126.9155394
어린이집,구립화목한어린이집,"서울특별시 금천구 독산로10길 96 1동 110호(시흥동, 남서울건영2차아파트)",37.44939216,126.9104638
어린이집,내또래어린이집,"서울특별시 금천구 독산로10길 96 2동 107호(시흥동, 남서울건영2차아파트)",37.44939216,126.9104638
어린이집,올리브나무어린이집,"서울특별시 금천구 금하로 750 104동102호(시흥동, 관악우방아파트)",37.44940729,126.9136733
어린이집,한사랑어린이집,"서울특별시 금천구 금하로 750 106동 102호(시흥동, 관악우방아파트)",37.44940729,126.9136733
어린이집,벽산어린이집,"서울특별시 금천구 금하로 816 517동 102호(시흥동, 관악산벽산타운아파트)",37.4496912,126.9219478
어린이집,예원어린이집,"서울특별시 금천구 금하로 816 513동 103호(시흥동, 관악산벽산타운아파트)",37.4496912,126.9219478
어린이집,구립유나어린이집,"서울특별시 금천구 금하로 816 516동 102호(시흥동, 관악산벽산타운아파트)",37.449738,126.919846
어린이집,구립하늘빛어린이집,"서울특별시 금천구 금하로 816 510동 103호(시흥동, 관악산벽산타운아파트)",37.449738,126.919846
어린이집,구립벽산에덴어린이집,"서울특별시 금천구 금하로 816 512동 103호(시흥동, 관악산벽산타운아파트)",37.449738,126.919846
어린이집,구립벽산꿈어린이집,"서울특별시 금천구 금하로 816 511동 102호(시흥동, 벽산5단지아파트)",37.449738,126.919846
어린이집,꼬마또래어린이집,"서울특별시 금천구 금하로 816 518동 101호(시흥동, 관악산벽산타운아파트)",37.449738,126.919846
어린이집,아이사랑가정어린이집,"서울특별시 금천구 금하로 816 519동 106호(시흥동, 관악산벽산타운아파트)",37.449738,126.919846
어린이집,벽산타운사임당어린이집,"서울특별시 금천구 금하로 816 517동 103호(시흥동, 관악산벽산타운아파트)",37.449738,126.919846
어린이집,벽산에덴어린이집,"서울특별시 금천구 금하로 816 512동 103호(시흥동, 관악산벽산타운아파트)",37.44977836,126.9200223
어린이집,구립우솔어린이집,서울특별시 금천구 금하로 816 벽산아파트 518-101,37.44977836,126.9200223
어린이집,구립봄샘어린이집,서울특별시 금천구 금하로 796 벽산6단지 아파트 관리동,37.45006019,126.9167752
어린이집,에덴어린이집,서울특별시 금천구 독산로10길 33 (시흥동),37.45025027,126.9076677
어린이집,제일교회 방과후교실,서울특별시 금천구 탑골로2길 56 제일교회내 (시흥동),37.45041094,126.9131705
어린이집,푸르미어린이집,서울특별시 금천구 금하로 733-3,37.45075421,126.9113075
어린이집,키즈맘어린이집,"서울특별시 금천구 시흥대로51길 55 1동 105호(시흥동, 성지아파트)",37.45110509,126.8978361
어린이집,무지개어린이집,"서울특별시 서초구 신흥말길 79-3 103동 1층(내곡동, 무지개아파트)",37.451146,127.0840803
어린이집,미소천사어린이집,서울특별시 금천구 금하로14길 51 (시흥동),37.45120393,126.9042982
어린이집,청담종합사회복지관방과후전담어린이집,서울특별시 금천구 금하로29길 36 (시흥동),37.45143416,126.9137186
어린이집,동산방과후교실,서울특별시 금천구 탑골로 26 (시흥동),37.45176972,126.9119958
어린이집,구립동산어린이집,서울특별시 금천구 탑골로 26 (시흥동),37.45176972,126.9119958
어린이집,이드어린이집,서울특별시 금천구 탑골로 25 (시흥동),37.45201438,126.9119493
어린이집,청담어린이집,서울특별시 금천구 탑골로 35 (시흥동),37.45205489,126.9132191
어린이집,예랑어린이집,서울특별시 금천구 금하로23길 19 (시흥동),37.45207719,126.9085012
어린이집,생명어린이집,서울특별시 금천구 금하로23길 19 (시흥동),37.45209463,126.9085101
어린이집,구립또래어린이집,"서울특별시 금천구 금하로 793 115동 103호(시흥동, 벽산아파트)",37.452198,126.91824
어린이집,행복한에덴어린이집,"서울특별시 금천구 금하로 793 106동 102호(시흥동, 벽산아파트)",37.452198,126.91824
어린이집,뽀로롱어린이집,"서울특별시 금천구 금하로23라길 31 107호(신현대아파트, 시흥동)",37.45236903,126.9081975
어린이집,둘리어린이집,서울특별시 금천구 독산로14길 5 (시흥동),37.4523699,126.9071215
어린이집,수호천사어린이집,서울특별시 금천구 독산로 62 (시흥동),37.45279885,126.9062506
어린이집,구립예본몬테소리어린이집,서울특별시 금천구 독산로22길 94 (시흥동),37.45296074,126.9113908
어린이집,내곡어린이집,서울특별시 서초구 홍씨마을길 25 (내곡동),37.45318114,127.0654599
어린이집,지성어린이집,서울특별시 금천구 독산로22길 44 (시흥동),37.45326131,126.9083212
어린이집,백상어린이집,서울특별시 금천구 탑골로3길 50 구현대아파트 단지내 시흥동,37.45340782,126.9140528
어린이집,빨강둘리어린이집,서울특별시 금천구 독산로22길 10 (시흥동),37.45345989,126.9067993
어린이집,햇살어린이집,서울특별시 금천구 독산로22길 15 (시흥동),37.4537507,126.9071647
어린이집,동화나라어린이집,서울특별시 금천구 독산로 78-1,37.45451872,126.906811
어린이집,구립꿈나래어린이집,서울특별시 금천구 금하로3길 32 (시흥동),37.4548504,126.8976059
어린이집,사과나무어린이집,"서울특별시 금천구 독산로24길 36 B동 101호(시흥동, 현주빌라)",37.45505285,126.9068869
어린이집,천사마을어린이집,서울특별시 금천구 독산로24길 19 (시흥동),37.45525473,126.9070874
어린이집,도토리자연어린이집,"서울특별시 금천구 한내로 62 4동 104호(독산동, 한신)",37.45553904,126.8894522
어린이집,금천이레어린이집,"서울특별시 금천구 한내로 62 5동 104호(독산동, 한신)",37.45553904,126.8894522
어린이집,한신어린이집,"서울특별시 금천구 한내로 62 3동 104호(독산동, 한신)",37.45553904,126.8894522
어린이집,한신붕붕어린이집,"서울특별시 금천구 한내로 62 6동 101호(독산동, 한신)",37.45553904,126.8894522
어린이집,주은어린이집,"서울특별시 금천구 한내로 62 3동 101호(독산동, 한신)",37.45553904,126.8894522
어린이집,다솜어린이집,서울특별시 금천구 시흥대로62가길 23-1,37.45562155,126.9030131
어린이집,예화어린이집,서울특별시 금천구 독산로25길 28 (시흥동),37.45599925,126.9049731
어린이집,영어린이집,서울특별시 관악구 쑥고개로2가길 35-5 관악구 신림동95-53 [서림동](신림동),37.45611942,126.9480588
어린이집,숲속마을어린이집,"서울특별시 금천구 시흥대로73길 11 1동 121호(시흥동, 무지개아파트)",37.45614096,126.8983103
어린이집,구립금주어린이집,서울특별시 금천구 시흥대로70길 34 (시흥동),37.45666021,126.9008526
어린이집,꿈동산 어린이집,서울특별시 금천구 독산로 106 (시흥동),37.45674816,126.905767
어린이집,금나래어린이집,서울특별시 금천구 시흥대로73길 70 금천구청 2층 (시흥동),37.45678866,126.8953983
어린이집,시흥삐아제어린이집,서울특별시 금천구 독산로27길 33 (시흥동),37.45684545,126.9048061658592
어린이집,시흥중앙교회 방과후교실어린이집,서울특별시 금천구 시흥대로72길 13 (시흥동),37.45722658,126.9002306
어린이집,캐슬아이어린이집,서울특별시 금천구 벚꽃로 30 1층,37.45822355,126.8937097
어린이집,세광어린이집,서울특별시 금천구 독산로 124 세광교회 내 (시흥동),37.45826134,126.905607
어린이집,세광방과후교실어린이집,서울특별시 금천구 독산로 124 (시흥동),37.45826134,126.905607
어린이집,구립지혜어린이집,서울특별시 금천구 시흥대로76길 19 골드빌 101호,37.45831234,126.9004912048544
어린이집,지혜어린이집,서울특별시 금천구 시흥대로76길 19 골드빌101호 (시흥동),37.45844946,126.9000533
어린이집,하람어린이집,"서울특별시 관악구 난곡로 55 202동 101호(관악산휴먼시아,신림동)",37.45845075,126.9204367
어린이집,초콜릿어린이집,"서울특별시 금천구 독산로32나길 36 A동 104호(시흥동, 동보빌라)",37.45862913,126.907669
어린이집,다슬어린이집,서울특별시 금천구 시흥대로68길 89 (시흥동),37.45871638,126.9034698
어린이집,구립시흥4동어린이집,서울특별시 금천구 독산로36길 14 (시흥동),37.45897206,126.9061686
어린이집,한아름어린이집,서울특별시 금천구 독산로41가길 25 (시흥동),37.45901895,126.9018004
어린이집,일광어린이집,서울특별시 금천구 독산로35가길 8 (시흥동),37.45932039,126.9031151
어린이집,기쁨샘몬테소리어린이집,"서울특별시 관악구 난곡로 55 232동 104호(신림동, 관악산휴먼시아아파트)  [난향동]",37.45974045,126.9207531
어린이집,휴먼시아어린이집,"서울특별시 관악구 난곡로 55 201동 101호(신림동, 관악산휴먼시아2단지아파트)  [난향동]",37.45974045,126.9207531
어린이집,삼익어린이집,"서울특별시 금천구 독산로50길 89 112-101호(시흥동, 삼익아파트)",37.46011503,126.9080679
어린이집,구립옥계어린이집,서울특별시 금천구 시흥대로86길 20 (독산동),37.46014384,126.9002919
어린이집,행복한 i세상 어린이집,서울특별시 강남구 헌릉로590길 63 세곡리엔파크 아파트 201동101호,37.4602143,127.1000103
어린이집,구립슬기어린이집,"서울특별시 금천구 한내로 69-54 1402동 101호(독산동, 주공14단지아파트)",37.46021643,126.8858129
어린이집,엔젤키즈어린이집,"서울특별시 금천구 한내로 69-54 1402동 101호(독산동, 주공아파트)",37.46024777,126.8866607
어린이집,예사랑어린이집,"서울특별시 금천구 한내로 69-54 1402동 103호(독산동, 주공14단지아파트)",37.46024777,126.8866607
어린이집,꼬꼬마해맑은어린이집,서울특별시 금천구 독산로35길 15-6 한백아트101호 (시흥동),37.46026097,126.9039762
어린이집,초록어린이집,서울특별시 강남구 헌릉로590길 63 세곡5단지 리엔파크 관리동,37.46033783,127.1016068
어린이집,예쁜씨앗어린이집,서울특별시 금천구 시흥대로84길 28 신세계타운101호 (독산동),37.46035875,126.9011161
어린이집,새라어린이집,서울특별시 금천구 독산로47가길 42 (독산동),37.46047691,126.9020989
어린이집,별찌어린이집,서울특별시 금천구 벚꽃로6길 3 102동 102호,37.4606083,126.892463
어린이집,맘엔아이 어린이집,서울특별시 강남구 헌릉로590길 63 세곡리엔파크 아파트 206동104호,37.46069683,127.1019449
어린이집,굿모닝어린이집,서울특별시 관악구 호암로 417 국제산장아파트 관리동 2층 [삼성동] (신림동),37.46077396,126.9277761
어린이집,키즈스마일어린이집,서울특별시 금천구 독산로36길 73 오성로얄아파트 101호 (시흥동),37.46096545,126.9084398
어린이집,숲속마을어린이집,서울특별시 금천구 시흥대로88길 21-8,37.46105588,126.900699
어린이집,꼬마정원어린이집,서울특별시 금천구 독산로36길 95 (시흥동),37.46115689,126.9095584
어린이집,꼬꼬마어린이집,"서울특별시 관악구 호암로 399 306동 101호(신림동,삼성산주공아파트)   [삼성동]",37.46137254,126.9254535
어린이집,이큐어린이집,"서울특별시 관악구 호암로 399 303동 102호(신림동,삼성산주공아파트)   [삼성동]",37.46137254,126.9254535
어린이집,큐티프리스쿨어린이집,"서울특별시 관악구 호암로 399 관리동 (신림동,삼성산주공아파트)  [삼성동]",37.46137254,126.9254535
어린이집,하나어린이집,서울특별시 금천구 독산로50다길 8 진이아트빌라 102호(시흥동),37.46192121,126.9103645
어린이집,구립율곡어린이집,서울특별시 관악구 신우길 1 (신림동)  [삼성동],37.46194166,126.9325477
어린이집,금천아기숲어린이집,서울특별시 금천구 시흥대로90길 38 태양빌라 101호 (독산동),37.46198467,126.9000004
어린이집,산돌어린이집,서울특별시 금천구 시흥대로88가길 30 (독산동),37.46205244,126.9007963
어린이집,삼성산행복한어린이집,"서울특별시 관악구 호암로 399 309동 105호(신림동, 삼성산주공아파트)",37.46240473,126.9261748
어린이집,큐티아기스쿨어린이집,"서울특별시 관악구 호암로 399 303동103호(신림동,삼성산주공아파트)   [삼성동]",37.46240473,126.9261748
어린이집,구립도로시몬테소리어린이집,"서울특별시 금천구 벚꽃로 73 108동 106호(독산동, 금천현대아파트)",37.46254233,126.8902586
어린이집,현대키즈어린이집,"서울특별시 금천구 벚꽃로 73 101동 102호(독산동, 금천현대아파트)",37.46254233,126.8902586
어린이집,현대참사랑어린이집,서울특별시 금천구 벚꽃로 73 금천현대아파트 단지내 (독산동),37.46254233,126.8902586
어린이집,금빛어린이집,서울특별시 금천구 독산로49길 6 (독산동),37.46267037,126.9032967
어린이집,한우리어린이집,서울특별시 금천구 독산로50길 57 (시흥동),37.46270328,126.9075306
어린이집,유신어린이집,서울특별시 관악구 난곡로 84 2층 (신림동)  [난향동],37.46285401,126.9194155
어린이집,아람어린이집,서울특별시 서초구 태봉로2길 5 네이처힐5단지 관리동,37.4629814,127.0242186
어린이집,새싹빅스맘어린이집,"서울특별시 서초구 형촌길 15 208-101(우면동, 서초네이처힐아파트)",37.4630323,127.0218042
어린이집,양지1어린이집,"서울특별시 서초구 샘마을길 73 내곡동, 양지1어린이집",37.46319487,127.070751
어린이집,구립튼튼이어린이집,서울특별시 금천구 독산로50길 23,37.46321807,126.90564358276366
어린이집,멜로디 어린이집,"서울특별시 금천구 독산로50길 89 102동 104호(시흥동, 삼익아파트)",37.46327833,126.9095988
어린이집,엔젤키즈맘어린이집,서울특별시 금천구 독산로28길 7,37.46327833,126.9095988
어린이집,아름누리어린이집,서울특별시 금천구 독산로50길 89 삼익아파트 단지내,37.46327833,126.9095988
어린이집,동심어린이집,서울특별시 금천구 독산로56길 34 (시흥동),37.46349399,126.905247
어린이집,도담어린이집,서울특별시 서초구 태봉로2길 65 네이처힐4단지 관리동 1층,37.46350724,127.0259911
어린이집,요요어린이집,서울특별시 금천구 독산로51길 45 (독산동),37.46352718,126.9015423
어린이집,믿음어린이집,서울특별시 금천구 시흥대로100길 38 (독산동),37.46414123,126.8995551
어린이집,동그라미어린이집,서울특별시 금천구 벚꽃로 73 금천현대 101-106,37.46428589,126.8962273
어린이집,연세어린이집,서울특별시 금천구 독산로65길 14 (독산동),37.46431823,126.902019
어린이집,키즈랜드어린이집,서울특별시 강남구 헌릉로590길 100 리엔파크 1단지 관리동 내 키즈랜드어린이집,37.46436664,127.1029851
어린이집,리엔어린이집,서울특별시 강남구 헌릉로590길 11 세곡리엔파크3단지 관리동,37.46438836,127.1041649
어린이집,예원몬테소리어린이집,서울특별시 강남구 헌릉로590길 11 세곡리엔파크아파트 307동 102호,37.46438836,127.1041649
어린이집,애기똥풀어린이집,서울특별시 금천구 독산로58가길 56 (독산동),37.46440605,126.9068265
어린이집,구립기쁨어린이집,서울특별시 금천구 범안로12길 63-3 (독산동),37.46447495,126.8935127
어린이집,예원예능어린이집,서울특별시 금천구 시흥대로104길 26 (독산동),37.46448792,126.8992425
어린이집,구름빵어린이집,서울특별시 강남구 헌릉로590길 10 신동아파밀리에 관리동,37.46450498,127.102682
어린이집,솜사탕어린이집,서울특별시 금천구 독산로58나길 38 101호,37.46457383,126.9064422
어린이집,산돌어린이집,서울특별시 금천구 시흥대로104길 20 (독산동),37.46457842,126.898511
어린이집,구립예담어린이집,"서울특별시 금천구 범안로 1136 103동 104호(독산동, 중앙하이츠아파트)",37.46469895,126.8887685
어린이집,해뜨는어린이집,"서울특별시 금천구 범안로 1136 103동 102호(독산동, 독산동중앙하이츠빌)",37.46469895,126.8887685
어린이집,아이사랑어린이집,서울특별시 관악구 난곡로9길 6 (신림동)  [난향동],37.4647271,126.9187539
어린이집,공간어린이집,서울특별시 금천구 독산로67길 19 (독산동),37.46483354,126.9015254
어린이집,리틀영재어린이집,서울특별시 금천구 독산로67길 22 (독산동),37.46488555,126.901207
어린이집,호야 어린이집,서울특별시 강남구 헌릉로590길 11 세곡 리엔 파크 아파트 307-103,37.46539016,127.10333
어린이집,브레인어린이집,서울특별시 강남구 헌릉로590길 10 세곡리엔파크아파트 201동 101호,37.46540192,127.1029806
어린이집,씽씽어린이집,"서울특별시 관악구 대학18길 6 101동 208호(신림동, 금호타운1차)  [대학동]",37.46554573,126.9373545
어린이집,예쁜친구어린이집,"서울특별시 관악구 난곡로 55 207동 101호(신림동, 관악산휴먼시아2단지아파트)",37.46573725,126.9449295
어린이집,남태령어린이집,서울특별시 서초구 전원말길 6 (방배동),37.46581157,126.9887779
어린이집,아가페사랑어린이집,서울특별시 금천구 독산로69길 24 행복타운빌라 101호 (독산동),37.4658834,126.9012501
어린이집,구립싱글벙글어린이집,서울특별시 금천구 독산로64나길 1 행복타운102호 (독산동),37.46588778,126.9031762
어린이집,구립동산어린이집,서울특별시 관악구 대학14길 56 (신림동)  [대학동],37.46594459,126.9351567
어린이집,성혜어린이집,서울특별시 관악구 난곡로16길 30-6 (신림동)  [난곡동],37.46598349,126.9219945
어린이집,열린공간어린이집,서울특별시 금천구 독산로64길 45 (독산동),37.46604129,126.9047656
어린이집,사랑샘어린이집,"서울특별시 관악구 난곡로 55 219동 104호(신림동, 관악산휴먼시아2단지아파트)",37.46609523,126.9280393
어린이집,다사랑 방과후교실,서울특별시 금천구 독산로64길 49 (독산동),37.46610789,126.9049523
어린이집,구립독산e편한어린이집,서울특별시 금천구 범안로 1212,37.4661696,126.8943207
어린이집,지밸리경협어린이집,"서울특별시 금천구 가산디지털1로 1 더루벤스밸리 305,306,307호",37.46627974,126.8871737
어린이집,구립미림어린이집,서울특별시 관악구 태흥길 4 (신림동)  [삼성동],37.46637006,126.9309247
어린이집,충성어린이집,서울특별시 관악구 과천대로 851 부대안 [남현동] (남현동),37.46640291,126.9861778
어린이집,한솔키즈빌어린이집,서울특별시 금천구 독산로58나길 81 (독산동),37.46656219,126.9066255
어린이집,창조예능어린이집,서울특별시 금천구 독산로64다길 23 (독산동),37.46659498,126.9037458
어린이집,성민장애아동어린이집,서울특별시 관악구 호암로 549 성민종합사회복지관 4층(신림동) [삼성동],37.46678933,126.9312403
어린이집,금천소망교회방과후전담어린이집,서울특별시 금천구 범안로 1187 (독산동),37.46683622,126.8936656
어린이집,소망어린이집,서울특별시 금천구 범안로 1187 (독산동),37.46683622,126.8936656
어린이집,엄마사랑어린이집,"서울특별시 금천구 범안로15길 7 101동 104호(독산동, 계룡아파트)",37.46693191,126.8927225
어린이집,엘림어린이집,서울특별시 금천구 독산로70길 39 (독산동),37.46695769,126.9038954
어린이집,코보어린이집,서울특별시 금천구 독산로64길 75 (독산동) 1층,37.46708049,126.9058674
어린이집,성촌어린이집,서울특별시 서초구 성촌6길 1 (우면동),37.46718103,127.0206405
어린이집,렘넌트어린이집,"서울특별시 금천구 시흥대로112길 6 101동 102호(독산동, 대덕트윈빌아파트)",37.46730512,126.8991063
어린이집,정어린이집,서울특별시 금천구 독산로70길 72-6,37.46739236,126.9056853
어린이집,솔향기어린이집,서울특별시 관악구 난곡로15길 22-4 (신림동)  [난곡동],37.46740537,126.9194338
어린이집,구립솔지어린이집,서울특별시 금천구 독산로68길 95 (독산동),37.46750895,126.9067937
어린이집,선민어린이집,서울특별시 관악구 대학10길 27 선민교회 2층 (신림동)  [대학동],37.46761009,126.935942
어린이집,서울대학교어린이보육지원센터 백학어린이집,서울특별시 관악구 관악로 1 (봉천동) [낙성대동],37.46761613,126.9628638
어린이집,구립정심어린이집,서울특별시 금천구 독산로54길 129 (독산동),37.46814563,126.9071451
어린이집,알곡방과후교실어린이집,서울특별시 관악구 난곡로24길 42 (난곡동) (신림동),37.46840629,126.9211941
어린이집,구립예람어린이집,서울특별시 금천구 독산로72길 11-16,37.46846646,126.9030673
어린이집,향기어린이집,"서울특별시 금천구 시흥대로120길 44 B동 103호(독산동, 상진아파트)",37.4684851,126.9011939
어린이집,친구어린이집,서울특별시 금천구 시흥대로116길 16 (독산동),37.46865939,126.8989123
어린이집,구립양지어린이집,서울특별시 관악구 양지12길 18-1 (신림동),37.46870578,126.9284609
어린이집,청아어린이집,서울특별시 금천구 독산로78길 40 (독산동),37.46875537,126.9042942
어린이집,뽀뽀뽀어린이집,"서울특별시 관악구 난곡로 55 213동 102호(신림동, 관악산휴먼시아2단지아파트)",37.46875571,126.9457304
어린이집,예쁨어린이집,서울특별시 금천구 독산로72길 31 엠버하우스 101호(독산동),37.46901546,126.9067899
어린이집,aT어린이집,서울특별시 서초구 강남대로 27 AT센터 농수산물유통공사 2층 (양재동),37.46905393,127.0385873
어린이집,은혜어린이집,서울특별시 금천구 독산로 251 1층 은혜어린이집,37.46919601,126.9021613
어린이집,보배몬테소리어린이집,서울특별시 관악구 난곡로24다길 7 (신림동)  [난곡동],37.46919818,126.92181932694542
어린이집,푸른산 어린이집,서울 강남구 세곡동 세곡리엔파크 @201-101,37.4692922,127.107317
어린이집,성아어린이집,서울특별시 관악구 난곡로22길 23 (신림동)  [난곡동],37.46933104,126.9206325
어린이집,자연어린이집,서울특별시 금천구 독산로 254 (독산동),37.46952562,126.9027252
어린이집,아기사랑어린이집,서울특별시 관악구 인헌23길 3 (봉천동)  [인헌동],37.46961995,126.9687321
어린이집,양재2동어린이집,서울특별시 서초구 강남대로8길 66-15,37.46964857,127.0442446
어린이집,보라어린이집,서울특별시 관악구 난곡로24가길 6 (신림동)  [난곡동],37.46965897,126.9210275
어린이집,예뜰창의어린이집,서울특별시 금천구 시흥대로126길 47 (독산동),37.46980608,126.90149
어린이집,밀튼어린이집,서울특별시 강남구 헌릉로590길 88 세곡리엔파크 4단지 관리동,37.46991962,127.104581
어린이집,태양어린이집,서울특별시 금천구 독산로78다길 33 (독산동),37.46998209,126.9056984
어린이집,LG전자 어린이집,서울특별시 금천구 두산로 79 메이시티 1층 (독산동),37.47006942,126.8967765
어린이집,열린비테에어린이집,서울특별시 서초구 동산로6길 18,37.47011923,127.0436507
어린이집,온터방과후교실어린이집,서울특별시 관악구 신림로23길 17 (대학동) (신림동),37.47016439,126.9352186
어린이집,꿈이가득한어린이집,서울특별시 관악구 난곡로31길 53 (신림동)  [난곡동],37.47030901,126.9176672
어린이집,금천G밸리어린이집,"서울특별시 금천구 두산로 70 현대지식산업센터 티-115,116,117-01",37.4704162,126.8920672
어린이집,신광어린이집,서울특별시 금천구 독산로80가길 14 (독산동),37.47044695,126.9057878
어린이집,푸른솔어린이집,서울특별시 금천구 시흥대로130길 24-4,37.4705383,126.900195
어린이집,꼬마별어린이집,"서울특별시 관악구 인헌길 116 101호 (봉천동,라인맨션)  [인헌동]",37.4705423,126.9676419
어린이집,마엘가베어린이집,서울특별시 관악구 난곡로35길 60 (신림동)  [난곡동],37.47066504,126.9174321
어린이집,리나어린이집,서울특별시 강남구 밤고개로24길 66-18,37.47098946,127.1039392
어린이집,예은어린이집,서울특별시 관악구 인헌17길 25 (봉천동)  [인헌동],37.47102295,126.9692006309659
어린이집,구립예지어린이집,서울특별시 관악구 미성7길 20 (미성동),37.4710586,126.9229433
어린이집,예동어린이집,서울특별시 관악구 인헌길 100 (봉천동)  [인헌동],37.47113326,126.9672709
어린이집,KT연구개발센터 꿈나무어린이집,서울특별시 서초구 태봉로 151 (우면동),37.4711514,127.0298555
어린이집,동화나라어린이집,서울특별시 서초구 바우뫼로7길 29,37.47123039,127.0235824
어린이집,하은어린이집,"서울특별시 관악구 난곡로31길 14 1층. 2층, 3층 (신림동)  [난곡동]",37.47130823,126.9189729
어린이집,야베스어린이집,서울특별시 관악구 중앙1길 0 신림동376-13[삼성동](신림동),37.47140706,126.9296479
어린이집,열매어린이집,서울특별시 금천구 독산로80길 11-10,37.47151657,126.9039487
어린이집,능인어린이집,서울특별시 강남구 양재대로 340 (개포동),37.47165752,127.0524741
어린이집,양재키움어린이집,"서울특별시 서초구 동산로14길 13 라동 101호(양재동, 초원파크빌)",37.47167998,127.0468642
어린이집,신애어린이집,서울특별시 서초구 바우뫼로9길 9 (우면동),37.47182813,127.0265728
어린이집,서초구립 양재별하어린이집,서울특별시 서초구 논현로5길 15-5,37.47197081,127.0493972
어린이집,사랑어린이집,서울특별시 금천구 독산로 279 1층 (독산동),37.4720653,126.9026858
어린이집,육영어린이집,서울특별시 서초구 동산로 61,37.47208513,127.0454843
어린이집,별꿈어린이집,"서울특별시 관악구 미성길 122 101동 106호(신림동, 쌍용아파트)  [미성동]",37.47227882,126.911841
어린이집,백합어린이집,서울특별시 금천구 범안로17길 41 진도3차아파트 301동102호,37.47234021,126.895443
어린이집,샛별어린이집,서울특별시 금천구 가산로3길 46 (가산동),37.47234171,126.8930045
어린이집,둥지어린이집,서울특별시 금천구 독산로84길 5 (독산동),37.47238798,126.9035708
어린이집,햇살담는 어린이집,서울특별시 서초구 바우뫼로7길 64-11,37.47243347,127.0245853
어린이집,니꼴라오 어린이집,서울특별시 서초구 논현로5길 28 (양재동),37.47246309,127.0478808
어린이집,꾸러기어린이집,서울특별시 금천구 가산로 34-7 2층 (독산동),37.47263141,126.8990327
어린이집,꿈꾸는새싹어린이집,"서울특별시 관악구 남현길 91 103동 102호(남현동, 우림루미아트)  [남현동]",37.47269935,126.9752695
어린이집,구립토마토어린이집,서울특별시 관악구 남부순환로248길 78 아이펠리스 101호,37.47280161,126.9661397
어린이집,토마토어린이집,"서울특별시 관악구 남부순환로248길 78 101호 (봉천동,아이펠리스)  [인헌동]",37.4728169,126.966144
어린이집,구립찬솔어린이집,서울특별시 관악구 법원단지12길 24,37.47281965,126.9209338
어린이집,찬솔어린이집,서울특별시 관악구 법원단지12길 24 (신림동)  [난곡동],37.47281965,126.9209338
어린이집,이레어린이집,서울특별시 금천구 시흥대로142길 16 (독산동),37.47296915,126.9000802
어린이집,행복한우리어린이집,서울특별시 관악구 낙성대역14길 34-8 (봉천동)  [인헌동],37.47297133,126.9628938
어린이집,백상어린이집,서울특별시 관악구 신림로28길 18 서림동] (신림동),37.47310281,126.9350299
어린이집,근하어린이집,서울특별시 서초구 언남9길 7-11 255-2  제마트빌딩1층 근하어린이집,37.47329254,127.0423656
어린이집,구립개미어린이집,서울특별시 금천구 독산로54길 251 (독산동),37.47329747,126.9040934
어린이집,서초한별어린이집,서울특별시 서초구 마방로2길 15-9,37.47330288,127.0396431
어린이집,함께크는어린이집,서울특별시 서초구 바우뫼로11안길 12 (우면동),37.47333328,127.0267296
어린이집,남현한소망어린이집,서울특별시 관악구 승방3길 7 남현동] (남현동),37.47343088,126.9810192
어린이집,서초구립 양재목련어린이집,서울특별시 서초구 언남16길 37,37.47348208,127.0464951
어린이집,평강어린이집,서울특별시 관악구 미성8길 3-20 (신림동)  [미성동],37.47367526,126.9127571
어린이집,아이플러스어린이집,서울특별시 강남구 밤고개로26길 50 강남한신휴플러스 아파트 6단지 내 관리동,37.4737808,127.1065697
어린이집,다사랑어린이집,서울특별시 관악구 인헌6길 29 2층 (봉천동)   [인헌동],37.47383567,126.9651308
어린이집,행복한어린이집,서울특별시 금천구 시흥대로144길 27 (독산동),37.47386312,126.9008698
어린이집,예일어린이집,서울특별시 관악구 낙성대역14길 6 1층 (봉천동),37.47389418,126.9642502
어린이집,비테에어린이집,서울특별시 서초구 언남12길 11,37.47395182,127.0447789
어린이집,감성아이 어린이집,서울특별시 관악구 인헌길 32-6 (봉천동)  [인헌동],37.47398894,126.9666332
어린이집,남문 어린이집,서울특별시 금천구 독산로94가길 29,37.47401443,126.9058138
어린이집,남문방과후 교실 어린이집,서울특별시 금천구 독산로94가길 29,37.47401443,126.9058138
어린이집,예솔어린이집,서울특별시 관악구 미성3길 8 (신림동)  [미성동],37.47405635,126.9164376
어린이집,꼬꼬맘 어린이집,서울특별시 강남구 논현로4길 41 (개포동),37.47406638,127.053078
어린이집,우성어린이집,"서울특별시 서초구 방배선행길 1 102동 103호(방배동,우성아파트)",37.47410984,126.9825993
어린이집,미래방과후교실어린이집,서울특별시 관악구 낙성대로3길 26 서울순복음교회2층 미래방과후교실,37.47411323,126.9598504
어린이집,서울선교어린이집,서울특별시 관악구 낙성대로3길 26 1층 (봉천동)   [낙성대동],37.47412233,126.9598851
어린이집,안델센어린이집,서울특별시 관악구 인헌6길 26 2층 (봉천동)  [인헌동],37.47413322,126.9652056
어린이집,사랑마루어린이집,"서울특별시 관악구 미성7길 5-6 103호(신림동,미래한건아파트)  [미성동]",37.47419271,126.9154751
어린이집,방배안데르센어린이집,"서울특별시 서초구 과천대로 946 105동 105호(방배동, 방배우성아파트)",37.47421546,126.9828739
어린이집,남성교회어린이집,서울특별시 관악구 남현1가길 34,37.47427975,126.97762284478024
어린이집,엄마무릎어린이집,"서울특별시 관악구 문성로 74 다동 108호(신림동, 건영아파트)  [미성동]",37.47435579,126.9431159
어린이집,다울어린이집,서울특별시 관악구 법원단지20길 4 (신림동)  [난곡동],37.4745398,126.92246946031588
어린이집,까리따스어린이집,서울특별시 서초구 남부순환로 2124 (방배동),37.47454255,126.9842375
어린이집,구립예촌어린이집,서울특별시 관악구 남현1가길 29 남현동 복합청사내 1층,37.47455595,126.9778736
어린이집,금나라어린이집,서울특별시 관악구 남부순환로246길 43 (봉천동)  [인헌동],37.47461118,126.9639147
어린이집,구립별마루어린이집,서울특별시 금천구 독산로94길 17,37.4746128,126.9041089
어린이집,운서어린이집,"서울특별시 관악구 미성길 60 103호(신림동,두영아파트)  [미성동]",37.4746212,126.9138613
어린이집,포그니어린이집,"서울특별시 관악구 신림로29길 3-20 106동 113호(신림동, 신림현대아파트)  [서림동]",37.47462598,126.9338062
어린이집,서초어린이집,서울특별시 서초구 남부순환로 2271-1,37.47467081,127.0002253
어린이집,은혜어린이집,서울특별시 서초구 마방로10길 54-19 (양재동),37.47469614,127.0441688
어린이집,새터어린이집,서울특별시 금천구 시흥대로147길 30-15 (독산동),37.47475549,126.8961695
어린이집,송이어린이집,서울특별시 금천구 시흥대로140길 52 (독산동),37.47481998,126.9003799
어린이집,하늘어린이집,서울특별시 서초구 마방로6길 21,37.47487447,127.0425478
어린이집,한울아트스쿨어린이집,서울특별시 금천구 독산로94길 17 (독산동),37.47488595,126.903601
어린이집,보라빛어린이집,서울특별시 관악구 남부순환로246나길 15-2 (봉천동)  [인헌동],37.47498175,126.9651122
어린이집,송파위례23어린이집,"서울특별시 송파구 위례순환로 477 2323동 1층(장지동, 위례포레샤인)",37.47501971,127.1365667
어린이집,사랑나무어린이집,서울특별시 관악구 법원단지5길 18 1층 (신림동)  [미성동],37.47506743,126.9192401
어린이집,푸른어린이집,서울특별시 관악구 낙성대로3길 15 (봉천동)  [낙성대동],37.47508827,126.9600429
어린이집,꼬망새어린이집,"서울특별시 강남구 밤고개로21길 25 306동 102호(자곡동, 래미안포레)",37.47511569,127.11022579474874
어린이집,육영어린이집,서울특별시 관악구 문성로16가길 42-3 (신림동)  [미성동],37.47512539,126.9145371
어린이집,남현어린이집,서울특별시 관악구 남현1가길 18-4 남현동] (남현동),37.47513111,126.9774676
어린이집,푸른솔어린이집,"서울특별시 관악구 낙성대역길 67 1,2층 (봉천동)  [인헌동]",37.47515812,126.9626827
어린이집,크레용어린이집,"서울특별시 관악구 법원단지5가길 21 1,2층 (신림동)  [미성동]",37.47520523,126.9204971
어린이집,송이어린이집,서울특별시 관악구 문성로38길 70-4 [신원동] (신림동),37.47526245,126.9301242
어린이집,짐랜드어린이집,서울특별시 강남구 개포로22길 100 (개포동),37.4754164,127.0533323
어린이집,늘푸른어린이집,서울특별시 금천구 시흥대로149길 29 (독산동),37.47551007,126.8963099
어린이집,구립강감찬어린이집,서울특별시 관악구 관악로8길 45,37.4756128,126.9553984
어린이집,하늘사랑어린이집,"서울특별시 구로구 부광로 96-16 703동 106호(항동, 제일풍경채포레스트)",37.47565268,126.8155246
어린이집,보배어린이집,서울특별시 강남구 개포로22길 106 포이빌라 101호 (개포동),37.47568104,127.0537484
어린이집,예향어린이집,서울특별시 강남구 개포로22길 87 (개포동) 포이교육문화관 1층,37.47569475,127.0520874
어린이집,해오름어린이집,서울특별시 관악구 남부순환로 1969 (봉천동)  [행운동],37.47578263,126.9678658
어린이집,은가비어린이집,서울특별시 강남구 논현로14길 20 승화빌딩 1층,37.4757877,127.0488977
어린이집,꼬마숲어린이집,서울특별시 관악구 남현길 18 (남현동)  [남현동],37.47579561,126.9771814
어린이집,근로복지공단모아래어린이집,서울특별시 금천구 가산로9길 35 (가산동),37.47579826,126.8902344
어린이집,비젼놀이방,서울특별시 관악구 남부순환로262길 10-8 1층(남현동)  [남현동],37.47580591,126.974546
어린이집,가산중앙어린이집,서울특별시 금천구 시흥대로145길 79 가산동,37.47582745,126.8936348
어린이집,우리세상 어린이집,서울특별시 관악구 인헌1나길 3 (봉천동)  [인헌동],37.47589803,126.9650625
어린이집,구립아이뜰어린이집,"서울특별시 금천구 벚꽃로 234 에이스하이엔드6차 (가산동) 102,103,104,105,109-1호",37.47598754,126.8861231
어린이집,해봄어린이집,서울특별시 구로구 금오로 882 어린이집,37.47600255,126.8423176
어린이집,독산빅스맘어린이집,"서울특별시 금천구 시흥대로150길 6 101동 108호(독산동, 한양수자인아파트)",37.47601899,126.8997699
어린이집,하모니어린이집,서울특별시 강남구 개포로22길 50 강남구 개포4동 1200-2 101호,37.47601912,127.0498425
어린이집,보물단지어린이집,"서울특별시 관악구 남부순환로230길 94 101호(봉천동,푸르빌3차아파트)   [낙성대동]",37.47602573,126.9543915
어린이집,구립꼬꼬어린이집,"서울특별시 금천구 가산로 99 107동 102호(가산동, 두산아파트)",37.47603828,126.8917108
어린이집,두산어린이집,"서울특별시 금천구 가산로 99 118동 102호(가산동, 두산아파트)",37.47603828,126.8917108
어린이집,구립보물단지어린이집,서울특별시 관악구 남부순환로230길 94 푸르빌3차아파트 101호,37.47604851,126.9544033
어린이집,새가산어린이집,서울특별시 금천구 시흥대로153길 85 (가산동),37.47615412,126.8939759
어린이집,사과나무어린이집,서울특별시 관악구 쑥고개로2길 30 한빛하우스2차 102호 [서림동] (신림동),37.47615566,126.9392489
어린이집,구립초롱별어린이집,서울특별시 관악구 난곡로45길 5,37.47626127,126.9153815
어린이집,소나무어린이집,서울특별시 관악구 난곡로45길 28 (신림동)  [미성동],37.4763361,126.9142056
어린이집,구립e편한2단지어린이집,서울특별시 관악구 청룡16길 43 서울대입구e편한세상2단지 206동 앞,37.47636957,126.94268162236952
어린이집,구립하난곡어린이집,서울특별시 관악구 난우10길 33 (신림동)  [미성동],37.47638339,126.9199578
어린이집,별이랑어린이집,서울특별시 관악구 낙성대역길 19 동원낙성대아파트 101-106,37.47645603,126.9621158
어린이집,해오름어린이집,"서울특별시 서초구  방배로 14 7동 101호(방배동, 임광아파트)",37.47653084,127.0013221
어린이집,청진어린이집,서울특별시 관악구 신림로36길 23-11 (신림동)  [서림동],37.47654237,126.938711
어린이집,에코비어린이집,"서울특별시 강남구 자곡로 260 402동 102호(자곡동,강남한양수자인)",37.4765488,127.1116072
어린이집,삼동탑어린이집,서울특별시 금천구 문성로 42-1,37.47657912,126.9076984
어린이집,엔젤어린이집,서울특별시 금천구 문성로1길 7 (독산동),37.47672637,126.9041394
어린이집,동명어린이집,서울특별시 강남구 개포로20길 34 서울특별시 강남구 개포로 20길34,37.47672877,127.0484508
어린이집,서초중앙어린이집,서울특별시 서초구 남부순환로289길 35 (방배동),37.4767691,126.9890757
어린이집,삼성몬테소리어린이집,서울특별시 금천구 문성로7길 6 (독산동),37.47677012,126.9060404
어린이집,하늘나무어린이집,"서울특별시 구로구 천왕로 56 313동 101호(천왕동, 천왕이펜하우스3단지 )",37.47684102,126.8443543
어린이집,푸른몬테소리어린이집,서울특별시 금천구 시흥대로141길 47 (독산동),37.47684442,126.8974581
어린이집,청솔어린이집,서울특별시 금천구 가산로 106 두산주상복합상가 101,37.4768992,126.8917558
어린이집,구립서원어린이집,서울특별시 관악구 서원3길 25 (신림동)  [서원동],37.47692559,126.9342292
어린이집,도레미어린이집,서울특별시 서초구 효령로8길 24 (방배동),37.47702251,126.9886799
어린이집,토리에코비어린이집,"서울특별시 송파구 충민로2길 31 1301동 103호(장지동, 송파파인타운13단지)",37.47706505,127.1281829
어린이집,키즈아트어린이집,서울특별시 관악구 난우10길 7 (신림동)  [미성동],37.47709164,126.9185514
어린이집,애경어린이집,서울특별시 금천구 문성로 51 (독산동),37.47711188,126.9091875
어린이집,구립신일어린이집,서울특별시 관악구 문성로28길 51 (신림동)  [신림동],37.47711913,126.9262971
어린이집,위례아이파크어린이집,"서울특별시 송파구 위례광장로 136 103동 1층(장지동, 위례아이파크)",37.47715745,127.1422143
어린이집,아이뜰어린이집,서울특별시 강남구 개포로22길 39-11,37.47718364,127.0501104
어린이집,새애경어린이집,서울특별시 금천구 문성로 51-2,37.47720878,126.9093376
어린이집,구립해사랑어린이집,서울특별시 구로구 천왕로 91 천왕이펜하우스1단지 102동 1층,37.47723388,126.8443715
어린이집,또래마을어린이집,"서울특별시 금천구 남부순환로112길 41 2층,3층 (가산동)",37.4773097,126.893735
어린이집,칼비테영재어린이집,"서울특별시 서초구 방배천로2안길 10 101동 101호(방배동, 신주아파트)",37.4773918,126.9840429
어린이집,구립독산본동어린이집,서울특별시 금천구 시흥대로150길 79 (독산동),37.477413,126.9024923
어린이집,재능어린이집,서울특별시 관악구 서원6길 28 2층 (신림동)  [서원동],37.47744405,126.9313379
어린이집,예랑어린이집,서울특별시 관악구 관악로 137 1층 (봉천동)  [청룡동],37.47745789,126.9516908
어린이집,즐거운Happy어린이집,서울특별시 금천구 두산로9길 56 삼익아파트 101동 101호,37.47752327,126.8925832
어린이집,슬기어린이집,서울특별시 동작구 남부순환로269길 21 (사당동),37.4775552,126.9778099
어린이집,은빛어린이집,서울특별시 관악구 신림로 224-1,37.4775927,126.9365275
어린이집,파인10어린이집,서울특별시 송파구 송파대로8길 20 파인10단지,37.4776088,127.1306163
어린이집,동화나라어린이집,"서울특별시 관악구 남부순환로234길 42 102호 (봉천동, 새진아파트)  [낙성대동]",37.47769372,126.9564463
어린이집,단비어린이집,서울특별시 강남구 언주로6길 10 (개포동),37.47783161,127.058116
어린이집,엔젤어린이집,서울특별시 관악구 청룡9길 12-43 청룡동] (봉천동),37.47784056,126.9464926
어린이집,하나어린이집,서울특별시 동작구 남부순환로257가길 22 (사당동),37.47793932,126.9749295
어린이집,서봄어린이집,서울특별시 관악구 신림로44나길 18 1층,37.4781409,126.9355803
어린이집,구립청능어린이집,서울특별시 관악구 관악로11길 79-11 (봉천동)  [청룡동],37.47820457,126.9477406
어린이집,관악구청직장어린이집,서울특별시 관악구 관악로 145 관악구청 별관 2층 (봉천동)  [청룡동],37.47820977,126.9515032
어린이집,수서행복한어린이집,서울특별시 강남구 밤고개로 165,37.47821635,127.10647403884758
어린이집,예진선교어린이집,서울특별시 관악구 관악로12길 9 (봉천동)  [낙성대동],37.47825781,126.952886
어린이집,싱글벙글어린이집,"서울특별시 관악구 청룡길 78 103-101(봉천동,서울대입구아이원)   [청룡동]",37.47831162,126.9453754
어린이집,아이미소어린이집,서울특별시 구로구 항동로 42 한양수자인에듀힐즈 507-101,37.47831689,126.8263276547924
어린이집,참좋은방과후교실어린이집,서울특별시 관악구 봉천로 540 (낙성대동),37.4783709,126.9576251
어린이집,정립어린이집,서울특별시 서초구 효령로14길 13 정립빌딩 (방배동),37.47840661,126.9904816
어린이집,성분도어린이집,서울특별시 서초구 방배로 40 .,37.47842343,126.999982
어린이집,파인13어린이집,"서울특별시 송파구 송파대로8길 10 (장지동, 송파파인타운13단지)",37.4784436,127.1311569
어린이집,구립e편한1단지어린이집,서울특별시 관악구 청룡10길 45 서울대입구e편한세상1단지 105동 앞,37.47847804,126.94291743202088
어린이집,해맑은어린이집,서울특별시 강남구 개포로36길 14 해맑은어린이집 (개포동),37.47854289,127.0512894
어린이집,주한울어린이집,"서울특별시 강남구 언주로 21 30동 103호(개포동, 시영)",37.47856925,127.0518792
어린이집,아이신나어린이집,"서울특별시 강남구 언주로 3 5동 106호(개포동, 우성6차아파트)",37.47856925,127.0518792
어린이집,꾸러기어린이집,서울특별시 관악구 문성로 242 (신림동)  [신원동],37.47857047,126.9304426
어린이집,행복한아이들 어린이집,"서울특별시 강남구 언주로 21 24동 105호(개포동, 시영)",37.47858292,127.0542602
어린이집,영유 어린이집,서울특별시 서초구 효령로34길 72 (방배동),37.47862173,127.0007357
어린이집,서초구립 도구머리어린이집,서울특별시 서초구 청두곶2길 33,37.47862269,126.9871929
어린이집,친구랑어린이집,"서울특별시 송파구 송파대로8길 42 관리동(장지동, 송파파인타운12단지)",37.47875105,127.1321201
어린이집,구립장군봉어린이집,서울특별시 관악구 장군봉길 100,37.47875556,126.9393062
어린이집,칼비테 어린이집,서울특별시 동작구 동작대로7길 48 3층,37.47880936,126.9794661
어린이집,파랑새어린이집,"서울특별시 서초구 효령로34길 59 3동 102호(방배동, 삼익아파트)",37.47881417,127.0014364
어린이집,구립청룡어린이집,서울특별시 관악구 참숯1길 7 (봉천동)  [청룡동],37.47885648,126.9422057
어린이집,방초어린이집,서울특별시 서초구 명달로 14 (서초동),37.47895076,127.0065224
어린이집,휴먼시아어린이집,"서울특별시 동작구 사당로16길 96 108동 101호(사당동, 사당휴먼시아아파트)",37.47895794,126.9700064
어린이집,리라어린이집,서울특별시 관악구 신림로48길 30-17 서원동] (신림동),37.47901456,126.9340291
어린이집,파인7어린이집,서울특별시 송파구 충민로4길 19 파인타운7단지 703동 1층(장지동),37.47907788,127.1306649
어린이집,키즈맘어린이집,"서울특별시 송파구 충민로4길 5 506동 105호(장지동, 송파파인타운 5단지)",37.47907788,127.1306649
어린이집,신광어린이집,서울특별시 관악구 난곡로63가길 42 (신림동)  [미성동],37.47916821,126.9141923
어린이집,텀블랜드어린이집,서울특별시 서초구 바우뫼로37길 9 (양재동),37.47921745,127.03965
어린이집,파인8 어린이집,서울특별시 송파구 충민로4길 6 송파파인8단지 802동 (장지동),37.47922449,127.1284279
어린이집,문현어린이집,서울특별시 송파구 충민로4길 5 송파파인타운5단지 506-101,37.47922449,127.1284279
어린이집,한별어린이집,서울특별시 관악구 문성로 199-1 (신림동)  [신원동],37.47923087,126.9259332
어린이집,엄마무릎어린이집,"서울특별시 관악구 남부순환로 1430 113동 104호(신림동, 신림푸르지오)  [미성동]",37.47923709,126.9090378
어린이집,파랑새어린이집,"서울특별시 관악구 남부순환로 1430 106동 102호(신림동, 신림푸르지오)  [미성동]",37.47923709,126.9090378
어린이집,지혜샘어린이집,"서울특별시 관악구 남부순환로 1430 105동 102호(신림동,대우푸르지오아파트)   [미성동]",37.47923709,126.9090378
어린이집,미소어린이집,"서울특별시 구로구 시흥대로161길 50 103동 101호(구로동, 신성미소지움아파트)",37.47929984,126.8965978
어린이집,아기구름어린이집,서울특별시 관악구 남부순환로237길 22 1층 [행운동] (봉천동),37.47935109,126.9607796
어린이집,구립아기구름어린이집,서울특별시 관악구 남부순환로237길 22 1층 (행운동),37.47937012,126.9607913
어린이집,새하나어린이집,서울특별시 금천구 남부순환로126가길 9-2,37.47939786,126.906754
어린이집,자람어린이집,"서울특별시 동작구 사당로16길 96 102동 101호(사당동, 사당휴먼시아)",37.47940773,126.9697153
어린이집,강남동산어린이집,서울특별시 강남구 개포로 257 (개포동),37.47945296,127.0502806
어린이집,믿음어린이집,서울특별시 관악구 신원로4길 46 (신림동)  [신원동],37.47956871,126.9296445
어린이집,지역어린이집,서울특별시 금천구 독산로108길 54 (독산동),37.47959236,126.9068382
어린이집,송파아이별어린이집,서울특별시 송파구 위례광장로 230 204동 1층,37.47963848,127.14399181200834
어린이집,송파푸르지오어린이집,서울특별시 송파구 송파대로 111 103동 1층,37.47964367,127.12348294554248
어린이집,관악여성인력개발센터방과후교실어린이집,서울특별시 관악구 쑥고개로 75 (청룡동) (봉천동),37.47966108,126.9449226
어린이집,성요셉어린이집,서울특별시 관악구 쑥고개로 77-4 (봉천동)  [청룡동],37.47968446,126.9452208
어린이집,민지어린이집,서울특별시 관악구 행운1길 9 2층 (봉천동)  [행운동],37.47973715,126.9584722
어린이집,재롱이어린이집,서울특별시 관악구 장군봉7길 35 [청룡동] (봉천동),37.47976784,126.9407423
어린이집,아이좋아어린이집,서울특별시 관악구 장군봉11길 14 (봉천동)  [청룡동],37.47983527,126.9396209
어린이집,숲속천사킨더가르텐어린이집,서울특별시 동작구 사당로16자길 15-7 사당4동 300-84,37.47988924,126.9711005
어린이집,로고스몬테소리어린이집,서울특별시 서초구 명달로4길 8 정양빌딩 1층 (서초동),37.47989097,127.0063574
어린이집,신림사임당어린이집,서울특별시 관악구 난곡로59길 16 (신림동)  [미성동],37.48004038,126.9132833
어린이집,구립원당어린이집,서울특별시 관악구 행운1길 6-3 (봉천동)  [행운동],37.48005061,126.9588237
어린이집,파인5어린이집,서울특별시 송파구 충민로4길 5 송파파인타운5단지아파트 내 관리동 (장지동),37.48006113,127.129957
어린이집,사랑의샘 어린이집,"서울특별시 송파구 충민로6길 14 602동 103호(장지동, 송파파인타운)",37.48006113,127.129957
어린이집,행복나라어린이집,서울특별시 관악구 청룡8길 82 (봉천동)  [청룡동],37.48007212,126.9414713
어린이집,늘푸른어린이집,서울특별시 관악구 청룡8길 10 청룡동] (봉천동),37.48007722,126.945412
어린이집,블루밍키즈어린이집,"서울특별시 송파구 송파대로8길 58 1109동 102호(장지동, 송파파인타운11단지아파트)",37.48014429,127.1337269705718
어린이집,미래연 어린이집,서울특별시 동작구 사당로16길 82 (사당동),37.48024183,126.9714428
어린이집,동원어린이집,서울특별시 강남구 개포로15길 29,37.4802458,127.0457273
어린이집,클레어린이집,서울특별시 강남구 개포로31길 19-8,37.48033656,127.0485588
어린이집,서울시인재개발원 쑥쑥어린이집,서울특별시 서초구 남부순환로340길 58 서울시인재개발원직장어린이집,37.48037322,127.0221485
어린이집,샛별꼬마숲어린이집,서울특별시 관악구 남부순환로168가길 55-1 (신림동)  [신원동],37.4804663,126.9273761
어린이집,성심샛별나라어린이집,서울특별시 관악구 신원로 13 (신림동)  [신원동],37.48046908,126.9276824
어린이집,성약어린이집,서울특별시 관악구 청룡7길 33 1층 [청룡동] (봉천동),37.48050423,126.9478278
어린이집,파인6어린이집,서울특별시 송파구 충민로6길 14 (장지동),37.48054317,127.1319131
어린이집,예슬어린이집,서울특별시 동작구 사당로16아길 46 (사당4동 291-5),37.48064744,126.9693907
어린이집,서정어린이집,서울특별시 서초구 방배천로 48 (방배동),37.48072829,126.9827743
어린이집,란키즈창의스쿨어린이집,서울특별시 송파구 새말로8길 22-5,37.48076016,127.1262674
어린이집,아롱다롱어린이집,서울특별시 동작구 사당로30길 90 아롱다롱어린이집 (사당동),37.48079131,126.9806772
어린이집,리터러시어린이집,서울특별시 구로구 천왕로 29 403동 104호,37.4808017,126.8385946
어린이집,꽃뜰어린이집,"서울특별시 송파구 새말로8길 12 104동 102호(문정동, 건영아파트)",37.48085061,127.12600335842204
어린이집,성진어린이집,서울특별시 동작구 동작대로9길 76 (사당동),37.48092168,126.9772044
어린이집,해나무장애인방과후교실어린이집,서울특별시 구로구 남부순환로105라길 25-10 (가리봉동),37.48104571,126.8904983
어린이집,행복한사랑어린이집,서울특별시 관악구 남부순환로231길 46-9 (봉천동)  [행운동],37.48106593,126.9587489
어린이집,꽃동산어린이집,서울특별시 서초구 청두곶10길 17 (방배동),37.48114084,126.9864287
어린이집,서초구립 방배1동초록꿈어린이집,서울특별시 서초구 효령로23길 16,37.48116407,126.9939761
어린이집,우주어린이집,서울특별시 관악구 남부순환로231길 46-5,37.48117497,126.95854270406193
어린이집,버들어린이집,서울특별시 송파구 충민로6길 10 버들어린이집,37.48126449,127.1313643
어린이집,바움어린이집,"서울특별시 송파구 새말로8길 12 104동 102호(문정동, 건영아파트)",37.48135636,127.1257888
어린이집,가온누리어린이집,서울특별시 관악구 조원중앙로2길 59 (신림동)  [조원동],37.48138509,126.9080671
어린이집,키즈스쿨혜원어린이집,서울특별시 서초구 도구로 53 (방배동),37.4814532,126.9878649
어린이집,내또래어린이집,"서울특별시 송파구 새말로8길 12 102동 101호(문정동, 건영아파트)",37.4815364,127.1258378
어린이집,자람터어린이집,서울특별시 구로구 디지털로26길 5 에이스하이엔드타워 1차 201호,37.48160996,126.8934776170924
어린이집,뜰이삭어린이집,서울특별시 동작구 사당로20다길 1 (사당동),37.48163868,126.9743713
어린이집,연우어린이집,서울특별시 구로구 천왕로 50 천왕이펜하우스 s,37.48165234,126.8386606
어린이집,하늘정원어린이집,서울특별시 송파구 새말로12길 16 송파파인타운 4단지 관리동 (1층) (장지동),37.48176243,127.1296026
어린이집,보명어린이집,서울특별시 강남구 선릉로 7 서울 강남구 개포동 141-1,37.48179055,127.0576276
어린이집,현지아한솔어린이집,"서울특별시 강남구 광평로10길 6 (일원동, 현지아한솔어린이집)",37.48183271,127.0777
어린이집,즐거운어린이집,"서울특별시 강남구 개포로 310 19동 106호(개포동, 주공1단지아파트)",37.48185262,127.06099426232632
어린이집,노아어린이집,서울특별시 관악구 남부순환로145길 6 (신림동)  [조원동],37.4818757,126.912413
어린이집,KTDS서초어린이집,서울특별시 서초구 효령로 174 ktds서초 어린이집,37.4820047,127.0032392
어린이집,예랑어린이집,서울특별시 서초구 청두곶길 46 1층 (방배동),37.48205203,126.9846718
어린이집,수표교어린이집,서울특별시 서초구 명달로 52 (서초동),37.48212009,127.0052774
어린이집,퍼스티어누리어린이집,서울특별시 강남구 개포로 310 디에이치퍼스티어아이파크,37.48214506,127.05726625785132
어린이집,꼬꼬마어린이집,"서울특별시 구로구 개봉로1길 170 102동 102호(개봉동, 대상아파트)",37.48227117,126.849801
어린이집,오렌지art어린이집,서울특별시 관악구 난곡로65길 24 (신림동)  [조원동],37.48228042,126.912821
어린이집,구립용꿈어린이집,서울특별시 관악구 신림로58길 68,37.48238542,126.9337224
어린이집,서초구립 아르떼어린이집,"서울특별시 서초구 방배천로18길 11 관리동(방배동, 방배롯데캐슬아르떼)",37.4823966,126.9840618
어린이집,포이사임당어린이집,서울특별시 강남구 논현로8길 52 서울빌딩2층,37.48248536,127.0707224
어린이집,한사랑어린이집,서울특별시 서초구 방배천로8길 35-3,37.48259283,126.9828056
어린이집,구립가산어린이집,서울특별시 금천구 벚꽃로38길 35 (가산동),37.48264309,126.8844527
어린이집,젬마어린이집,서울특별시 동작구 사당로10길 92 (사당동),37.48272624,126.9680585
어린이집,구립두드림어린이집,서울특별시 관악구 조원로18길 26,37.48276557,126.91337338502322
어린이집,미성어린이집,"서울특별시 관악구 조원로2길 13 1동 112호 (신림동,미성아파트)   [조원동]",37.48278941,126.90291901702916
어린이집,구립참사랑어린이집,서울특별시 동작구 동작대로17길 37 (사당동),37.48279028,126.9774966
어린이집,아이나라어린이집,서울특별시 서초구 청두곶길 70 (방배동),37.48281953,126.9855931
어린이집,비테에사랑어린이집,서울특별시 송파구 새말로12길 3 (문정동),37.48282586,127.129138
어린이집,내친구어린이집,서울특별시 관악구 장군봉2길 35 1층  [청룡동],37.48292163,126.9384477
어린이집,조원어린이집,서울특별시 관악구 조원로12길 20 (신림동)  [조원동],37.48294826,126.907767
어린이집,큰별어린이집,"서울특별시 강남구 개포로 516 603동 108호(개포동, 주공6단지아파트)",37.48297905,127.0589853
어린이집,애솔 어린이집,"서울특별시 강남구 언주로 3 5동 106호(개포동, 우성6차아파트)",37.48297905,127.0589853
어린이집,전원몬테소리어린이집,"서울특별시 강남구 개포로 516 609동 104호(개포동, 주공6단지아파트)",37.48297905,127.0589853
어린이집,구립선재놀이방어린이집,서울특별시 강남구 개포로 516 주공6단지 606동 102호,37.48297905,127.0589853
어린이집,구립우리어린이집,서울특별시 동작구 솔밭로 74-1 구립우리어린이집 (사당동),37.48300766,126.9672666
어린이집,서광어린이집,서울특별시 구로구 개봉로3가길 73 (개봉동),37.48302349,126.8530402
어린이집,튼튼어린이집,"서울특별시 구로구 천왕로 56 313동 102호(천왕동, 천왕이펜하우스3단지)",37.48305466,126.8389154
어린이집,다애어린이집,서울특별시 동작구 사당로20가길 36-4,37.48308558,126.9754924
어린이집,새롬키즈어린이집,서울특별시 서초구 서초대로6길 46 1층새롬키즈어린이집(방배동),37.48309003,126.9876111
어린이집,자곡나무어린이집,서울특별시 강남구 자곡로7길 8-18,37.48310562,127.0581663
어린이집,구립행운어린이집,서울특별시 관악구 행운1라길 9,37.48323583,126.9567416
어린이집,사당숭실방과후교실,서울특별시 동작구 사당로14길 20 사당종합사회복지관 (사당동),37.48325134,126.9714434
어린이집,구립둥지어린이집,서울특별시 동작구 사당로14길 20 둥지어린이집 (사당동),37.48325134,126.9714434
어린이집,서초양재어린이집,서울특별시 서초구 강남대로34길 46-12 1층(양재동),37.48329111,127.0385418
어린이집,한빛어린이집,서울특별시 서초구 방배중앙로7길 27 (방배동),37.4833168,126.989892
어린이집,서초현대어린이집,서울특별시 서초구 강남대로30길 77-4 현대빌라 101호 (양재동),37.4833285,127.041368
어린이집,튼튼어린이집,서울특별시 관악구 난곡로66가길 17 (신림동)  [신사동],37.4833338,126.9145922
어린이집,서초상명어린이집,서울특별시 서초구 명달로11길 16 (서초동),37.48344976,127.0031058
어린이집,다솜어린이집,서울특별시 서초구 반포대로 180 다솜어린이집[서초경찰서 맞은편],37.48356733,127.0124925
어린이집,개포좋은어린이집,서울특별시 강남구 선릉로12길 10 (개포동),37.48358958,127.0607484
어린이집,이레몬테소리어린이집,서울특별시 관악구 양녕로1길 8 은천동] (봉천동),37.48359971,126.9460511
어린이집,천사어린이집,서울특별시 동작구 사당로16다길 77-8,37.48363347,126.9688692
어린이집,파인3어린이집,"서울특별시 송파구 충민로 152 관리동 1층(장지동, 송파파인타운3단지)",37.483675,127.1326658
어린이집,장지파인타운사임당어린이집,"서울특별시 송파구 충민로 152 305동 101호(장지동, 송파파인타운3단지아파트)",37.48369698,127.1326636
어린이집,파인엔젤어린이집,서울특별시 송파구 충민로 152 송파파인타운 3단지 관리동(1층) (장지동),37.48369698,127.1326636
어린이집,피노키오어린이집,"서울특별시 송파구 충민로 152 303동 102호(장지동, 송파파인타운3단지아파트)",37.48369698,127.1326636
어린이집,슬기어린이집,서울특별시 관악구 남부순환로159길 5 (신림동)  [신사동],37.48372426,126.9202299
어린이집,예성어린이집,서울특별시 동작구 사당로30길 24 3층 (사당동),37.48375657,126.9807715
어린이집,해나린어린이집,"서울특별시 관악구 봉천로 387 110동 102호(봉천동, 두산아파트)  [은천동]",37.48376326,126.9427076
어린이집,시온어린이집,"서울특별시 관악구 조원로16길 7 102동 106호(신림동,신도브래뉴아파트)   [조원동]",37.48389519,126.9112573
어린이집,예슬어린이집,서울특별시 관악구 봉천로31길 3 전층 [은천동] (봉천동),37.48394015,126.9411967
어린이집,예원어린이집,서울특별시 관악구 중앙1길 22 중앙동] (봉천동),37.48395781,126.9528834
어린이집,미래클어린이집,"서울특별시 강남구 개포로 310 23동 108호(개포동, 주공1단지아파트)",37.48396081,127.0586538
어린이집,주사랑어린이집,"서울특별시 구로구 오리로 1102-10 213동 103호 (천왕동, 천왕연지타운2단지)",37.48401567,126.84334098327945
어린이집,아이샛별어린이집,"서울특별시 구로구 오리로 1102-10 214동 103호(천왕동,천왕연지타운2단지)",37.48401567,126.84334098327945
어린이집,새로미어린이집,"서울특별시 구로구 오리로 1102-10 213동 104호(천왕동, 천왕연지타운2단지아파트)",37.48401567,126.84334098327945
어린이집,연초롱어린이집,서울특별시 구로구 오리로 1102-10 천왕2지구 2단지 209동1층,37.48401567,126.84334098327945
어린이집,미담어린이집,서울특별시 강남구 일원로 115 삼성생명빌딩 (일원동),37.48402087,127.0844599
어린이집,다온어린이집,"서울특별시 관악구 남부순환로198길 10 101 (신림동, 효림다온아파트)   [서원동]",37.48404231,126.9364192
어린이집,성아어린이집,서울특별시 강남구 논현로32길 16 성아어린이집 (도곡동),37.48406366,127.0435805
어린이집,아기둥지어린이집,서울특별시 강남구 선릉로18길 8 (개포동),37.48406609,127.0598243
어린이집,일원어린이집,서울특별시 강남구 광평로3길 21 일원어린이집 (일원동),37.48407559,127.0779506
어린이집,구립다온어린이집,서울특별시 관악구 남부순환로198길 10 효림다온아파트 101호,37.4840772,126.9364255
어린이집,파인2 어린이집,서울특별시 송파구 충민로 151 파인2단지 내 파인2 어린이집 (장지동),37.48408265,127.1311937
어린이집,피카소 어린이집,"서울특별시 관악구 관악로30길 12 108동101호(봉천동,봉천우성아파트)  [행운동]",37.48409858,126.9606848
어린이집,그림어린이집,"서울특별시 관악구 관악로30길 12 101동 108호(봉천동,우성아파트)  [행운동]",37.48409858,126.9606848
어린이집,또래가정어린이집,"서울특별시 관악구 관악로30길 12 105동 113호 (봉천동,우성아파트)  [행운동]",37.48409858,126.9606848
어린이집,예신애들피아 어린이집,서울특별시 구로구 디지털로27길 83-4,37.4841247,126.8889783
어린이집,서초장미어린이집,서울특별시 서초구 남부순환로 2543-5,37.48418877,127.0284341
어린이집,둥지어린이집,서울특별시 구로구 구로동로2길 17-6,37.48419606,126.8873694
어린이집,무지개어린이집,"서울특별시 관악구 조원로11길 24 101-101호(신림동,조원아파트)   [조원동]",37.48425241,126.9075041
어린이집,멘토어린이집,"서울특별시 구로구 연동로13길 25 111동 104호(항동, 서울수목원 현대홈타운 스위트)",37.48427731,126.820059
어린이집,신우주어린이집,서울특별시 강남구 일원로 120 샘터마을 단지내,37.48431504,127.0825508
어린이집,중앙사회복지관 방과후 어린이집,서울특별시 관악구 봉천로41길 33 (중앙동) (봉천동),37.48435092,126.9480441
어린이집,방배하나어린이집,서울특별시 서초구 서초대로14길 28 (방배동),37.48446386,126.9898958
어린이집,구립중앙어린이집,서울특별시 관악구 봉천로41길 35 (봉천동)  [중앙동],37.48448664,126.94828802903749
어린이집,양재종합사회복지관 방과후 어린이집,서울특별시 서초구 남부순환로 2610 양재복지관 (양재동),37.48449698,127.0361405
어린이집,양재복지관어린이집,서울특별시 서초구 남부순환로 2610 (양재동),37.48449698,127.0361405
어린이집,새동원어린이집,서울특별시 관악구 남부순환로163가길 10 1-3층 (신림동)  [신사동],37.48454735,126.9211837
어린이집,서초아름어린이집,서울특별시 서초구 반포대로13길 32 (서초동),37.48455874,127.0092942
어린이집,온무리어린이집,서울특별시 서초구 남부순환로364길 7-4,37.48456054,127.0406286
어린이집,은천꿈의어린이집,서울특별시 관악구 남부순환로 1654 2층 (신림동)   [서원동],37.48456729,126.9345834
어린이집,포도나무 어린이집,서울특별시 강남구 광평로19길 15 목련타운 아파트 109동103호,37.48462479,127.0853167
어린이집,예닮어린이집,서울특별시 서초구 방배천로24길 38 2층 예닮어린이집,37.48468567,126.9856017
어린이집,샛별 어린이집,"서울특별시 강남구 광평로19길 10 1006동 103호(수서동, 까치마을아파트)",37.48469403,127.0873914
어린이집,베베완사임당어린이집,"서울특별시 강남구 광평로19길 10 1002동 111호(수서동, 까치마을아파트)",37.48469403,127.0873914
어린이집,해피어린이집,서울특별시 강남구 광평로19길 10 까치마을아파트 관리동 (수서동),37.48469403,127.0873914
어린이집,신명어린이집,"서울특별시 구로구 개봉로3길 87 103동 104호(개봉동, 한진아파트)",37.4847129,126.8519232
어린이집,한사랑어린이집,"서울특별시 구로구 개봉로3길 87 110동 103호(개봉동, 한진타운아파트)",37.4847129,126.8519232
어린이집,한진예닮어린이집,"서울특별시 구로구 개봉로3길 87 101동 101호(개봉동, 한진타운아파트)",37.4847129,126.8519232
어린이집,송은어린이집,서울특별시 송파구 송파대로16길 11 (문정동),37.48474791,127.1246402
어린이집,태화초록교실어린이집,서울특별시 강남구 광평로 185 (수서동),37.48477107,127.0934183
어린이집,태화어린이집,서울특별시 강남구 광평로 185 태화기독교사회복지관 내 (수서동),37.48477107,127.0934183
어린이집,천사어린이집,"서울특별시 강남구 개포로 311 902동 111호(개포동, 우성9차아파트)",37.4848244,127.0571757
어린이집,행복한꿈씨어린이집,서울특별시 구로구 개봉로3가길 29 101호(개웅1길25) (개봉동),37.48491267,126.85403
어린이집,햇님어린이집,서울특별시 구로구 디지털로32길 29 (구로동),37.48492975,126.8972941
어린이집,성광어린이집,"서울특별시 서초구 서운로 62 11동 110호(서초동, 우성1차아파트)",37.48498121,127.0201922
어린이집,송파사임당어린이집,서울특별시 송파구 송파대로18길 14-5,37.48498313,127.1254969
어린이집,방배어린이집,서울특별시 서초구 방배로19길 36-8,37.48507287,126.9930502
어린이집,위례아이숲어린이집,"서울특별시 송파구 위례송파로 123 (거여동, 위례포레샤인 17단지)",37.48507498,127.14850231273311
어린이집,쿠팡(위례)어린이집,서울특별시 송파구 위례광장로 188 아이온스퀘어 2F,37.4850892,127.1332182
어린이집,또래또어린이집,"서울특별시 관악구 관악로30길 12 102동 108호(봉천동, 우성아파트)  [행운동]",37.48510958,126.9594368
어린이집,구립즐거운어린이집,서울특별시 관악구 양녕로 31 두산아파트 3단지 관리동,37.48515226,126.9457775
어린이집,꿈샘어린이집,서울특별시 구로구 도림로6길 29-1 101호,37.48515643,126.888599
어린이집,구립문화어린이집,서울특별시 동작구 사당로13길 24 (사당동),37.48516531,126.9723918
어린이집,즐거운어린이집,서울특별시 관악구 양녕로 31 두산아파트 3단지 관리동 1층 [은천동] (봉천동),37.48518707,126.9459179
어린이집,명은해어린이집,서울특별시 서초구 반포대로13길 64 (서초동),37.48522659,127.0075972
어린이집,꿈샘아이어린이집,서울특별시 구로구 도림로6길 29 101호(구로동),37.48522757,126.8885185
어린이집,해누리어린이집,서울특별시 구로구 천왕로 92 천왕이펜하우스2단지 203동 1층,37.48523036,126.8380876
어린이집,무궁화어린이집,서울특별시 구로구 디지털로27라길 30 1층 1호(구로동),37.48524871,126.8886394
어린이집,오렌지어린이집,서울특별시 동작구 사당로27길 31 (사당동),37.48526571,126.9775251
어린이집,예대어린이집,서울특별시 관악구 양녕로2가길 41 중앙동] (봉천동),37.48527424,126.9472057
어린이집,구립아람어린이집,서울특별시 관악구 관악로 229-12,37.48527505,126.9549675
어린이집,항동어린이집,서울특별시 구로구 연동로 284,37.48537876,126.8234383
어린이집,창민어린이집,서울특별시 관악구 남부순환로 1665-24 (봉천동)  [은천동],37.4853853,126.9361213
어린이집,한솔어린이집,"서울특별시 강남구 광평로10길 6 307동 101호(일원동, 한솔마을)",37.48542704,127.0793203
어린이집,초록나무의꿈어린이집,서울특별시 서초구 서초대로24길 46 (방배동),37.48544217,126.9938809
어린이집,평안어린이집,서울특별시 관악구 은천로 144 [중앙동] (봉천동),37.48549667,126.9492153
어린이집,바르니어린이집,"서울특별시 동작구 사당로17길 52 3동 106호 (사당동 169-8, 대림아파트)",37.48549801,126.97302423612776
어린이집,아이사랑어린이집,서울특별시 동작구 사당로17길 52 169-8번지 대림아파트 13동 107호,37.48549801,126.97302423612776
어린이집,삼성서울병원 어린이집,서울특별시 강남구 광평로31길 66 (수서동),37.48554147,127.0880324
어린이집,사랑샘어린이집,"서울특별시 강남구 개포로 516 708동 106호(개포동, 주공7단지아파트)",37.48555904,127.0714329
어린이집,아름드리어린이집,서울특별시 강남구 삼성로 14 436동 105호,37.48562741,127.073292
어린이집,해피어린이집,서울특별시 구로구 디지털로27라길 29-8 101호(구로동),37.48563687,126.8874702
어린이집,구립큰나무어린이집,서울특별시 동작구 사당로2가길 219 (사당동),37.48563781,126.9669567
어린이집,신영어린이집,서울특별시 동작구 사당로13길 36 (사당동),37.48565553,126.9720877
어린이집,예림어린이집,"서울특별시 송파구 송파대로20길 28 101동 108호(문정동, 현대아파트)",37.48567963,127.1258608
어린이집,아이보리어린이집,서울특별시 관악구 봉천로 331-8 (봉천동)  [은천동],37.4857357,126.9376316
어린이집,햇살가득어린이집,"서울특별시 송파구 송이로34길 26 101동 112호(문정동, 현대아파트)",37.48576579,127.1303318
어린이집,천사들의어린이집,"서울특별시 송파구 문정로 55 103동 101호(문정동, 문정대우푸르지오아파트)",37.48580856,127.1310007
어린이집,밝은햇살어린이집,서울특별시 구로구 도림로8길 4 101호,37.48581329,126.8874506
어린이집,구립소하어린이집,서울특별시 관악구 관천로15길 116,37.48584136,126.9161848
어린이집,소하어린이집,서울특별시 관악구 관천로15길 116 (신림동)  [신사동],37.48584497,126.91618475242583
어린이집,사랑모아어린이집,서울특별시 구로구 가마산로 87 103동 101호(한일유앤아이아파트),37.48584944,126.8761586
어린이집,로사어린이집,"서울특별시 동작구 관악로30길 27 102동 102호(사당동, 대우푸르지오아파트)",37.48589957,126.9617664
어린이집,한사랑어린이집,서울특별시 구로구 개봉로3길 87 110동 103호,37.48589964,126.8509714
어린이집,한진또래어린이집,서울특별시 구로구 개봉로1나길 58 (개봉동),37.4859615,126.8533831
어린이집,위브어린이집,서울특별시 구로구 디지털로31길 85 두산위브아파트 내 보육시설 (구로동),37.48597272,126.890223
어린이집,햇살어린이집,서울특별시 관악구 신림동7길 23 2층 (신림동)  [신림동],37.4859753,126.9265838
어린이집,예뜰어린이집,서울특별시 구로구 구로동로7길 27 (가리봉동),37.4859836,126.8846812
어린이집,알토랑밤토랑어린이집,서울특별시 관악구 조원로 168 1층(신림동)  [신사동],37.4860032,126.9209108
어린이집,통통어린이집,서울특별시 관악구 관천로12길 30 <신림동>,37.48604152,126.9262357
어린이집,환두레어린이집,서울특별시 강남구 논현로12길 19-4 대경빌딩101호 (개포동),37.48606163,127.0675177
어린이집,24시간연세어린이집,서울특별시 관악구 관악로 246 (봉천동)  [행운동],37.48609033,126.9570203
어린이집,항동발도르프어린이집,"서울특별시 구로구 연동로 296-18 105동 102호(항동, 유승빌리지)",37.48609807,126.8248257
어린이집,피노키오어린이집,"서울특별시 동작구 사당로17길 8 8동 105호(사당동, 대림)",37.48610546,126.9731591
어린이집,구립신대방누리어린이집,서울특별시 동작구 신대방1다길 19 1층,37.4861231,126.9061764
어린이집,아이세상어린이집,서울특별시 관악구 조원로 180 전층 (신림동)   [신사동],37.48612652,126.9220821
어린이집,해오름어린이집,서울특별시 서초구 반포대로9길 59-11 1층(서초동),37.4861454,127.0059579
어린이집,아이린어린이집,서울특별시 관악구 관악로30길 27 관악푸르지오아파트119동103호,37.48614693,126.9613192
어린이집,올리비아어린이집,서울특별시 관악구 관악로30길 27 관악푸르지오아파트107동103호,37.48614693,126.9613192
어린이집,예쁜아이어린이집,서울특별시 관악구 관악로30길 27 관악푸르지오아파트 관리동 1층,37.48614693,126.9613192
어린이집,수서어린이집,서울특별시 강남구 광평로 242 (수서동),37.48615674,127.0990519
어린이집,초록어린이집,서울특별시 서초구 명달로20길 33 진흥골든빌라101호(서초동),37.48616089,127.0059765
어린이집,하나어린이집,"서울특별시 관악구 신사로10길 30 지하1층, 지상4층 (신림동)  [신사동]",37.48625944,126.9148812
어린이집,예손유앤아이어린이집,"서울특별시 구로구 가마산로 87 105동 102호(구로동, 한일유앤아파트)",37.48630219,126.8759891
어린이집,구립새빛어린이집,서울특별시 관악구 신사로10길 29 (신림동)  [신사동],37.4863452,126.9151666
어린이집,꾸러기동산어린이집,서울특별시 구로구 디지털로27라길 32 (구로동),37.48638819,126.8894661
어린이집,밝은어린이집,서울특별시 구로구 구로동로7길 74,37.48639901,126.8824904
어린이집,서초구청 직장어린이집,서울특별시 서초구 남부순환로347길 46 (서초동),37.48640445,127.0313962
어린이집,자연의아이들어린이집,서울특별시 서초구 효령로72길 36-5 1층(서초동),37.48657756,127.0271322
어린이집,애플트리에듀센터어린이집,서울특별시 동작구 사당로9길 11-13 (사당3동 220-24),37.4865953,126.9704296
어린이집,상은어린이집,서울특별시 구로구 도림로12길 12 101호 (구로동),37.48670983,126.8886958
어린이집,홀츠앤키즈어린이집,서울특별시 송파구 충민로 188 송파파인타운1단지 관리동,37.48677182,127.1346883
어린이집,토토어린이집,"서울특별시 송파구 충민로 188 103동 104호(장지동, 송파파인타운1단지아파트)",37.48677182,127.1346883
어린이집,올리브어린이집,"서울특별시 관악구 은천로 137 1동 102호(봉천동,관악유앤아이)  [성현동]",37.48679781,126.950584
어린이집,아나율장애아어린이집,서울특별시 구로구 디지털로31길 93 (구로동),37.48680452,126.8908134
어린이집,선재방과후교실어린이집,서울특별시 구로구 디지털로31길 93 (구로동),37.48680452,126.8908134
어린이집,드림어린이집,서울특별시 구로구 오리로11길 109 (오류동 292-5),37.48683531,126.8307483
어린이집,조은어린이집,서울특별시 관악구 신사로20길 52 (신림동)  [신사동],37.48687049,126.9175488
어린이집,정락어린이집,"서울특별시 송파구 문정로 55 104동 103호(문정동, 문정대우1차아파트)",37.48688847,127.1281263
어린이집,구립성현햇살어린이집,서울특별시 관악구 관악로37길 65 (봉천동)  [성현동],37.4868936,126.955844
어린이집,송파꼬마숲어린이집,"서울특별시 송파구 송파대로8길 42 1202동 101호(장지동, 송파파인타운12단지)",37.48698467,127.1322581
어린이집,엄마사랑 어린이집,"서울특별시 송파구 충민로2길 31 1302동 103호(장지동, 송파파인타운13단지)",37.48698467,127.1322581
어린이집,토리어린이집,서울특별시 송파구 충민로2길 31 송파파인타운13단지 1303동 1층 보육시설,37.48698467,127.1322581
어린이집,예쁜별어린이집,"서울특별시 송파구 충민로 151 208동 102호(장지동, 송파파인타운2단지아파트)",37.48698467,127.1322581
어린이집,하은어린이집,서울특별시 송파구 송파대로8길 58 서울송파구송파대로8길 58,37.48698467,127.1322581
어린이집,세화어린이집,서울특별시 구로구 구로동로8길 27 (구로동),37.48700929,126.8862411
어린이집,사랑별어린이집,서울특별시 구로구 구로동로8길 30-1,37.48705283,126.8865771
어린이집,키즈맘어린이집,서울특별시 관악구 봉천로23나길 35 101호,37.48705826,126.9373999
어린이집,호산나어린이집,서울특별시 구로구 구로동로13길 63 (가리봉동),37.48707845,126.8811641
어린이집,그림나라어린이집,서울특별시 구로구 구로동로18길 56 103호,37.48717539,126.8874214
어린이집,초록가정어린이집,서울특별시 관악구 봉천로23가길 3 (봉천동)  [보라매동],37.48719894,126.9351487
어린이집,명지어린이집,서울특별시 관악구 관악로30길 27 관악푸르지오아파트 121-104 [청림동] (봉천동),37.48720241,126.9608359
어린이집,지암어린이집,"서울특별시 구로구 개봉로11길 55-16 55-16, 55-14",37.48720689,126.8528416
어린이집,하은어린이집,서울특별시 구로구 도림로12길 5-9 101호 (구로동),37.48723812,126.8887253
어린이집,우리아이어린이집,"서울특별시 관악구 은천로 93 204동 102호(봉천동, 벽산블루밍아파트)  [은천동]",37.48725,126.9452
어린이집,아기별어린이집,서울특별시 구로구 구로동로12길 16-4 101호 (구로동),37.48727032,126.8858301
어린이집,햇살어린이집,서울특별시 관악구 은천로 86 두산 202동 103호,37.487282,126.9452468
어린이집,아이꿈나무어린이집,"서울특별시 관악구 은천로 93 105동 102호(봉천동, 벽산블루밍아파트)  [은천동]",37.487282,126.9452468
어린이집,새싹어린이집,"서울특별시 관악구 은천로 93 107동 103호(봉천동, 벽산블루밍아파트)  [은천동]",37.487282,126.9452468
어린이집,아이위즈어린이집,"서울특별시 관악구 은천로 93 103동 103호(봉천동, 벽산블루밍아파트)  [은천동]",37.487282,126.9452468
어린이집,한솔어린이집,"서울특별시 영등포구 도림천로 431 105동 101호(대림동, 대림한솔 솔파크)",37.4872898,126.899444
어린이집,강남영재어린이집,서울특별시 강남구 논현로 205 (도곡동),37.48729532,127.0406389
어린이집,블루밍어린이집,"서울특별시 관악구 은천로 95 (봉천동, 벽산블루밍아파트)  [은천동]",37.48736,126.94586
어린이집,하나둘셋 어린이집,서울특별시 관악구 국회단지4길 21 하나둘셋어린이집,37.4873612,126.9412728
어린이집,행복한홍익어린이집,"서울특별시 구로구 도림로20길 50 101동 108호 (구로동, 우민늘푸른아파트)",37.48739722,126.8902178
어린이집,푸르니서초 어린이집,서울특별시 서초구 효령로67길 4 (서초동),37.48741324,127.0237958
어린이집,아름다운어린이집,서울특별시 동작구 사당로 161 (사당3동 208-3),37.48744269,126.9674379
어린이집,예쁜어린이집,"서울특별시 관악구 관악로30길 27 103동104호( 봉천동, 관악푸르지오아파트)[청림동]",37.48744532,126.9428185
어린이집,예삐어린이집,서울특별시 구로구 구로동로18길 42 (구로동),37.4874674,126.8867601
어린이집,아뜰어린이집,서울특별시 관악구 봉천로23다길 23 보라매동] (봉천동),37.4874874,126.936964
어린이집,하얀어린이집,서울특별시 구로구 개봉로11길 7-11 하얀어린이집 (개봉동),37.48748752,126.8557637
어린이집,대광어린이집,서울특별시 구로구 개봉로11길 17 (개봉동),37.48750563,126.8553078
어린이집,상떼빌키즈어린이집,서울특별시 동작구 신대방1가길 38 동작 상떼빌아파트 101동 상떼빌어린이집 (신대방동),37.48755133,126.9067471
어린이집,아이가어린이집,서울특별시 송파구 송이로 249 1층,37.48755524,127.1324701499356
어린이집,우리어린이집,서울특별시 서초구 서초대로28길 16 1층(방배동),37.48760243,126.9956148
어린이집,동아어린이집,서울특별시 관악구 관악로37길 20 동아 아파트 B상가 2층,37.48766348,126.9561041
어린이집,락앤락이노션샛별어린이집,서울특별시 서초구 서리풀3길 21 (서초동),37.48766986,127.0183555
어린이집,엔젤어린이집,서울특별시 구로구 디지털로31길 90 108동 103호,37.4876957,126.8918232
어린이집,햇빛어린이집,"서울특별시 구로구 디지털로31길 90 114동 101호(구로동, 삼성래미안아파트)",37.48771772,126.891821
어린이집,큰세상어린이집,"서울특별시 구로구 디지털로31길 86 104동 101호(구로동, 삼성래미안아파트)",37.48771772,126.891821
어린이집,무지개나라어린이집,"서울특별시 구로구 디지털로31길 86 112동 102호(구로동, 삼성래미안아파트)",37.48771772,126.891821
어린이집,아이삼성어린이집,"서울특별시 구로구 디지털로31길 90 108동 101호(구로동, 삼성래미안아파트)",37.48771772,126.891821
어린이집,래미안어린이집,"서울특별시 구로구 디지털로31길 90 110동 103호(구로동, 삼성래미안아파트)",37.48771772,126.891821
어린이집,구립로이어린이집,서울특별시 동작구 사당로23길 112,37.4877494,126.9733831
어린이집,구립새들어린이집,서울특별시 관악구 관천로16길 55 (신림동)  [신림동],37.48775113,126.926454
어린이집,예은어린이집,서울특별시 송파구 중대로 24 229-104,37.48777722,127.11714456165004
어린이집,서초구립 방배4동어린이집,서울특별시 서초구 서초대로19길 16,37.48782776,126.9912619
어린이집,다향어린이집,서울특별시 구로구 오리로 1189 1층 (오류동),37.48784299,126.8373542
어린이집,삐아제어린이집,서울특별시 강남구 광평로47길 17 신동아아파트 관리동,37.48790982,127.0981867
어린이집,햇살마루어린이집,서울특별시 송파구 송파대로22길 5-12,37.4879135,127.1223553
어린이집,그린나래어린이집,서울특별시 송파구 송파대로22길 5-13 1층 그린나래어린이집,37.48794587,127.1219829
어린이집,에덴몬테소리어린이집,서울특별시 송파구 송이로31길 4-10,37.48796211,127.1321077
어린이집,큰별어린이집,서울특별시 구로구 구로동로22길 88-1 101호.102호,37.48800698,126.8885624
어린이집,연세중앙어린이집,"서울특별시 강남구 개포로 516 604동 104호(개포동, 주공6단지아파트)",37.48801203,127.0736539
어린이집,사과나무어린이집,서울특별시 서초구 방배천로34길 31 (방배동),37.48801666,126.9878906
어린이집,해다미어린이집,"서울특별시 구로구 천왕로 91 105동T101호(천왕동, 천왕이펜하우스 1단지)",37.48802202,126.8381497
어린이집,미래어린이집,서울특별시 구로구 구로동로20길 57 (구로동),37.48804867,126.8876312
어린이집,문정어린이집,서울특별시 송파구 송이로32길 21 (문정동),37.48805638,127.1276559
어린이집,문정훼밀리타운어린이집,서울특별시 송파구 중대로 24 228동 102호,37.48812548,127.111059
어린이집,푸르니작은 어린이집,서울특별시 서초구 서리풀4길 9 (서초동),37.48821628,127.0212061
어린이집,은하수어린이집,서울특별시 관악구 은천로25길 33 성현동] (봉천동),37.48823455,126.9494755
어린이집,아기천사어린이집,"서울특별시 구로구 오리로 1197 114동 101호(오류동, 금강수목원아파트)",37.48824319,126.8323433
어린이집,금강어린이집,서울특별시 구로구 오리로 1197 금강수목원아파트 관리동 (오류동),37.48824319,126.8323433
어린이집,엄마사랑어린이집,"서울특별시 구로구 오리로 1197 109동 104호(오류동, 금강수목원아파트)",37.48824319,126.8323433
어린이집,구립은천어린이집,서울특별시 관악구 국회단지10길 22 (봉천동)  [은천동],37.48825032,126.9427947
어린이집,은빛어린이집,"서울특별시 서초구 효령로68길 13 21동 102호(서초동, 현대아파트)",37.48826107,127.0234614
어린이집,쑥쑥어린이집,서울특별시 구로구 구로동로15길 24 1층 (구로동),37.48826587,126.8834339
어린이집,강남서머힐어린이집,서울특별시 강남구 남부순환로365길 43 (도곡동),37.48828073,127.0398212
어린이집,영서어린이집,서울특별시 구로구 도림로20길 44 (구로동),37.48833244,126.8935736
어린이집,경기몬테소리어린이집,서울특별시 서초구 서리풀4길 15-5 1층,37.48833344,127.0213176
어린이집,다솔어린이집,"서울특별시 구로구 디지털로 319 302동 101호(구로동, 현대아파트)",37.48834239,126.8960826
어린이집,윤지어린이집,서울특별시 영등포구 도림천로21길 33,37.48835064,126.9029655
어린이집,은진어린이집,서울특별시 구로구 구로동로20길 28-7 1층 (구로동),37.48839602,126.8862442
어린이집,연수어린이집,서울특별시 관악구 관악로 273  -18 연수어린이집,37.48849722,126.9572572
어린이집,색동어린이집,"서울특별시 관악구 봉천로17길 5-16 1,2,3층 [보라매동] (봉천동)",37.48849735,126.931557
어린이집,조은어린이집,서울특별시 송파구 양산로2길 38 거여6단지아파트 관리사무소 1층 조은어린이집 (거여동),37.4885065,127.1464748
어린이집,예솔어린이집,서울특별시 동작구 신대방11길 13 (신대방동),37.48851104,126.9088047
어린이집,허니비어린이집,"서울특별시 서초구 서초대로1길 30 105동 101호(방배동, 현대아파트)",37.48857204,126.9838361
어린이집,꿈동산어린이집,"서울특별시 서초구 서초대로1길 30 101동 102호(방배동, 현대아파트)",37.48857204,126.9838361
어린이집,파란나라어린이집,서울특별시 서초구 서초대로1길 30 현대1차B상가 201호 (방배동),37.48857204,126.9838361
어린이집,만나어린이집,서울특별시 송파구 송이로33길 17 (문정동),37.48857751,127.1337007
어린이집,새순방과후 어린이집,서울특별시 서초구 서초대로15길 57 (방배동),37.48861941,126.9884105
어린이집,햇님어린이집,서울특별시 서초구 서리풀6길 28-4 (서초동),37.48867937,127.0213086
어린이집,샤론어린이집,서울특별시 동작구 동작대로29길 115 305동 108호(사당우성아파트),37.4886937,126.979239
어린이집,한울어린이집,서울특별시 구로구 구로동로8길 70-11,37.48871582,126.8879582
어린이집,자이어린이집,서울특별시 동작구 사당로2가길 102,37.48872158,126.9624771
어린이집,엔젤어린이집,"서울특별시 구로구 디지털로31길 90 108동 103호(구로동, 삼성래미안아파트)",37.48875184,126.8920337
어린이집,리틀거원어린이집,"서울특별시 송파구 양산로4길 16 502동 103호(거여동, 거여5단지아파트)",37.48883777,127.1453086
어린이집,이화어린이집,서울특별시 강남구 논현로51길 25 현대그린아파트 105호 (도곡동),37.48883789,127.0379765
어린이집,솔샘어린이집,"서울특별시 강남구 개포로 516 705동 106호(개포동, 주공7단지아파트)",37.48885461,127.0714848
어린이집,아이두산어린이집,"서울특별시 구로구 도림로 59 104동 103호 (구로동, 구로두산아파트)",37.48885719,126.8889246
어린이집,미피친구어린이집,서울특별시 구로구 구로동로22길 65 (구로동),37.48885868,126.8879154
어린이집,해뜨는어린이집,"서울특별시 관악구 관천로27길 2 103-103(신림동,우방아파트)   [신사동]",37.48886468,126.9188476
어린이집,아이빌어린이집,서울특별시 구로구 개봉로11길 46-23,37.48890443,126.8532114
어린이집,둥이나라어린이집,"서울특별시 구로구 경인로8길 64 108동 102호(오류동, 영풍마드레빌아파트)",37.48894805,126.8253702
어린이집,구립나래어린이집,서울특별시 관악구 관악로30길 27 관악푸르지오아파트 112-102,37.48896761,126.9606416
어린이집,은비어린이집,"서울특별시 관악구 관악로30길 27 109동 103호 (봉천동,대우푸르지오아파트)   [청림동]",37.48896761,126.9606416
어린이집,청림동사임당어린이집,"서울특별시 관악구 관악로30길 27 110동 103호(봉천동, 관악푸르지오)  [청림동]",37.48896761,126.9606416
어린이집,희아어린이집,"서울특별시 관악구 관악로30길 27 122동 101호(봉천동, 관악푸르지오)  [청림동]",37.48896761,126.9606416
어린이집,햇님몬테소리어린이집,"서울특별시 관악구 관악로30길 27 120동 103호(봉천동, 관악푸르지오)  [청림동]",37.48896761,126.9606416
어린이집,아이꿈 어린이집,"서울특별시 강남구 광평로51길 27 404동 101호(수서동, 삼익아파트)",37.48898464,127.1051502
어린이집,사랑어린이집,서울특별시 강남구 강남대로54길 9 한우리교회 (도곡동),37.48898789,127.0324009
어린이집,도담어린이집,서울특별시 구로구 개봉로11나길 3 (개봉동),37.48901105,126.8525924
어린이집,서초아이자람어린이집,서울특별시 서초구 사임당로20길 48-4,37.4890123,127.0222326
어린이집,문정꼬마숲어린이집,서울특별시 송파구 송이로32길 12 1층,37.48901642,127.1277282
어린이집,큰별i어린이집,서울특별시 동작구 동작대로31길 41 (사당동),37.48901691,126.9801471
어린이집,아이비영재어린이집,서울특별시 동작구 신대방6길 25 (신대방동),37.48902915,126.9113448
어린이집,무지개어린이집,"서울특별시 서초구 효령로 391 10동 103호(서초동, 무지개)",37.4890392,127.0261448
어린이집,튼튼어린이집,서울특별시 영등포구 디지털로37길 5 (대림동),37.48912755,126.8987273
어린이집,잼나어린이집,"서울특별시 구로구 벚꽃로78길 28-13 102호 (구로동, 동남베스트빌)",37.48917513,126.881921
어린이집,무림어린이집,서울특별시 동작구 신대방13길 1 (신대방동),37.48919435,126.9097174
어린이집,구립양지어린이집,서울특별시 동작구 사당로23바길 9 삼성래미안내 구립양지어린이집 (사당동),37.48920433,126.9704865
어린이집,해나라어린이집,서울특별시 영등포구 대림로7나길 1 서울시 영등포구 대림로 7나길 1,37.48924133,126.9036942
어린이집,해달별어린이집,"서울특별시 관악구 관천로22길 43 1,2,3층 [신림동] (신림동)",37.48926857,126.9251911
어린이집,영재어린이집,"서울특별시 구로구 도림로 59 107동 106호(구로동, 구로두산아파트)",37.48928285,126.8892333
어린이집,두산어린이집,"서울특별시 구로구 도림로 59 105동 102호(구로동, 구로두산아파트)",37.48928285,126.8892333
어린이집,동화마을어린이집,"서울특별시 구로구 도림로 59 105동 104호(구로동, 구로두산아파트)",37.48928285,126.8892333
어린이집,아기세상어린이집,"서울특별시 구로구 경인로2길 30 102동 101호(오류동, 은하수수목원2차아파트)",37.48929157,126.8269343
어린이집,글로리어린이집,서울특별시 서초구 서초대로29길 23-9 1층(방배동),37.48933301,126.9945287
어린이집,동화속에어린이집,"서울특별시 관악구 관악로 285 105동 101호(봉천동, 봉천동아1차아파트)  [성현동]",37.48939,126.955444
어린이집,건강한어린이집,"서울특별시 관악구 관악로 285 107동 103호(봉천동, 성현동아아파트)  [성현동]",37.48939104,126.9554445
어린이집,문정동화나라어린이집,서울특별시 송파구 동남로8길 18 (문정동),37.48940331,127.1260514
어린이집,동화키즈 어린이집,서울특별시 송파구 동남로8길 19 1층,37.48943231,127.1263765
어린이집,구립고은어린이집,서울특별시 동작구 신대방2길 42-10,37.48943548,126.9126121
어린이집,다온어린이집,서울특별시 동작구 사당로2가길 103 (사당동5동 190-197번지),37.48945126,126.9637923
어린이집,호암어린이집,서울특별시 구로구 개봉로11길 28-31,37.4894735,126.8541006
어린이집,영광어린이집,서울특별시 서초구 서초대로19길 59-4,37.48950648,126.9897261
어린이집,선애아이어린이집,서울특별시 구로구 구로동로12길 70 101호 (구로동),37.48952504,126.8872022
어린이집,소슬어린이집,서울특별시 관악구 성현로 80 성현동] (봉천동),37.48961617,126.94900505691372
어린이집,늘빛어린이집,서울특별시 구로구 구로동로21길 38,37.4896326,126.8821436
어린이집,라온 어린이집,서울특별시 강남구 광평로51길 27 404동 106호,37.48964095,127.1010474
어린이집,궁전어린이집,서울특별시 동작구 동작대로29나길 35 (사당동),37.48964976,126.980601
어린이집,솔이어린이집,서울특별시 송파구 양산로2길 44 거여아파트3단지내,37.48967689,127.1473368
어린이집,초록마을어린이집,서울특별시 관악구 봉천로 247-13 보라매동] (봉천동),37.48971393,126.9292872
어린이집,샛별 어린이집,서울특별시 서초구 서초대로15길 74 (방배동),37.48972284,126.9884748
어린이집,영광몬테소리어린이집,서울특별시 동작구 동작대로33길 14 (사당동),37.48973145,126.9815068
어린이집,이화우성어린이집,"서울특별시 구로구 도림로22길 8 101동 110호(구로동, 이화우성아파트)",37.48973431,126.8937508
어린이집,우리꿈터어린이집,"서울특별시 구로구 도림로22길 8 105동 105호(구로동, 이화우성아파트)",37.48973431,126.8937508
어린이집,선애어린이집,서울특별시 구로구 구로동로12길 70 (구로동),37.48975064,126.888004
어린이집,꿈동산어린이집,서울특별시 관악구 봉천로21길 66 보라매동] (봉천동),37.48978184,126.9344064
어린이집,대우어린이집,서울특별시 관악구 청림5길 28 (봉천동)  [청림동],37.48978281,126.9601986
어린이집,개봉어린이집,서울특별시 구로구 개봉로16길 18-6,37.4897845,126.857184
어린이집,횃불어린이집,서울특별시 관악구 당곡길 7-8,37.48978617,126.9285093
어린이집,사과나무어린이집,"서울특별시 동작구 동작대로29길 110 406동 104호(사당동, 신동아4차아파트)",37.48981738,126.9760201
어린이집,장미어린이집,"서울특별시 동작구 동작대로29길 115 306동 108호(사당동, 사당우성아파트)",37.48981738,126.9760201
어린이집,엘프어린이집,"서울특별시 동작구 동작대로29길 110 403동 102호(사당동, 신동아4차아파트)",37.48981738,126.9760201
어린이집,극동어린이집,"서울특별시 동작구 동작대로29길 119 113동 상가305호 (사당동, 극동아파트)",37.48981738,126.9760201
어린이집,중앙어린이집,"서울특별시 동작구 동작대로29길 91 305동 111호(사당동, 사당우성아파트)",37.48981738,126.9760201
어린이집,하나영재어린이집,서울특별시 동작구 동작대로29길 118 신동아아파트상가동 하나영재어린이집 (사당동),37.48981738,126.9760201
어린이집,구립새싹어린이집,서울특별시 동작구 동작대로29길 119 극동아파트111동 뒤 새싹어린이집,37.48981738,126.9760201
어린이집,문정키즈어린이집,서울특별시 송파구 송이로31길 32-10,37.48982142,127.1342528
어린이집,구립리가어린이집,"서울특별시 동작구 사당로27길 130 105동 키즈클럽(사당동,이수역 리가아파트)",37.48982881,126.9728803
어린이집,늘푸른어린이집,서울특별시 서초구 신반포로33길 64 (잠원동)2동 101호,37.48984394,126.9929466
어린이집,꿀송이 어린이집,서울특별시 관악구 성현로 80 관악드림타운아파트 106동104호(봉천동)  [성현동],37.489845,126.95296
어린이집,햇님어린이집,"서울특별시 관악구 성현로 80 110동 103호(봉천동, 관악드림타운)  [성현동]",37.489845,126.95296
어린이집,레미안어린이집,"서울특별시 관악구 성현로 80 144-101(봉천동,관악드림타운아파트)   [성현동]",37.489845,126.95296
어린이집,구립꿀송이어린이집,서울특별시 관악구 성현로 80 관악드림타운아파트 106-104,37.4898478,126.9529837
어린이집,햇님데이케어어린이집,"서울특별시 관악구 성현로 80 110동 104호(봉천동, 관악드림타운)  [성현동]",37.4898478,126.9529837
어린이집,꽃뜰어린이집,"서울특별시 구로구 개봉로2길 133-15 105동 101호(개봉동, 개봉동현대아이파크아파트)",37.48993313,126.8597916
어린이집,꽃동산어린이집,서울특별시 송파구 송이로 200 대진빌딩 2층 꽃동산어린이집 (문정동),37.48998692,127.1279647
어린이집,바우솔어린이집,서울특별시 구로구 구로동로25길 33-10,37.49012911,126.8818977
어린이집,이화우성어린이집,서울특별시 구로구 도림로22길 8 101동 110호,37.49014771,126.8932529
어린이집,수서서머힐어린이집,서울특별시 강남구 광평로51길 22 한아름아파트 관리동,37.49021867,127.1039565
어린이집,백합어린이집,"서울특별시 구로구 구일로2길 60 210동 101호(구로동, 구일우성아파트)",37.49022114,126.8768768
어린이집,대천어린이집,서울특별시 동작구 신대방14가길 23 (신대방동),37.49024868,126.9122701
어린이집,예동영재어린이집,서울특별시 동작구 사당로2길 64 (사당동),37.49026925,126.9644934
어린이집,봉일어린이집,서울특별시 관악구 구암5길 14 봉일교회 [성현동] (봉천동),37.49033219,126.9473496
어린이집,에코어린이집,"서울특별시 송파구 양산로8길 18 210동 101호(거여동, 거여동아2단지)",37.49033961,127.1461498
어린이집,코코어린이집,"서울특별시 송파구 양산로8길 18 202동 104호(거여동, 거여동아2단지)",37.49033961,127.1461498
어린이집,예지미예뜰어린이집,서울특별시 영등포구 대림로 88 (3층) (대림동),37.49034098,126.9033468
어린이집,꿈나래어린이집,서울특별시 구로구 개봉로16가길 10-26,37.49039618,126.8575444
어린이집,우성꼬마별어린이집,"서울특별시 구로구 구일로2길 60 202동 105호 (구로동, 구일우성아파트)",37.49042746,126.8770766
어린이집,강남역삼럭키어린이집,"서울특별시 강남구 논현로 213 102동 116호(도곡동, 역삼럭키아파트)",37.49043629,127.0401837
어린이집,별어린이집,"서울특별시 서초구 사임당로 130 5동 108호(서초동, 신동아아파트)",37.49044704,127.0250997
어린이집,혜성어린이집,서울특별시 구로구 개봉로15길 36-16,37.49046749,126.8538366
어린이집,해솔어린이집,"서울특별시 구로구 오류로 65 101동 101호(오류동, 경남아너스빌)",37.49051569,126.8398207
어린이집,은비어린이집,서울특별시 구로구 개봉로16가길 10-5,37.49052159,126.8570959
어린이집,다우리어린이집,서울특별시 구로구 구로동로28길 20-3 다우리어린이집 (구로동),37.49053165,126.8854017
어린이집,삼성아트어린이집,서울특별시 송파구 문정로 83,37.49053265,127.130367
어린이집,리틀아이어린이집,"서울특별시 구로구 구로중앙로7길 28 2동 106호(구로동, 극동아파트)",37.49061395,126.8889738
어린이집,지혜어린이집,서울특별시 관악구 봉천로13길 29-32 (봉천동)  [보라매동],37.49062233,126.9303953
어린이집,경남큰사랑어린이집,"서울특별시 구로구 오류로 65 105동 101호(오류동, 경남아너스빌)",37.49064637,126.8401158
어린이집,구립사당어린이집,서울특별시 동작구 사당로27길 190 (사당동),37.49066859,126.972252
어린이집,엄마품어린이집,"서울특별시 구로구 오류로8다길 9 다동 106호(오류동, 우석빌라)",37.49067769,126.8428647
어린이집,서초구립 서리풀어린이집,"서울특별시 서초구 반포대로 121 (서초동, 사랑의 교회내)",37.49068583,127.0076529550828
어린이집,성은어린이집,서울특별시 구로구 구로동로25길 14 (구로동),37.49070877,126.8832619
어린이집,도곡사임당어린이집,"서울특별시 강남구 논현로 218 2동 105호(도곡동, 삼익아파트)",37.49073485,127.042109
어린이집,선우어린이집,서울특별시 강남구 도곡로18길 9 (도곡동),37.49075507,127.0384981
어린이집,상록어린이집,서울특별시 강남구 영동대로4길 10 공무원아파트 9단지내,37.49077089,127.0752426
어린이집,아람마주어린이집,서울특별시 서초구 동광로12길 12 (방배동),37.49078093,126.9865076
어린이집,백합어린이집,서울특별시 동작구 동작대로29길 119 110동 105호,37.49080401,126.9770522
어린이집,사랑나무어린이집,"서울특별시 구로구 경인로3길 97 3동 105호(온수동, 대흥빌라아파트)",37.4908289,126.8220614
어린이집,서초구립 서울교육대학교사향어린이집,서울특별시 서초구 서초중앙로 96 서울교육대학교 평생교육원 1층,37.49084333,127.0176896
어린이집,해밀어린이집,"서울특별시 송파구 동남로18길 44 9-102(가락동, 프라자아파트)",37.49086247,127.1357753
어린이집,대청어린이집,서울특별시 강남구 양재대로37길 19 (일원동),37.49087497,127.083511
어린이집,새싹어린이집,서울특별시 송파구 양산로8길 4 거여1단지 @ 관리동1층,37.49089535,127.1445015
어린이집,옥토어린이집,"서울특별시 송파구 양산로8길 4 106동 118호(거여동, 거여1단지)",37.49089535,127.1445015
어린이집,거여새싹어린이집,"서울특별시 송파구 양산로8길 8 관리동 1층(거여동, 거여1단지아파트)",37.49091479,127.1445653
어린이집,키즈극동어린이집,"서울특별시 구로구 구로중앙로7길 28 1동 101호(구로동, 극동아파트)",37.49094962,126.8897921
어린이집,도현어린이집,서울 구로구 구로2동 429-116 (1층),37.49096489,126.8872012
어린이집,펠리스어린이집,서울특별시 영등포구 대림로31가길 16 (대림동),37.49098469,126.8977705
어린이집,아기사랑 어린이집,"서울특별시 강남구 도곡로18길 35 3동 103호(도곡동, 현대아파트)",37.49098792,127.039257
어린이집,늘해랑어린이집,"서울특별시 구로구 남부순환로95길 88 102동 105호(개봉동, 두산아파트)",37.49103209,126.8565894
어린이집,명화어린이집,서울특별시 강남구 광평로51길 49 (수서동),37.491057,127.1002765
어린이집,수수꽃다리어린이집,"서울특별시 구로구 오류로8길 11 106동 101호(오류동, 푸르지오아파트)",37.49106393,126.8276631
어린이집,키드어린이집,서울특별시 영등포구 도림천로11길 3 (대림동),37.49109041,126.8965477
어린이집,푸른솔어린이집,서울특별시 영등포구 디지털로37길 20-1,37.49109741,126.8980696
어린이집,가람어린이집,서울특별시 관악구 국회단지9길 7 가람어린이집 [은천동] (봉천동),37.49109863,126.9423678
어린이집,키드스쿨어린이집,서울특별시 영등포구 도림천로 379 (대림동),37.49110821,126.8963314
어린이집,키즈어린이집,서울특별시 영등포구 도림천로11길 3,37.49111293,126.8965624
어린이집,해돋이어린이집,서울특별시 서초구 방배로33길 58-3,37.4911172,126.9875796
어린이집,다사랑어린이집,서울특별시 구로구 구로동로28길 25-9,37.49116536,126.8855269
어린이집,당곡1어린이집,서울특별시 관악구 당곡2가길 11 당곡1어린이집 [보라매동] (봉천동),37.49120087,126.9296097
어린이집,서초우주 어린이집,서울특별시 서초구 동광로18길 22 (방배동),37.49123968,126.989255
어린이집,가나어린이집,서울특별시 관악구 당곡6길 16-3 보라매동] (봉천동),37.49126902,126.9284791
어린이집,구로삼성어린이집,서울특별시 구로구 가마산로 174 구로삼성어린이집 (구로동),37.49127687,126.8824517
어린이집,키즈극동어린이집,"서울특별시 구로구 구로중앙로7길 28 1동 101호(구로동, 극동아파트)",37.49127963,126.8896148
어린이집,구립센트씨엘어린이집,서울특별시 관악구 구암5길 28,37.49128271,126.94575721594852
어린이집,청소년수련관방과후교실어린이집,서울특별시 구로구 구로동로 141 (구로동),37.49129492,126.883312
어린이집,엄마손몬테소리어린이집,서울특별시 강남구 일원로5길 19 (일원동),37.49134758,127.0822941
어린이집,혜윰어린이집,서울특별시 송파구 양산로8길 23 1층,37.49139743,127.1462712
어린이집,하늘샘어린이집,서울특별시 구로구 개봉로18길 17 (개봉동),37.49140991,126.8569919
어린이집,하늘샘어린이집,서울특별시 구로구 개봉로18길 17,37.49142149,126.85700467453276
어린이집,새하늘어린이집,"서울특별시 송파구 동남로 160 17동 102호(문정동, 현대1차아파트)",37.49145709,127.1280381
어린이집,원광어린이집,서울 구로구 구로2동 329-45,37.49146106,126.8862123
어린이집,새싹나라어린이집,"서울특별시 구로구 오류로8길 11 105동 102호(오류동, 오류동푸르지오아파트)",37.49155229,126.8415463
어린이집,선의어린이집,서울특별시 관악구 양녕로16길 44-9 선의관악복지관 1층 (봉천동)  [성현동],37.49158898,126.9455919
어린이집,마미아이뜰어린이집,"서울특별시 구로구 경인로8길 64 105동 101호(오류동, 영풍마드레빌아파트)",37.49159741,126.8388
어린이집,현대열린어린이집,서울특별시 구로구 개봉로20길 6 현대아파트 1단지내 (개봉역입구쪽) 현대열린어린이집 (개봉동),37.4916003,126.8615925
어린이집,행복한아이어린이집,"서울특별시 구로구 개봉로20길 6 105동 103호(개봉동, 현대아파트)",37.4916003,126.8615925
어린이집,사과나무어린이집,"서울특별시 구로구 개봉로20길 158 204동 102호(개봉동, 현대홈타운)",37.4916003,126.8615925
어린이집,요엘행복한어린이집,서울특별시 송파구 양산로10길 22 (거여동),37.49161424,127.146349
어린이집,프리오리어린이집,"서울특별시 서초구 서초대로25길 97 (방배동) 1,2층",37.49167193,126.9932353
어린이집,자람어린이집,서울특별시 강남구 일원로5길 29 (일원동),37.49168775,127.0829345
어린이집,목양몬테소리어린이집,서울특별시 구로구 개봉로17마길 8 (개봉동),37.49171504,126.8532397
어린이집,둥이나라어린이집,서울특별시 구로구 경인로8길 64 101동 104호(오류동 영풍마드레빌아파트),37.4917168,126.83881425824625
어린이집,구립구암어린이집,서울특별시 관악구 구암길 76 1층 구암어린이집 (봉천동)  [성현동],37.49174466,126.9471568
어린이집,마천복지관방과후어린이집,서울특별시 송파구 마천로65길 4 (마천동),37.49175027,127.1556226
어린이집,새싹어린이집,서울특별시 영등포구 대림로10길 15-1 1층,37.4917506,126.9045066978156
어린이집,사랑어린이집,"서울특별시 관악구 당곡2가길 29 1,2층 (봉천동)  [보라매동]",37.49176448,126.9298424
어린이집,구립 구일어린이집,서울특별시 구로구 구일로 62 (구로동),37.49176847,126.8743466
어린이집,꿈별어린이집,"서울특별시 강남구 양재대로55길 10 118동 106호(일원동, 수서1단지아파트)",37.49181675,127.0879595
어린이집,목양어린이집,서울특별시 구로구 개봉로17마길 10 (개봉동),37.491836,126.8532627
어린이집,서유어린이집,서울특별시 송파구 오금로64나길 9,37.49190124,127.1483213
어린이집,서초연꽃어린이집,서울특별시 서초구 사임당로19길 51 (서초동),37.49191152,127.0169783
어린이집,가락아이뜰어린이집,서울특별시 송파구 중대로12길 34 (가락동),37.49194091,127.124986
어린이집,고려서머힐어린이집,서울특별시 송파구 동남로18길 44 프라자아파트 관리동1층 고려서머힐어린이집,37.49197119,127.1336174
어린이집,훼미리어린이집,"서울특별시 구로구 개봉로20길 6 118동 102호(개봉동, 현대아파트)",37.49200508,126.8585331
어린이집,예꿈어린이집,"서울특별시 구로구 개봉로20길 6 102동 102호(개봉동, 현대아파트)",37.49200508,126.8585331
어린이집,사랑몬테소리어린이집,"서울특별시 구로구 개봉로20길 6 103동 101호(개봉동, 현대아파트)",37.49200508,126.8585331
어린이집,초롱어린이집,"서울특별시 구로구 개봉로20길 6 116동 101호(개봉동, 현대아파트)",37.49200508,126.8585331
어린이집,새싹어린이집,"서울특별시 구로구 개봉로20길 6 118동 104호(개봉동, 현대아파트)",37.49200508,126.8585331
어린이집,아침햇살어린이집,"서울특별시 구로구 개봉로20길 6 110동 103호(개봉동, 현대아파트)",37.49200508,126.8585331
어린이집,꽃사슴어린이집,"서울특별시 구로구 개봉로20길 6 102동 103호(개봉동, 현대아파트)",37.49200508,126.8585331
어린이집,사과나무어린이집,서울특별시 구로구 개봉로20길 158 204동 102호,37.49204201,126.8607382
어린이집,구립이수어린이집,서울특별시 동작구 동작대로35길 36 이수어린이집 (사당동),37.49205759,126.9803833
어린이집,은성어린이집,"서울특별시 강남구 개포로110길 15 111동 102호(일원동, 우성7차아파트)",37.49212332,127.0736269
어린이집,아이천사어린이집,서울특별시 송파구 송이로31길 56 문정시영아파트 단지내 (문정동),37.49213193,127.1364958
어린이집,보라매어린이집,서울특별시 구로구 구로중앙로 22 (구로동),37.49215863,126.8916909
어린이집,꽃별아이어린이집,"서울특별시 구로구 경인로8길 64 107동 103호(오류동, 영풍마드레빌아파트)",37.49216751,126.8402935
어린이집,거여열린어린이집,"서울특별시 송파구 오금로56길 28 101동 104호(거여동, 금호어울림아파트)",37.49217183,127.143338
어린이집,보람어린이집,"서울특별시 관악구 관악로 304 118동 101호(봉천동, 현대아파트)",37.49220103,126.9583365
어린이집,사랑맘 어린이집,"서울특별시 관악구 관악로 304 120동 103호(봉천동, 현대아파트)",37.49220103,126.9583365
어린이집,예닮어린이집,"서울특별시 관악구 관악로 304 103동 101호(봉천동, 현대아파트)",37.49220103,126.9583365
어린이집,고려대학교 구로병원 어린이집,서울특별시 구로구 구로동로28길 33-41,37.49221157,126.8857284
어린이집,서초구립 방배본동신나는어린이집,서울특별시 서초구 동광로11길 23 .,37.49222415,126.9858517
어린이집,햇살어린이집,서울특별시 동작구 사당로2라길 15 (사당동),37.49222706,126.9627283
어린이집,참사랑어린이집,서울특별시 영등포구 디지털로 400 유성빌딩2층 참사랑어린이집,37.49224377,126.9033247
어린이집,꿈나무어린이집,"서울특별시 구로구 구일로4길 46 204동 105호(구로동,현대연예인아파트)",37.4922564,126.8771784
어린이집,마천청소년수련관방과후어린이집,서울특별시 송파구 성내천로 319 (마천동),37.49232243,127.1566305
어린이집,예영어린이집,"서울특별시 동작구 여의대방로 22 2동 102호(신대방동, 우성아파트)",37.49234389,126.9116167
어린이집,새하늘어린이집,"서울특별시 동작구 여의대방로 22 6동 103호(신대방동, 우성아파트)",37.49234389,126.9116167
어린이집,다솜어린이집,"서울특별시 동작구 여의대방로 8 102동 105호(신대방동, 우성아파트)",37.49234389,126.9116167
어린이집,예쁜별어린이집,서울특별시 구로구 서해안로28길 18 (오류동),37.49238977,126.84306
어린이집,거성어린이집,서울특별시 송파구 오금로 544-6 거성어린이집,37.49243563,127.1494201
어린이집,거여다온어린이집,서울특별시 송파구 오금로56길 16 우방1차아파트 102동 101호,37.49249587,127.1424877
어린이집,아기둥지어린이집,"서울특별시 동작구 상도로 421 108동 108호(상도동, 관악현대아파트)",37.49250506,126.9577669
어린이집,지혜어린이집,"서울특별시 구로구 경인로8길 75 103동 101호(오류동, 삼천리아파트)",37.49251748,126.8393613
어린이집,예사랑 어린이집,서울특별시 영등포구 대림로 124 (대림동),37.49253592,126.9019894
어린이집,자연닮은꼬마숲어린이집,"서울특별시 서초구 사임당로23길 58 301동 105호(서초동, 현대3차아파트)",37.49256002,127.0213328
어린이집,우방어린이집,"서울특별시 송파구 오금로56길 16 102동 101호(거여동, 우방1차아파트)",37.49260886,127.1422225
어린이집,대림2동어린이집,서울특별시 영등포구 대림로23길 27 구립대림2동어린이집,37.49262073,126.8980801
어린이집,빛나 어린이집,"서울특별시 강남구 양재대로55길 10 121동 105호(일원동, 수서1단지아파트)",37.49263696,127.0902112
어린이집,청마을어린이집,서울특별시 강남구 양재대로55길 10 대청복지관 내 1층 청마을어린이집,37.49263696,127.0902112
어린이집,경남큰사랑어린이집,"서울특별시 구로구 오류로 65 105동 101호(오류동, 경남아너스빌)",37.49266874,126.8271246
어린이집,요엘어린이집,서울특별시 송파구 마천로 351 사자빌딩2층,37.49267177,127.1533177
어린이집,천마어린이집,서울특별시 송파구 성내천로 315 (마천동),37.49274443,127.1564199
어린이집,안데르센어린이집,서울특별시 송파구 오금로 522,37.49276768,127.1467339
어린이집,꼬마숲예지어린이집,"서울특별시 구로구 가마산로20다길 41 가동 101호(구로동, 골드마인아파트)",37.49279215,126.8885356
어린이집,엘프랜드어린이집,서울특별시 송파구 오금로46길 66 1층,37.49280386,127.1313802
어린이집,참사랑서밋어린이집,서울특별시 송파구 동남로18길 45,37.49284365,127.13482159548651
어린이집,구립보라매어린이집,서울특별시 관악구 당곡6길 63,37.49286778,126.930642
어린이집,라온어린이집,"서울특별시 구로구 구일로4길 46 203동 104호(구로동, 현대연예인아파트)",37.49287786,126.8770191
어린이집,경선어린이집,서울특별시 구로구 개봉로20길 6 118동 102호,37.49288005,126.8593073
어린이집,행복한아이어린이집,"서울특별시 구로구 개봉로20길 6 105동 103호(개봉동, 현대아파트)",37.49288005,126.8593073
어린이집,초롱어린이집,서울특별시 구로구 개봉로20길 6 116동 101호,37.49291081,126.8582782126408
어린이집,해달별 아이사랑어린이집,서울특별시 영등포구 대림로23가길 2-1,37.49297425,126.8987432
어린이집,돋는해어린이집,"서울특별시 송파구 동남로18길 44 8동 102호(가락동,프라자아파트)",37.49298398,127.134696
어린이집,아이맘어린이집,"서울특별시 구로구 구일로4길 65 105동 106호(구로동, 주공아파트)",37.49299645,126.8752781
어린이집,예원어린이집,"서울특별시 구로구 구일로4길 46 203동 104호(구로동, 현대연예인아파트)",37.49299645,126.8752781
어린이집,참빛어린이집,"서울특별시 구로구 구일로4길 65 109동 108호(구로동, 주공아파트)",37.49299645,126.8752781
어린이집,딸기어린이집,"서울특별시 구로구 구일로4길 65 111동 108호(구로동, 주공아파트)",37.49299645,126.8752781
어린이집,이삭어린이집,"서울특별시 구로구 구일로4길 65 107동 105호(구로동, 구로주공아파트)",37.49299645,126.8752781
어린이집,바다어린이집,"서울특별시 구로구 구일로4길 65 104동 103호(구로동, 구로주공아파트)",37.49299645,126.8752781
어린이집,새동산어린이집,"서울특별시 구로구 구일로4길 65 113동 104호(구로동, 구로주공아파트)",37.49299645,126.8752781
어린이집,큰사랑한신어린이집,"서울특별시 구로구 구일로8길 63 1동 111호(구로동, 한신1차아파트)",37.49303544,126.8756823
어린이집,꿈나무어린이집,"서울특별시 구로구 구일로4길 46 204동 105호(구로동, 현대연예인아파트)",37.49303544,126.8756823
어린이집,새하늘어린이집,"서울특별시 구로구 구일로4길 46 201동 101호(구로동, 현대연예인아파트)",37.49303544,126.8756823
어린이집,한솔어린이집,서울특별시 관악구 관악로 304 현대아파트113동101호,37.49304798,126.9595424
어린이집,무지개어린이집,서울특별시 구로구 개봉로17아길 44 멤버스빌 101호 (개봉동),37.49305127,126.851013
어린이집,동작이수방과후교실어린이집,서울특별시 동작구 동작대로35차길 7 (사당동),37.49309366,126.9768608
어린이집,사무엘선교어린이집,서울특별시 구로구 개봉로20길 91-10,37.49309417,126.859998
어린이집,꽃별어린이집,"서울특별시 구로구 서해안로 2313-10 1동 109호(오류동, 미래빌라)",37.49312698,126.8412851
어린이집,서초구립 래미안서초에스티지S어린이집,서울특별시 서초구 서운로 104,37.49317336,127.0270893
어린이집,하은어린이집,서울특별시 서초구 서초대로58길 35-6,37.49317735,127.0182611
어린이집,예쁜꿈어린이집,서울특별시 강남구 개포로110길 15 우성7차아파트 107동 104호,37.49324368,127.07911488835214
어린이집,서울특별시립보라매병원어린이집,서울특별시 동작구 보라매로5길 20 시립보라매병원 본관3층 (신대방동),37.49324541,126.924459
어린이집,열린이레어린이집,서울특별시 송파구 오금로46길 65 (가락동),37.49325352,127.1325294
어린이집,구로한빛어린이집,서울특별시 구로구 경인로8길 64 영풍마드레빌아파트 105동 101호,37.49326037,126.8477813
어린이집,구립연꽃어린이집,서울특별시 동작구 성대로16길 21,37.49327708,126.9362159
어린이집,하나어린이집,서울특별시 강남구 일원로3길 81 (일원동),37.49328662,127.0858925
어린이집,지예어린이집,서울특별시 강남구 개포로128길 29-7,37.49331261,127.0847104
어린이집,새생명 어린이집,서울특별시 송파구 성내천로23가길 8 .,37.49334119,127.1410754
어린이집,작은천사어린이집,"서울특별시 송파구 오금로61길 20 202동 106호(거여동, 현대아파트)",37.49334119,127.1410754
어린이집,꼬마사랑어린이집,"서울특별시 송파구 오금로54길 10 102동 105호(거여동, 현대아파트)",37.49334119,127.1410754
어린이집,삼성성모어린이집,"서울특별시 관악구 보라매로 62 102동 109호(봉천동, 보라매삼성아파트)  [보라매동]",37.49339228,126.927819
어린이집,로고스어린이집,서울특별시 동작구 보라매로7가길 5-5,37.49341001,126.9262094
어린이집,은혜뜰어린이집,서울특별시 구로구 부일로 985 수정아파트 102호 (궁동),37.49343372,126.8369679
어린이집,대치팰리스어린이집,서울특별시 강남구 삼성로51길 37 래미안대치팰리스 1단지 관리동,37.49343628,127.0576978
어린이집,구립푸른어린이집,서울특별시 동작구 동작대로39길 39 이수푸르지오더프레티움 관리동,37.4934391,126.9809065
어린이집,꼬꼬마어린이집,서울특별시 송파구 거마로2길 27 (거여동),37.49344157,127.1478436
어린이집,명화어린이집,서울특별시 구로구 개봉로17다길 6 (개봉동),37.49344959,126.8551028
어린이집,해뜨는어린이집,"서울특별시 구로구 부일로 927 102동 106호(궁동, 궁동우남푸르미아아파트)",37.49349413,126.8296731
어린이집,거여2동 주민자치센터 방과후교실,서울특별시 송파구 거마로2길 15 (거여동),37.49351342,127.1463138
어린이집,참좋은 어린이집,서울특별시 영등포구 대림로22길 4 2층 (대림동),37.49351377,126.9017218
어린이집,샘소슬 어린이집,서울특별시 구로구 부일로17길 5 (사실상1~3 층) (궁동),37.49356204,126.8346285
어린이집,동부영재어린이집,"서울특별시 송파구 송파대로37길 29 103동 106호(가락동, 송파동부쎈트레빌)",37.49359321,127.1261711
어린이집,도담도담어린이집,서울특별시 송파구 문정로13길 11-21 2층,37.49362456,127.1347144
어린이집,화목어린이집,서울특별시 구로구 구로중앙로8길 41-20,37.49363116,126.8934457
어린이집,참해맑은어린이집,서울특별시 동작구 동작대로39길 46 공작빌라상가A동 (동작동),37.49364163,126.9797936
어린이집,대림3동어린이집,서울특별시 영등포구 도림로31길 14-1,37.4936606,126.8955328
어린이집,새중앙어린이집,서울특별시 구로구 구로중앙로14길 36 (구로동),37.49373569,126.8925813
어린이집,강남토토빌어린이집,서울특별시 강남구 역삼로14길 13 신도빌딩 1층 (역삼동),37.4937513,127.0357741
어린이집,강남아이트라움어린이집,서울특별시 강남구 개포로124길 13 (일원동),37.49377167,127.0830221
어린이집,요엘비전어린이집,서울특별시 송파구 성내천로49길 2-1,37.4937811,127.1561052
어린이집,키사랑어린이집,서울특별시 송파구 중대로 109 대동빌딩 3층 (가락동),37.49382836,127.1204598
어린이집,늘푸른어린이집,서울특별시 강남구 개포로128길 19 (일원동),37.49384946,127.0838966
어린이집,빛나어린이집,서울특별시 영등포구 대림로22길 10-1 1층,37.49385401,126.9021692
어린이집,구민회관어린이집,서울특별시 강남구 삼성로 154 (대치동),37.49387231,127.0642576
어린이집,소영몬테소리어린이집,서울특별시 송파구 마천로61길 22 (마천동),37.49391787,127.1545668
어린이집,베이비케슬어린이집,"서울특별시 강남구 개포로110길 15 114동 105호(일원동, 일원동우성7차아파트)",37.49392,127.073279
어린이집,아기우성 어린이집,"서울특별시 강남구 개포로110길 15 101동 104호(일원동, 일원동우성7차아파트)",37.49392,127.073279
어린이집,리틀썬어린이집,서울특별시 송파구 중대로9길 43-11 리틀썬어린이집,37.49392808,127.1173996
어린이집,오류동행복주택어린이집,서울특별시 구로구 경인로20가길 38 1층,37.49394195,126.8412305
어린이집,우림어린이집,서울특별시 구로구 서해안로 2368 우림필유상가동 (오류동),37.49394781,126.8468525
어린이집,하영어린이집,서울특별시 송파구 성내천로 299-4 삼성타운 101 (마천동),37.49398494,127.1560079
어린이집,브니엘어린이집,"서울특별시 강남구 개포로109길 21 304동 106호(개포동, 대청아파트)",37.4939874,127.0750955
어린이집,리틀바움어린이집,서울특별시 강남구 개포로109길 21 대치2단지 관리동 1층,37.4939874,127.0750955
어린이집,베스트베이비어린이집,"서울특별시 강남구 개포로109길 5 218동 108호(개포동, 대치아파트)",37.4939874,127.0750955
어린이집,인성어린이집,"서울특별시 강남구 개포로109길 21 305동 102호(개포동, 대청아파트)",37.4939874,127.0750955
어린이집,롯데어린이집,서울특별시 동작구 여의대방로10길 38 롯데낙천대아파트 단지내,37.49399088,126.9143464
어린이집,요정나라어린이집,"서울특별시 동작구 여의대방로10길 38 102동 101호(신대방동, 롯데낙천대아파트)",37.49399088,126.9143464
어린이집,아이나라어린이집,"서울특별시 동작구 여의대방로10길 38 106동 102호(신대방동, 롯데낙천대아파트)",37.49399088,126.9143464
어린이집,전박사어린이집,서울특별시 관악구 보라매로 62 보라매 삼성아파트 단지내 전박사 어린이집,37.49402158,126.9278698
어린이집,목련어린이집,서울특별시 강남구 개포로 617-8,37.49402874,127.0777321
어린이집,꿈을그리는아이들어린이집,서울특별시 서초구 방배중앙로25길 36 101호(방배동),37.49407228,126.9841788
어린이집,대건어린이집,서울특별시 구로구 구일로8길 16 (구로동),37.49411718,126.8728978
어린이집,바름이어린이집,서울특별시 서초구 서초대로45길 20 서울변호사교육문화관 1층 (서초동),37.49412862,127.0089518
어린이집,서울주택도시공사 으뜸어린이집,서울특별시 강남구 개포로 621 SH공사 14동 5호(개포동),37.49417033,127.0787878
어린이집,서초이화어린이집,서울특별시 서초구 방배로39길 42 (방배동),37.49420587,126.9867249
어린이집,서울영재어린이집,서울특별시 구로구 오류로8길 151-1,37.49427232,126.8481604
어린이집,도곡어린이집,서울특별시 강남구 선릉로 217 (도곡동),37.49430378,127.0534954
어린이집,애솔어린이집,서울특별시 송파구 거마로 11 2층 (거여동),37.49431553,127.1445925
어린이집,보라매영재어린이집,"서울특별시 동작구 여의대방로10길 59 104동 102호(신대방동, 보라매파크빌아파트)",37.49435365,126.9154856
어린이집,새솔아델포레어린이집,서울특별시 영등포구 신길로 29,37.49435801,126.9069794865993
어린이집,보람어린이집,서울특별시 강남구 남부순환로397길 19 (대치동),37.49436986,127.0613247
어린이집,보라매삼성어린이집,서울특별시 관악구 보라매로 62 보라매삼성아파트 107-105,37.49440905,126.9276214
어린이집,아름어린이집,서울특별시 강남구 도곡로39길 6 (역삼동),37.49442771,127.0456038
어린이집,꿈동산어린이집,"서울특별시 구로구 남부순환로95길 16 101동 101호(개봉동, 삼호아파트)",37.49450663,126.85726877413832
어린이집,다온어린이집,서울특별시 영등포구 도림로39길 11-13,37.49454421,126.8968426
어린이집,거여어린이집,서울특별시 송파구 오금로 475 거여어린이집,37.49455464,127.1421528
어린이집,꿈꾸는나무어린이집,서울특별시 동작구 국사봉14길 7 궁전빌라 102호 (상도동),37.4945986,126.9325851
어린이집,구민어린이집,서울특별시 구로구 가마산로26길 34 (구로동),37.49464163,126.891566
어린이집,수산나어린이집,"서울특별시 동작구 여의대방로 28 106동 101호(신대방동, 현대아파트)",37.49466419,126.912119
어린이집,신영어린이집,서울특별시 동작구 여의대방로 28 현대아파트 104동 앞,37.49466419,126.912119
어린이집,사랑스런어린이집,서울특별시 송파구 오금로57길 3-7,37.49468701,127.1420178
어린이집,피노키오어린이집,"서울특별시 구로구 구일로8길 31 101동 107호(구로동, 우성아파트)",37.4946982,126.8724096
어린이집,아너스빌어린이집,서울특별시 영등포구 여의대방로 25 경남아너스빌아파트 관리동,37.49471276,126.9089783
어린이집,호수어린이집,"서울특별시 구로구 남부순환로95길 54 106동 106호(개봉동, 삼환아파트)",37.49475286,126.8543049
어린이집,샤이닝키즈어린이집,서울특별시 서초구 서초대로74길 30 (서초동),37.49475351,127.0267819
어린이집,일원사임당어린이집,서울특별시 강남구 개포로 648 동형빌딩101호 (일원동),37.49476338,127.0836738
어린이집,역삼가애어린이집,서울특별시 강남구 도곡로37길 15 (역삼동),37.49483065,127.0447335
어린이집,이솝어린이집,서울특별시 송파구 동남로9길 31 (가락동),37.49484859,127.1266857
어린이집,우주어린이집,서울특별시 동작구 국사봉1길 168-7,37.4948518,126.9341828
어린이집,아너스빌어린이집,서울특별시 영등포구 여의대방로 25 경남아너스빌아파트 관리동 (신길동),37.49490141,126.9100925
어린이집,무궁어린이집,서울특별시 구로구 부일로15나길 20-7,37.49491662,126.8343869
어린이집,예사랑어린이집,"서울특별시 구로구 남부순환로95길 88 101동 102호(개봉동, 두산아파트)",37.49495284,126.8526282
어린이집,로고스어린이집,서울특별시 동작구 성대로6다길 18,37.49501416,126.9329038
어린이집,거여동화나라어린이집,서울특별시 송파구 거마로5길 6 (거여동),37.49510759,127.143603
어린이집,평강어린이집,서울특별시 영등포구 대림로8길 39 평강어린이집 (대림동),37.49516338,126.907629
어린이집,롯데mom편한어린이집,"서울특별시 구로구 구일로8길 31 102동 105호(구로동,구로우성아파트)",37.49517296,126.8726784
어린이집,중대어린이집,"서울특별시 송파구 오금로 432 9동 103호(가락동, 삼환아파트)",37.49525146,127.1367516
어린이집,제일성민어린이집,서울특별시 동작구 성대로12길 71 (상도동),37.49526157,126.9380616
어린이집,세화어린이집,서울특별시 서초구 방배중앙로27길 36 (방배동),37.49529078,126.9836885
어린이집,신나라어린이집,"서울특별시 구로구 경인로 382 102동 101호(개봉동, 한마을아파트)",37.49532173,126.8625425
어린이집,꿈이크는어린이집,"서울특별시 구로구 경인로 382 111동 101호(개봉동, 한마을아파트)",37.49532173,126.8625425
어린이집,아람어린이집,"서울특별시 구로구 경인로 382 120동 102호(개봉동, 한마을아파트)",37.49532173,126.8625425
어린이집,엔젤키즈어린이집,"서울특별시 구로구 경인로 382 122동 101호(개봉동, 한마을아파트)",37.49532173,126.8625425
어린이집,이현어린이집,"서울특별시 구로구 경인로 382 101동 102호(개봉동, 한마을아파트)",37.49532173,126.8625425
어린이집,한마을어린이집,서울특별시 구로구 경인로 382 한마을아파트상가 (관리동2층) (개봉동),37.49532173,126.8625425
어린이집,구립은솔어린이집,서울특별시 동작구 상도로 346-1 힐스테이트상도 111동 101호,37.4954127,126.9510182
어린이집,코레일오류동어린이집,서울특별시 구로구 경인로20가길 24 오류동 행복주택 내 직장어린이집,37.49544261,126.8448222
어린이집,대림1동어린이집,서울특별시 영등포구 디지털로 441 (대림동),37.4954839,126.9059462
어린이집,이편한세상어린이집,서울특별시 동작구 보라매로 70 보라매 E-편한세상아파트 101동 보육시설 (신대방동),37.49549142,126.9285918
어린이집,가락종합사회복지관 방과후교실,서울특별시 송파구 양재대로 897 (가락동),37.49553299,127.1068668
어린이집,가락복지관어린이집,서울특별시 송파구 양재대로 897 (가락동),37.49553299,127.1068668
어린이집,브니엘어린이집,"서울특별시 송파구 동남로 193 303동 109호(가락동, 가락1차쌍용아파트)",37.49555494,127.1281398
어린이집,참사랑영재어린이집,"서울특별시 송파구 동남로 189 201동 107호(가락동, 가락1차쌍용아파트)",37.49555494,127.1281398
어린이집,쌍용어린이집,서울특별시 송파구 동남로 193 가락쌍용아파트관리동,37.49555494,127.1281398
어린이집,영성방과후교실어린이집,서울특별시 동작구 국사봉1길 146 영성교회1층 (상도동),37.49555631,126.9331731
어린이집,아이엠어린이집,서울특별시 동작구 여의대방로10길 13 한성아파트단지내 (신대방동),37.49555996,126.9151707
어린이집,가원어린이집,서울특별시 송파구 오금로57길 22 가원어린이집,37.49556044,127.1436736
어린이집,푸른나무 어린이집,서울특별시 동작구 여의대방로22라길 25,37.4955748,126.9232924
어린이집,빛나어린이집,"서울특별시 구로구 구로중앙로18길 56 1동 104호(구로동, 성삼하이츠아파트)",37.49559299,126.8927043
어린이집,꼬꼬마어린이집,"서울특별시 영등포구 여의대방로 25 104동 101호(신길동, 경남보라매아너스빌)",37.49560415,126.9107687
어린이집,성심에코비어린이집,"서울특별시 영등포구 여의대방로 25 101동 103호(신길동, 경남보라매아너스빌)",37.49560415,126.9107687
어린이집,실로암어린이집,서울특별시 동작구 성대로6마길 8-18,37.49560794,126.9345001
어린이집,다솔어린이집,서울특별시 동작구 국사봉길 98 신건드림원빌 1층 101호,37.49564395,126.93144234424548
어린이집,별이달이어린이집,"서울특별시 영등포구 대림로22길 29 102동 103호(대림동, 갑을명가아파트)",37.49565679,126.9036988
어린이집,아기둥지어린이집,"서울특별시 구로구 경인로 390 210동 103호(고척동, 벽산블루밍)",37.49567969,126.8644414
어린이집,미키몬테소리어린이집,서울특별시 구로구 경인로 390 벽산블루밍아파트 관리동1층 미키몬테소리어린이집 (고척동),37.49567969,126.8644414
어린이집,베베키즈룸어린이집,서울특별시 강남구 도곡로43길 21 래미안그레이튼1단지아파트 관리동,37.49572597,127.0470109
어린이집,리틀팰리스 어린이집,서울특별시 영등포구 도림로41길 20-1,37.4957428,126.8977401
어린이집,파랑새어린이집,서울특별시 영등포구 디지털로71길 4-10,37.49578018,126.9045678
어린이집,상아랜드어린이집,서울특별시 영등포구 신길로8길 11 (신길동),37.495788,126.9096985
어린이집,새상아어린이집,서울특별시 영등포구 신길로8길 11,37.495788,126.9096985
어린이집,보라매사랑어린이집,서울특별시 동작구 보라매로 70 (신대방2동 720번지) 이편한세상아파트 102동 102호,37.49579325,126.9280407
어린이집,마천어린이집,서울특별시 송파구 마천로61다길 28-7,37.49579891,127.1517489
어린이집,아렌어린이집,서울특별시 동작구 양녕로26길 64 (상도동),37.49581392,126.9433892
어린이집,구로구청 사랑채움 어린이집,서울특별시 구로구 가마산로 245,37.49582991,126.8879073
어린이집,래미안도곡카운티어린이집,서울특별시 강남구 선릉로 227 래미안도곡카운티아파트 관리동,37.49583888,127.0527375
어린이집,조이너스어린이집,서울특별시 강남구 역삼로19길 12 조이너스아파트 101호,37.49585392,127.0373371
어린이집,대치아이리베슐레어린이집,서울특별시 강남구 선릉로 222 대치아이파크 관리동,37.4958668,127.0547505
어린이집,해와달어린이집,서울특별시 동작구 성대로16길 67-6,37.49594827,126.9391771
어린이집,예은별어린이집,서울특별시 구로구 구로중앙로18길 56 101호(성삼하이츠아파트),37.49594875,126.8931695
어린이집,혜담어린이집,"서울특별시 구로구 구로중앙로18길 68 1동 109호(구로동, 현대아파트)",37.49594875,126.8931695
어린이집,아낌없이주는나무어린이집,"서울특별시 송파구 마천로57길 16 101동 106호(마천동, 마천금호아파트)",37.49595589,127.1498959
어린이집,단비어린이집,"서울특별시 구로구 구일로10길 53 101동 102호(구로동, 현대상선아파트)",37.49596692,126.8751566
어린이집,꿈사랑어린이집,"서울특별시 구로구 경인로40길 11 101동 104호(개봉동, 영화아파트)",37.49599989,126.8598916
어린이집,콩콩어린이집,서울특별시 송파구 마천로41길 15 1층 콩콩어린이집,37.49602457,127.1497989
어린이집,삼육어린이집,"서울특별시 강남구 선릉로69길 20 105동 104호(역삼동, E편한세상)",37.49603849,127.0467945
어린이집,꿈사랑어린이집,서울특별시 구로구 경인로40길 11 101동 104호,37.49605534,126.8594235
어린이집,꿈동산 어린이집,서울특별시 동작구 양녕로22가길 39 (상도동),37.49608745,126.9440503
어린이집,신나는꼬마숲어린이집,"서울특별시 송파구 송파대로32길 15 104동 104호(가락동, 금호아파트)",37.49616678,127.1163792
어린이집,구립태성어린이집,서울특별시 동작구 여의대방로16길 1,37.49622882,126.9171004368958
어린이집,산들어린이집,서울특별시 동작구 국사봉길 86-6,37.4962601,126.9306899
어린이집,유원어린이집,"서울특별시 서초구 서초중앙로24길 43 103동 104호(서초동, 유원아파트)",37.49627441,127.0182793
어린이집,라엘어린이집,서울특별시 동작구 성대로10길 44 (상도동),37.49628194,126.9359018
어린이집,토마토어린이집,서울특별시 영등포구 디지털로 455-7 1층,37.4962861,126.9069488
어린이집,신대림어린이집,서울특별시 영등포구 디지털로 455-7,37.4962861,126.9069488
어린이집,리틀다빈어린이집,서울특별시 영등포구 대림로22다길 7-2,37.49630643,126.9042808
어린이집,아이존어린이집,"서울특별시 영등포구 당산동2가 당산로 95 105동 103호(당산동2가,현대아파트)",37.49639004,126.8959382
어린이집,나래어린이집,서울특별시 구로구 고척로1길 14-41,37.49642219,126.8387728
어린이집,스마일어린이집,"서울특별시 구로구 구로동로43길 10 101동 104호(구로동, 우리유앤미아파트)",37.49649138,126.8818063
어린이집,닥터윤앤리어린이집,서울특별시 송파구 오금로44길 9 (가락동),37.49655608,127.1356283
어린이집,꾸러기어린이집,"서울특별시 송파구 송파대로32길 8 5동 106호(가락동, 우성아파트)",37.49656931,127.1177937
어린이집,우성예은어린이집,"서울특별시 송파구 송파대로32길 8 6동 101호(가락동, 우성아파트)",37.49656931,127.1177937
어린이집,우성어린이집,"서울특별시 송파구 송파대로32길 8 1동 109호(가락동, 우성아파트)",37.49656931,127.1177937
어린이집,한국기독교장로회거암교회부설거암어린이집,서울특별시 송파구 마천로44길 3-3,37.49657133,127.1477729
어린이집,예쁨어린이집,서울특별시 동작구 보라매로 83 신대방아파트 내 (신대방동),37.49660446,126.927229
어린이집,서초1삼성어린이집,서울특별시 서초구 서초대로74길 11 삼성전자 內 (서초동),37.49663047,127.0269
어린이집,대치삼성어린이집,서울특별시 강남구 도곡로78길 22 대치삼성아파트 관리동,37.49663609,127.0588492
어린이집,해피아이 어린이집,서울특별시 영등포구 가마산로 312 신동아아파트 3동 102호,37.49667948,126.894549
어린이집,이레몬테소리어린이집,"서울특별시 구로구 구일로8길 92 1동 102호(구로동, 중앙하이츠아파트)",37.4967404,126.8760497
어린이집,푸른꿈어린이집,"서울특별시 구로구 구일로8길 92 6동 103호(구로동, 중앙하이츠아파트)",37.4967404,126.8760497
어린이집,엄마품에어린이집,"서울특별시 구로구 구일로8길 92 5동 105호(구로동, 중앙하이츠아파트)",37.4967404,126.8760497
어린이집,다빈어린이집,서울특별시 영등포구 도림로 204-4,37.49675343,126.9035132
어린이집,현대힐스어린이집,서울특별시 구로구 부일로9길 127 온수힐스테이트 107동 (온수동),37.49675872,126.820989
어린이집,사랑샘어린이집,"서울특별시 구로구 부일로9길 127 113동 103호(온수동, 현대힐스테이트)",37.49675872,126.820989
어린이집,구립성대어린이집,서울특별시 동작구 성대로10길 27 성대어린이집 (상도동),37.49679995,126.9352917
어린이집,예원어린이집,서울특별시 영등포구 디지털로 455-6,37.49680907,126.9071832
어린이집,궁동어린이집,서울특별시 구로구 오리로17길 48 (궁동),37.49683225,126.8290148
어린이집,그레이튼어린이집,서울특별시 강남구 도곡로43길 20 래미안그레이튼2단지 관리동,37.49686419,127.0486175
어린이집,산성어린이집,서울특별시 송파구 마천로41길 12,37.49690347,127.1485993
어린이집,현대키즈어린이집,"서울특별시 송파구 거마로 41 303동 102호(거여동, 현대3차아파트)",37.4969471,127.1451574
어린이집,사과나무어린이집,"서울특별시 송파구 거마로 41 302동 101호(거여동, 현대3차아파트)",37.4969471,127.1451574
어린이집,아띠어린이집,"서울특별시 동작구 양녕로 170 101동 103호(상도동, 롯데캐슬비엔)",37.49695802,126.9435654
어린이집,반포어린이집,서울특별시 서초구 사평대로20길 54 (반포동),37.4970089,126.9967384
어린이집,YWCA또래또어린이집,서울특별시 동작구 국사봉1길 100 (상도동),37.4970868,126.9314358
어린이집,아이천국어린이집,서울특별시 구로구 고척로 28 예원빌딩1층 (오류동),37.49711283,126.8397346
어린이집,자연어린이집,서울특별시 송파구 오금로42길 9,37.49714119,127.1343187
어린이집,미래어린이집,서울특별시 동작구 여의대방로22바길 54 동작디오빌 102호 (신대방동),37.49714146,126.9235617
어린이집,다래어린이집,서울특별시 송파구 오금로42길 9,37.4971474,127.1343408
어린이집,국립중앙도서관책사랑어린이집,서울특별시 서초구 반포대로 201 국립중앙도서관 내 어린이집,37.4971902,127.0033029
어린이집,구립로야어린이집,서울특별시 동작구 상도로62길 87 (상도동),37.49719825,126.9510078
어린이집,작은꼬마어린이집,"서울특별시 영등포구 여의대방로5길 6 1동 108호(신길동, 우창아파트)",37.4972044,126.912236
어린이집,노벨어린이집,서울특별시 동작구 양녕로26길 27,37.49723756,126.9444967
어린이집,역삼어린이집,서울특별시 강남구 테헤란로22길 46 (역삼동),37.49724706,127.0352823
어린이집,영등포종합사회복지관방과후어린이집,서울특별시 영등포구 신길로13길 4 영등포종합사회복지관 (신길동) 어린이집,37.49727272,126.9071414
어린이집,꿈동이어린이집,서울특별시 동작구 성대로12길 11 성대아파트 102호 (상도동),37.49728861,126.9356252
어린이집,꿈이있는 방과후교실어린이집,서울특별시 구로구 벚꽃로 484 화원종합사회복지관내 (구로동),37.4973289,126.8801416
어린이집,꿈이있는어린이집,서울특별시 구로구 벚꽃로 484 화원사회종합복지관내 (구로동),37.4973289,126.8801416
어린이집,작은꼬마어린이집,서울특별시 영등포구 여의대방로5길 6 우창아파트 1동 108호,37.49739997,126.9118972
어린이집,궁더쿵어린이집,서울특별시 구로구 오리로20길 32 (궁동 평화교회1층),37.49743478,126.8312627
어린이집,은마어린이집,"서울특별시 강남구 삼성로 212 30동 114호(대치동, 은마아파트)",37.49747956,127.0653243
어린이집,구립보라매어린이집,서울특별시 동작구 여의대방로22길 44 (신대방동),37.49751525,126.9223598
어린이집,우방어린이집,"서울특별시 구로구 구일로 154-17 1동 101호(구로동, 우방아파트)",37.49751725,126.8748348
어린이집,현경어린이집,서울특별시 구로구 부일로11길 105 (궁동),37.49756341,126.8296028
어린이집,또래친구어린이집,서울특별시 구로구 오리로20길 39 (1~3층),37.49757194,126.8308285
어린이집,아해뜰어린이집,서울특별시 영등포구 도림로47길 27 (대림동),37.49758189,126.899293
어린이집,낙원브레인키즈어린이집,서울특별시 구로구 구로동로42길 43 (구로동),37.49758503,126.8835938
어린이집,신길5동어린이집,서울특별시 영등포구 신길로13길 20 (신길동),37.49758565,126.9060998
어린이집,다온어린이집,서울특별시 송파구 거마로7길 42 (거여동),37.4975885,127.1416567
어린이집,좋은열매어린이집,서울특별시 구로구 부일로9길 127 (온수힐스테이트아파트115-106 / 온수동 155),37.49759555,126.8204783
어린이집,우리별어린이집,서울특별시 송파구 거마로13길 18 우리별어린이집 (거여동),37.49764093,127.1445377
어린이집,서현어린이집,서울특별시 구로구 고척로3길 109 (오류동),37.4976504,126.835885
어린이집,제이백합어린이집,서울특별시 구로구 경인로43길 22 (고척동),37.49765106,126.8619032
어린이집,킨더키즈어린이집,서울특별시 동작구 양녕로25사길 21 (상도동),37.49769187,126.9404914
어린이집,돋는해 어린이집,"서울특별시 송파구 송이로31길 56 8동 108호(문정동, 문정시영아파트)",37.49770853,127.1066803
어린이집,새열매어린이집,"서울특별시 송파구 동남로9길 39 101동 110호(가락동, 풍림아파트)",37.49770853,127.1066803
어린이집,가락어린이집,서울특별시 송파구 송파대로 359 가락시영아파트 100동 앞 가락어린이집,37.49770853,127.1066803
어린이집,해맑은어린이집,"서울특별시 동작구 동작대로45길 22 105동 104호(동작동, KCC스위첸)",37.49771082,126.9808443
어린이집,세라핌어린이집,서울특별시 구로구 고척로18길 92 오류동감리교회 세라핌어린이집 (오류동),37.49771793,126.84502816205794
어린이집,바로미어린이집,서울특별시 서초구 서초중앙로 157 서울법원종합청사별관 (서초동),37.49774092,127.0117472
어린이집,무지개어린이집,서울특별시 동작구 성대로6가길 29 (상도동),37.49775315,126.9331837
어린이집,해오름어린이집,"서울특별시 동작구 상도로 421 108동 103호(상도동, 관악현대아파트)",37.49780738,126.9527375
어린이집,신아어린이집,서울특별시 송파구 양재대로62길 21-1 1층 (가락동),37.49782686,127.1191994
어린이집,장미어린이집,서울특별시 구로구 경인로 343 삼환로즈빌아파트 단지 내 1층 장미 어린이집 (고척동),37.49784956,126.8579172
어린이집,행복한어린이집,"서울특별시 구로구 경인로 343 105동 104호(고척동, 삼환로즈빌)",37.49784956,126.8579172
어린이집,리틀삼육어린이집,"서울특별시 강남구 선릉로69길 19 108동 102호(역삼동, 역삼래미안)",37.49786157,127.051079
어린이집,포레힐즈어린이집,서울특별시 동작구 동작대로45길 10 이수스위첸포레힐즈아파트 단지 내,37.49787114,126.98198533481478
어린이집,보석어린이집,서울특별시 구로구 구로동로47길 21 (구로동),37.49787984,126.8812303
어린이집,꼬마숲사랑어린이집,"서울특별시 송파구 성내천로47길 38 206동 101호(마천동, 파크데일아파트)",37.49790157,127.1465636
어린이집,늘푸른어린이집,"서울특별시 송파구 성내천로47길 38 207동 103호(마천동, 송파파크데일2단지)",37.49790157,127.1465636
어린이집,에꼴베베어린이집,"서울특별시 송파구 성내천로37길 37 110동 101호(마천동, 파크데일아파트)",37.49790157,127.1465636
어린이집,혜성어린이집,"서울특별시 송파구 성내천로 314 202동 104호(마천동, 금호어울림)",37.49790157,127.1465636
어린이집,별숲어린이집,서울특별시 구로구 경인로43길 49 고척아이파크MD 내 관리실,37.4979721,126.8604851
어린이집,정현어린이집,서울특별시 동작구 보라매로19길 16-1,37.49799026,126.9270305
어린이집,뽀로롱어린이집,서울특별시 송파구 마천로51가길 16 (마천동),37.49799595,127.1522884
어린이집,한샘어린이집,서울특별시 서초구 방배로 285 115-1701,37.49801,126.98670285411902
어린이집,세영어린이집,"서울특별시 송파구 오금로 407 5동 105호(오금동, 가락상아아파트)",37.49801316,127.1357608
어린이집,상아어린이집,"서울특별시 송파구 오금로 407 7동 103호(오금동, 상아아파트)",37.49801316,127.1357608
어린이집,해태어린이집,서울특별시 영등포구 가마산로 316 (대림동),37.49802059,126.8948432
어린이집,재원몬테소리어린이집,서울특별시 동작구 상도로55길 47 (상도동),37.4980474,126.9571549
어린이집,조약돌어린이집,서울특별시 송파구 삼학사로1길 18 (삼전동),37.49808152,127.0947197
어린이집,개롱어린이집,서울특별시 송파구 동남로 225 가락래미안파크팰리스아파트 관리동 1층,37.49811808,127.1321282
어린이집,역삼래미안어린이집,서울특별시 강남구 선릉로69길 19 역삼래미안 관리동,37.49816797,127.0507036
어린이집,송파어린이집,서울특별시 송파구 오금로51길 34 (거여동),37.49818362,127.1417154
어린이집,은석어린이집,서울특별시 영등포구 여의대방로23길 11 (신길동),37.49818719,126.918686
어린이집,솔빈어린이집,서울특별시 송파구 송이로17길 1-1 서울특별시 송파구 송이로 1-1 (가락동),37.49818938,127.1215384
어린이집,숲속어린이집,서울특별시 송파구 오금로53길 39-10 팰리스힐101호 (거여동),37.4982223,127.143693
어린이집,역삼푸르지오어린이집,서울특별시 강남구 언주로 332 역삼푸르지오 관리동,37.49822341,127.047397
어린이집,우리누리 어린이집,서울특별시 강남구 테헤란로 114 국세종합상담센터 (역삼동),37.49827227,127.0300883
어린이집,꿈나래어린이집,서울특별시 동작구 국사봉2나길 8-6 101호,37.49827731,126.9284773
어린이집,해솔어린이집,서울특별시 송파구 가락로2길 3-13,37.49831053,127.0994533
어린이집,한신타운어린이집,"서울특별시 구로구 고척로 52 102동 104호(오류동, 한신아파트)",37.49833575,126.8409495
어린이집,서울어린이집,서울특별시 송파구 마천로39길 5 (마천동),37.49834184,127.1471387
어린이집,믿음어린이집,서울특별시 동작구 성대로21길 5 (상도동),37.49838904,126.9371544
어린이집,대치키즈 어린이집,서울특별시 강남구 선릉로64길 15-7,37.49853562,127.0532203
어린이집,로뎀어린이집,"서울특별시 동작구 양녕로26길 11 A동 102호(상도동, 약수맨션아파트)",37.4985692,126.9441828
어린이집,파란나라어린이집,서울특별시 구로구 중앙로1길 18-19 103동 105호,37.49857893,126.8631506
어린이집,사랑숲어린이집,서울특별시 송파구 중대로20길 8 1F,37.4985844,127.1268119
어린이집,꿈땅어린이집,서울특별시 강남구 도곡로73길 11 라이트빌 1층,37.49860204,127.0570183
어린이집,에덴어린이집,서울특별시 동작구 성대로6길 27 (상도동),37.49861306,126.9339168
어린이집,마천꼬마숲어린이집,서울특별시 송파구 성내천로 245 (마천동 575 금호어울림아파트)103-101,37.49865075,127.15446
어린이집,파란나라어린이집,"서울특별시 구로구 중앙로1길 18-19 103동 105호(고척동, 현대우성)",37.49872694,126.8628425
어린이집,아가방어린이집,서울특별시 영등포구 여의대방로 25 보라매경남아너스빌 108-103,37.49874138,126.9152513
어린이집,e편한어린이집,서울특별시 강남구 선릉로69길 20 역삼e편한세상 관리동,37.49874813,127.0509257
어린이집,도레미어린이집,서울특별시 송파구 송이로17길 13 승지빌딩 1층,37.49876852,127.122597
어린이집,서초래미안어린이집,서울특별시 서초구 서초대로65길 13-10 서초래미안아파트 관리동 1층 (서초동),37.49878472,127.0186027
어린이집,중앙아이나라어린이집,"서울특별시 구로구 구로동로47길 24 103동 101호(구로동, 중앙하이츠아파트)",37.49879534,126.8804748
어린이집,현일어린이집,서울특별시 구로구 구로중앙로22길 70 (구로동),37.4988011,126.8889102
어린이집,꼬꼬마 어린이집,"서울특별시 강남구 삼성로 212 20동 102호(대치동, 은마)",37.49884365,127.0607666
어린이집,푸른숲어린이집,서울특별시 구로구 구일로8길 143,37.49891856,126.8770372
어린이집,0세교육어린이집,서울특별시 송파구 송파대로37길 90,37.49893855,127.1025298
어린이집,꿈나무어린이집,서울특별시 영등포구 대방천로 199 (신길동),37.49900757,126.9130388
어린이집,마천꼬마숲어린이집,"서울특별시 송파구 성내천로37길 37 109동 103호(마천동, 송파파크데일아파트)",37.49906087,127.1590779
어린이집,선혜방과후교실,서울특별시 구로구 오리로22길 5 (궁동),37.49906723,126.8296019
어린이집,삼전어린이집,서울특별시 송파구 백제고분로32길 35 삼전종합사회복지관 1층,37.49910875,127.0949584
어린이집,삼전복지관방과후어린이집,서울특별시 송파구 백제고분로32길 35 3층(삼전동),37.49910875,127.0949584
어린이집,이웃어린이집,서울특별시 영등포구 대림로34다길 6 686-3 (2층) 이웃어린이집,37.4991198,126.8994694
어린이집,성심교회방과후어린이집,서울특별시 송파구 가락로15길 30,37.49913915,127.1027231
어린이집,아가페 어린이집,서울특별시 송파구 송이로15길 4 (가락동),37.49918319,127.120199
어린이집,열린마음어린이집,"서울특별시 송파구 성내천로37길 37 (마천동, 송파파크데일1단지관리동)",37.49920043,127.1585277
어린이집,구립샛별어린이집,서울특별시 동작구 장승배기로3길 1 (상도동),37.49920226,126.9391118
어린이집,예쁜세상어린이집,서울특별시 영등포구 대방천로 185-1,37.49923035,126.9115948
어린이집,스마일어린이집,서울특별시 동작구 성대로11길 42 (상도동),37.49923632,126.9344869
어린이집,반포청사어린이집,서울특별시 서초구 반포대로 217 (반포동),37.49924459,127.0032544
어린이집,구립스마일어린이집,서울특별시 동작구 성대로11길 42,37.49925992,126.93449914147524
어린이집,예쁜꿈어린이집,"서울특별시 구로구 고척로 49 206동 102호(오류동, 동부골든아파트)",37.49927744,126.8395847
어린이집,좋은나무어린이집,"서울특별시 구로구 고척로 49 201동 104호(오류동, 동부골든아파트)",37.49927744,126.8395847
어린이집,아이꿈어린이집,"서울특별시 구로구 고척로 49 206동 104호(오류동, 동부골든아파트)",37.49927744,126.8395847
어린이집,예사랑어린이집,서울특별시 동작구 양녕로27길 60 (상도동),37.4992835,126.9405345
어린이집,중앙어린이집,서울특별시 송파구 성내천로 228 2층 (마천동),37.49929972,127.1526559
어린이집,(재)천주교서울대교구유지재단천사어린이집,서울특별시 송파구 거마로24길 11 (마천동),37.49931374,127.1490959
어린이집,남서울교회부설 꿈이있는어린이집,서울특별시 영등포구 신풍로16길 1 꿈이있는 어린이집,37.49934052,126.9152461
어린이집,예쁜아이어린이집,서울특별시 영등포구 대방천로 245-19,37.49939195,126.9181032
어린이집,시온어린이집,서울특별시 송파구 오금로49길 33 (오금동),37.49939353,127.1387148
어린이집,빙고어린이집,서울특별시 송파구 삼학사로4길 13-1,37.49941989,127.0982932
어린이집,IBK 참 ! 좋은 어린이집,서울특별시 강남구 선릉로 332,37.49943466,127.0517145
어린이집,예쁜어린이집,"서울특별시 서초구 서초중앙로29길 16-8 A동 102호(반포동, 대림빌라)",37.49947366,127.0109972
어린이집,금륜어린이집,서울특별시 송파구 거마로24길 8-6,37.49947482,127.1480623
어린이집,수정어린이집,서울특별시 영등포구 도림로63라길 9 (신길동),37.49949311,126.9014352
어린이집,삼성짐키드어린이집,서울특별시 동작구 상도로53길 8 삼성래미안3차아파트 단지내 삼성짐키드어린이집 (상도동),37.4995101,126.9547426
어린이집,우리또래어린이집,서울특별시 동작구 상도로22나길 29 101호,37.49954776,126.9383548
어린이집,한사랑어린이집,서울특별시 송파구 마천로43길 35,37.49961451,127.1503169
어린이집,은별어린이집,서울특별시 구로구 오리로22나길 8-3,37.4996147,126.8305671
어린이집,새길어린이집,서울특별시 영등포구 대방천로 149 (신길동),37.49963299,126.9074825
어린이집,뉴한가람어린이집,서울특별시 송파구 성내천로 162 (마천동),37.49964986,127.1463469
어린이집,재미솔솔어린이집,서울특별시 송파구 동남로24길 9 1층,37.49968291,127.1373758
어린이집,푸르뫼어린이집,"서울특별시 구로구 고척로 82 201동 103호(개봉동, 거성푸르뫼2차아파트)",37.4998046,126.8431044
어린이집,킹스키즈어린이집,서울특별시 강남구 선릉로69길 20 역삼e편한세상아파트 관리동,37.49981933,127.0562249
어린이집,더크는킨더앤어린이집,서울특별시 동작구 성대로31길 2 서울시 동작구 성대로 31길 2 (상도동),37.49986259,126.9406032
어린이집,큰별어린이집,서울특별시 영등포구 신풍로 66 (신길동),37.49986511,126.9133057
어린이집,삼전초록어린이집,서울특별시 송파구 백제고분로32길 6-76 (삼전동),37.49993341,127.09305
어린이집,동광어린이집,서울특별시 구로구 구로중앙로28길 62 (구로동),37.49994128,126.8890448
어린이집,한티어린이집,서울특별시 강남구 영동대로57길 7 대치평생학습관 3층 (대치동),37.49995467,127.0669762
어린이집,산들어린이집,서울특별시 구로구 경인로35길 64-12,37.49995568,126.8533071
어린이집,이화어린이집,서울특별시 송파구 성내천로21길 6 (마천동),37.49996558,127.145149
어린이집,은별어린이집,서울특별시 송파구 송이로19길 41-4,37.4999832,127.1246694
어린이집,구립흑석어린이집,서울특별시 동작구 서달로 61,37.49999038,126.9616935
어린이집,새롬어린이집,서울특별시 송파구 삼학사로6길 29 현대파크빌 101호 (석촌동),37.49999101,127.1000461
어린이집,세종어린이집,서울특별시 송파구 백제고분로28길 19-43 서울특별시 송파구 백제고분로28길 19-43,37.50003742,127.0929194
어린이집,와이즈맘 어린이집,서울특별시 동작구 양녕로29길 50 (상도동),37.50010277,126.9415634
어린이집,새솔어린이집,서울특별시 구로구 공원로 35 (구로5동 108-2 새솔금호아파트내 1층),37.50012675,126.8891247
어린이집,봄빛어린이집,"서울특별시 송파구 백제고분로22길 37 101동 110호(삼전동, 현대아파트)",37.5002863,127.0886131
어린이집,아이원어린이집,서울특별시 구로구 고척로52길 104-5,37.50030718,126.8553612
어린이집,앙팡어린이집,서울특별시 동작구 상도로13가길 3 (상도동),37.50032002,126.9306704
어린이집,누리꿈어린이집,서울특별시 동작구 상도로 99-7 2-509,37.50032685,126.9312256
어린이집,래미안파인탑어린이집,서울특별시 송파구 오금로32길 31 래미안송파파인탑 단지 내,37.5003383,127.1127234
어린이집,가락제일어린이집,서울특별시 송파구 송파대로37길 29 (가락동),37.5003699,127.1090203
어린이집,송이어린이집,서울특별시 송파구 송파대로36길 5-8 송파아파트 106호,37.50037038,127.1127283
어린이집,마천키즈어린이집,"서울특별시 송파구 성내천로 211 103동 102호(마천동, 우방아파트)",37.50040229,127.151983
어린이집,래미안어린이집,서울특별시 영등포구 신풍로 77 래미안에스티움 110동 101호,37.50041988,126.9115453
어린이집,하람어린이집,서울특별시 영등포구 신풍로 77 114동 106호,37.50041988,126.9115453
어린이집,래미안에스티움어린이집,서울특별시 영등포구 신풍로 77 래미안에스티움아파트 관리동,37.50041988,126.9115453
어린이집,한솔어린이집,서울특별시 구로구 고척로18길 9 (개봉동),37.50045648,126.8450583
어린이집,오금물빛어린이집,서울특별시 송파구 동남로28길 40,37.5004933,127.1410565
어린이집,아남어린이집,서울특별시 송파구 마천로35길 18 아남아파트 106호 (마천동),37.50056781,127.1461905
어린이집,꼬예미키즈어린이집,서울특별시 송파구 오금로36길 37 (가락동),37.50056935,127.12376
어린이집,동작몬테소리어린이집,서울특별시 동작구 성대로21나길 6 (상도동),37.50057618,126.9361881
어린이집,중앙몬테소리 어린이집,서울특별시 동작구 성대로21나길 6 (상도동),37.50057618,126.9361881
어린이집,해오름 어린이집,서울특별시 영등포구 여의대방로31길 10 (신길동),37.5005846,126.9191502
어린이집,산돌어린이집,서울특별시 송파구 성내천로24길 5 (마천동),37.50058827,127.1489012
어린이집,은하수어린이집,서울특별시 송파구 백제고분로34길 19 1층 은하수어린이집,37.50060135,127.0989078
어린이집,서울성모병원어린이집,서울특별시 서초구 반포대로 222 서울성모병원 내 별관 2층 어린이집 (반포동),37.50063401,127.0051789
어린이집,SAINT어린이집,"서울특별시 동작구 장승배기로 26 104동 103호(상도동, 아이파크)",37.50067466,126.9428412
어린이집,은빛키즈어린이집,서울특별시 송파구 백제고분로22길 35 (삼전동),37.5006858,127.0883062
어린이집,해아뜰어린이집,서울특별시 동작구 장승배기로3길 1 (상도동),37.50071857,126.9412052
어린이집,하나놀이방 어린이집,서울특별시 동작구 상도로47가길 16,37.50074022,126.9512071
어린이집,열린사랑 어린이집,서울특별시 송파구 가락로 87 (석촌동),37.50076337,127.1058817
어린이집,대치키즈어린이집,서울특별시 강남구 삼성로67길 13,37.50084802,127.0583652
어린이집,리더 어린이집,서울특별시 송파구 가락로11길 9-18 (),37.50089617,127.1036679
어린이집,i아이키즈어린이집,서울특별시 송파구 백제고분로28길 23-3,37.50091041,127.0917303
어린이집,토마토어린이집,"서울특별시 구로구 고척로 85 103동 106호(개봉동, 거성푸르뫼아파트)",37.50095969,126.841514
어린이집,가락본동어린이집,서울특별시 송파구 송이로17길 46 (가락동),37.50099296,127.1246259
어린이집,재롱둥이아가어린이집,서울특별시 영등포구 도신로4길 29 (대림동),37.50099727,126.896636
어린이집,하람어린이집,서울특별시 구로구 경인로53길 15 중앙유통단지 업무B동 1호 (구로동),37.50102878,126.8746656
어린이집,월드비젼어린이집,서울특별시 송파구 송파대로37길 22-1,37.50103405,127.1098674
어린이집,청솔어린이집,서울특별시 송파구 마천로33길 11-45 1층 (마천동),37.50103416,127.1443915
어린이집,서초구립 서초성모어린이집,서울특별시 서초구 고무래로8길 21 (반포동),37.50104883,127.0095073
어린이집,티움어린이집,서울특별시 송파구 송파대로36길 32-6,37.50108619,127.1152479
어린이집,모아어린이집,서울특별시 송파구 성내천로 182 정우빌딩 1층 모아어린이집,37.50111602,127.1484892
어린이집,리틀엔젤어린이집,서울특별시 동작구 대방동길 20 은송빌라 102호 (대방동),37.50116975,126.927892
어린이집,에덴장애아어린이집,서울특별시 구로구 고척로21가길 84-35,37.50117639,126.8412845
어린이집,조은어린이집,"서울특별시 서초구 사평대로 310-8 나동 103호(반포동, 삼호가든맨션4차)",37.50118847,127.0181392
어린이집,우리아이어린이집,서울특별시 영등포구 신풍로23길 11-1,37.50119299,126.9184809
어린이집,꿈나라어린이집,서울특별시 영등포구 신풍로19가길 12-1 원형스위트빌 101호 (신길동),37.50123807,126.9177961
어린이집,충성어린이집,서울특별시 송파구 성내천로27길 19 (마천동),37.5012634,127.1514394
어린이집,아이세상어린이집,서울특별시 동작구 상도로 107 쌍용스위트닷홈아파트상가아이세상어린이집 (상도동),37.50129774,126.9326719
어린이집,가현어린이집,서울특별시 구로구 경인로35길 113-5 가현어린이집 (고척동),37.50131531,126.8518194
어린이집,하늘빛어린이집,서울특별시 동작구 상도로 320 상도중앙하이츠빌 관리동 하늘빛어린이집 (상도동),37.50133741,126.9514894
어린이집,한나어린이집,서울특별시 영등포구 신풍로23길 13-1,37.50138105,126.918355
어린이집,아이원키즈랜드어린이집,서울특별시 구로구 경인로33바길 9 (고척동),37.50140605,126.850125
어린이집,푸르름어린이집,서울특별시 영등포구 도림로81길 12-1,37.50141911,126.9035101
어린이집,개나리어린이집,서울특별시 송파구 성내천로 189 (마천동),37.50144537,127.1493032
어린이집,하하어린이집,서울특별시 송파구 성내천로 179,37.5014506,127.1477786
어린이집,연세중앙어린이집,"서울특별시 송파구 가락로11길 15-15 하인즈빌라 101,2호 (석촌동)",37.50145391,127.103547
어린이집,선재어린이집,서울특별시 강남구 삼성로71길 31 선재어린이집 (대치동),37.50147194,127.0563477
어린이집,행복한어린이집,서울특별시 동작구 성대로3길 13 (상도동),37.50147314,126.9361346
어린이집,해님달님어린이집,"서울특별시 구로구 중앙로6길 5-15 101동 104호(고척동, 청구아파트)",37.50149167,126.8638151
어린이집,영길교회방과후교실어린이집,서울특별시 영등포구 신풍로11다길 18 (신길동),37.50150028,126.9151436
어린이집,동광어린이집,서울특별시 동작구 성대로1가길 14 (상도동),37.50150748,126.9351457
어린이집,새연어린이집,서울특별시 구로구 구로중앙로28다길 15 (구로동),37.50151339,126.8875864
어린이집,예쁜튼튼어린이집,서울특별시 구로구 구로중앙로26가길 11-5 (구로동),37.50151339,126.8875864
어린이집,석촌사임당어린이집,서울특별시 송파구 가락로11길 13 (석촌동),37.50152272,127.1043039
어린이집,쌍용아이사랑어린이집,서울특별시 송파구 송이로15길 33 쌍용 2차 아파트 관리동 어린이집,37.50153235,127.1222728
어린이집,참고은어린이집,서울특별시 구로구 고척로19길 8 (개봉동),37.5015969,126.8454897
어린이집,백설공주어린이집,서울특별시 구로구 고척로21가길 50 (개봉동),37.50160922,126.8432491
어린이집,아이소리어린이집,"서울특별시 구로구 고척로 85 101-102(개봉동, 거성푸르뫼아파트1차)",37.501664,126.8449797
어린이집,물고기어린이집,"서울특별시 구로구 중앙로6길 5-15 102동 102호 (고척동, 청구아파트)",37.50169848,126.8584444
어린이집,서울어린이집,서울특별시 동작구 서달로10길 119 (흑석동),37.50178845,126.9638005
어린이집,붐붐어린이집,서울특별시 송파구 동남로23길 25 (오금동),37.50179211,127.1341508
어린이집,이화방과후교실(등대교회부설),서울특별시 강남구 역삼로84길 30 (대치동),37.50180205,127.0601176
어린이집,대치어린이집,서울특별시 강남구 영동대로65길 11 (대치동),37.5018721,127.0655398
어린이집,한국타이어 동그라미 어린이집,서울특별시 강남구 테헤란로13길 34 (역삼동),37.50190382,127.0317751
어린이집,광진어린이집,서울특별시 구로구 고척로30길 18 (개봉동),37.50194965,126.8492289
어린이집,상도중앙 어린이집,서울특별시 동작구 상도로15가길 16 (상도동),37.50196249,126.9323491
어린이집,린아어린이집,서울특별시 동작구 상도로53길 70 상도SH빌 관리동1층 (상도동),37.50197689,126.9508505
어린이집,오뚜기 어린이집,서울특별시 강남구 영동대로 308 2층,37.50207705,127.0676657
어린이집,명운어린이집,서울특별시 송파구 가락로 138-9,37.50211924,127.1117719
어린이집,여명어린이집,서울특별시 강남구 역삼로67길 11 (대치동),37.5021247,127.052907
어린이집,꼬마동네어린이집,서울특별시 송파구 마천로 200 2층 (오금동),37.50212651,127.1399625
어린이집,가락라온어린이집,서울특별시 송파구 송이로15길 31 가락2차쌍용아파트 102동 102호,37.50213053,127.1222036
어린이집,마루별어린이집,서울특별시 송파구 마천로28길 3 1층,37.50213926,127.1399778
어린이집,반포예원어린이집,"서울특별시 서초구 사평대로 240 502동 104호(반포동, 미도2차아파트)",37.50219074,127.0075016
어린이집,해맑은어린이집,"서울특별시 서초구 서초중앙로29길 28 301동 104호(반포동, 반포미도아파트)",37.50219074,127.0075016
어린이집,햇님어린이집,서울특별시 송파구 백제고분로22길 15-15,37.50223117,127.0897159
어린이집,현대 키즈맘 어린이집,서울특별시 영등포구 도신로4길 14 현대아파트 101동 109호,37.50238237,126.8960698
어린이집,그린영재어린이집,서울특별시 송파구 송이로15길 42 2층 그린영재어린이집 (가락동),37.50238304,127.1243484
어린이집,맑은샘어린이집,서울특별시 구로구 경인로47가길 23 (사실상1~4층) (고척동),37.50238437,126.8651983
어린이집,석촌삐아제어린이집,서울특별시 송파구 송파대로39길 13 (석촌동),37.50239907,127.1078267
어린이집,상도복지관어린이집,서울특별시 동작구 상도로39가길 7 상도복지관어린이집 (상도동),37.50247428,126.9496356
어린이집,피카소어린이집,서울특별시 구로구 고척로30길 8 (개봉동),37.50248997,126.8485499
어린이집,창의나무아이파크어린이집,서울특별시 강남구 테헤란로52길 16 테헤란아이파크아파트 관리동,37.50249818,127.0463819
어린이집,신풍어린이집,서울특별시 영등포구 가마산로41길 10 1층 (대림동),37.50252068,126.897671
어린이집,구립상도어린이집,서울특별시 동작구 양녕로36길 15 (상도동),37.50255,126.946806
어린이집,오금 어린이집,서울특별시 송파구 마천로27길 4 (오금동),37.50256497,127.140532
어린이집,도토리소풍넥슨 대치어린이집,서울특별시 강남구 역삼로90길 25,37.5026052,127.0628171
어린이집,다솜어린이집,서울특별시 구로구 새말로16길 70 110호,37.50262986,126.8921016
어린이집,조은세상어린이집,서울특별시 동작구 상도로15길 9 (상도동)1층,37.50266629,126.9341543
어린이집,또또어린이집,서울특별시 구로구 공원로7길 22-4,37.50269427,126.887259
어린이집,삼전동주민자치방과후어린이집,서울특별시 송파구 백제고분로 236 2층,37.50270767,127.0925071
어린이집,아가랑어린이집,"서울특별시 구로구 중앙로5길 62 4동 106호(고척동, 서울가든아파트)",37.50274698,126.8605592
어린이집,고척어린이집,서울특별시 구로구 중앙로5길 62 (고척동),37.50274698,126.8605592
어린이집,늘푸른솔어린이집,서울특별시 구로구 고척로52가길 81 라이프주택 101호 (고척동),37.50275839,126.8519659
어린이집,반포초등어린이집,서울특별시 서초구 신반포로 55-4 반포초등학교내 (반포동),37.5027636,126.991097
어린이집,반포퍼스티지 하늘어린이집,서울특별시 서초구 반포대로 275 (반포동),37.50279969,126.9983032
어린이집,키즈달님 어린이집,서울특별시 송파구 삼전로6길 10 (삼전동),37.50282216,127.0883017
어린이집,반석어린이집,서울특별시 영등포구 신길로28다길 5 (신길동),37.50282509,126.9124304
어린이집,남산어린이집,서울특별시 구로구 경인로47가길 35 (고척동),37.50284135,126.8649324
어린이집,꿈이룸어린이집,서울특별시 동작구 상도로34길 42 동원 베네스트,37.5029136,126.9444371
어린이집,건강한어린이집,서울특별시 영등포구 대림로 251 (대림동),37.50291462,126.8959541
어린이집,콩아이어린이집,"서울특별시 영등포구 도신로4길 10 101동 101호(대림동, 현대1차아파트)",37.50295564,126.8948485
어린이집,리나어린이집,서울특별시 송파구 송이로2길 20 (송파동),37.50297905,127.1132916
어린이집,동작상도 방과후교실어린이집,서울특별시 동작구 상도로39길 47 462번지1층,37.50303166,126.9501006
어린이집,성심어린이집,서울특별시 송파구 백제고분로40길 19-8 (),37.50307486,127.1072857
어린이집,해와달어린이집,서울특별시 영등포구 여의대방로39가길 5 (신길동),37.50307901,126.9181031
어린이집,푸른맘어린이집,"서울특별시 동작구 상도로53길 8 306동 102호(상도동, 래미안3차아파트)",37.50311951,126.9477209
어린이집,우리아이어린이집,"서울특별시 동작구 상도로53길 8 305동 101호(상도동, 래미안3차아파트)",37.50311951,126.9477209
어린이집,삼성SDS어린이집,서울특별시 강남구 테헤란로 318 일옥빌딩 3층 삼성SDS어린이집,37.50313721,127.0460426
어린이집,키즈브레인어린이집,서울특별시 송파구 오금로34길 4 (가락동),37.50313976,127.1250567
어린이집,햇살어린이집,서울특별시 구로구 경인로47다길 34-7 우성꿈동산 아파트 우성상가 (고척동),37.50314773,126.8661549
어린이집,베베라움어린이집,"서울특별시 송파구 오금로32길 42 101동 101호(송파동, 현대)",37.50317278,127.1179852
어린이집,능곡어린이집,서울특별시 구로구 고척로52라길 28 (고척동),37.50318175,126.8545516
어린이집,아이사랑 어린이집,서울특별시 송파구 도곡로62길 49 (잠실동),37.50321184,127.0819577
어린이집,푸른하늘어린이집,서울특별시 구로구 고척로 151 (고척동),37.50324034,126.8505662
어린이집,미래나무어린이집,서울특별시 강남구 논현로99길 21,37.50326118,127.0336763870216
어린이집,연두빛어린이집,"서울특별시 구로구 새말로 31 108동 101호(구로동, 롯데아파트)",37.50331439,126.8841294
어린이집,로뎀어린이집,"서울특별시 구로구 새말로 31 107동 102호(구로동, 롯데아파트)",37.50331439,126.8841294
어린이집,롯데어린이집,서울특별시 구로구 새말로 31 롯데아파트 관리동1층,37.50331439,126.8841294
어린이집,지예슬어린이집,서울특별시 강남구 테헤란로25길 43,37.50336904,127.0346128
어린이집,햇살어린이집,서울특별시 송파구 삼학사로13길 12 (삼전동),37.50340207,127.0957559
어린이집,달님어린이집,서울특별시 송파구 백제고분로22길 4-5,37.50340275,127.0889258
어린이집,아이사랑어린이집,서울특별시 영등포구 가마산로88길 8,37.50340524,126.920374
어린이집,키즈어린이집,서울특별시 송파구 가락로21길 4-12 101호,37.50341441,127.1117528
어린이집,신나라어린이집,서울특별시 송파구 백제고분로22길 3-5,37.50343748,127.0896899
어린이집,새움어린이집,서울특별시 송파구 중대로27길 2 (오금동),37.50351076,127.1285596
어린이집,자연어린이집,서울특별시 구로구 고척로33길 20 (고척동),37.50353991,126.8488516
어린이집,돌마리어린이집,서울특별시 송파구 백제고분로40길 13-16 돌마리어린이집 2층 (석촌동),37.50354405,127.1074342
어린이집,송파제일어린이집,서울특별시 송파구 가락로23길 9,37.50357743,127.1122225
어린이집,맘사랑어린이집,"서울특별시 구로구 공원로6가길 67 2동 103호 (구로동, 구로우성아파트)",37.5036013,126.889097
어린이집,한솔열린사랑어린이집,"서울특별시 송파구 백제고분로 348 103동 102호(석촌동, 잠실한솔아파트)",37.50363915,127.1046406
어린이집,룸비니어린이집,서울특별시 영등포구 가마산로80가길 5 (신길동),37.50363923,126.9142485
어린이집,예아랑어린이집,서울특별시 송파구 성내천로23가길 27 남경빌라 101호,37.50364436,127.1446185
어린이집,오주어린이집,서울특별시 송파구 성내천로8가길 16-1 오주어린이집,37.50367338,127.134733
어린이집,KCC직장어린이집,서울특별시 서초구 사평대로 334-2 1층,37.50369111,127.02119403822182
어린이집,반포퍼스티지솔마을어린이집,서울특별시 서초구 반포대로 275 래미안퍼스티지 아파트 125동앞,37.50369764,126.9980435
어린이집,완두콩어린이집,서울특별시 동작구 대방동27길 36 (대방동 380-8),37.50370166,126.9243461
어린이집,늘푸른아이들어린이집,"서울특별시 서초구 신반포로15길 4 101동 101호(반포동, 반포대우아파트)",37.50375547,126.9960465
어린이집,초록햇살어린이집,서울특별시 동작구 상도로41길 15 (상도1동),37.50383968,126.9496719
어린이집,쿠키즈(coukids) 어린이집,서울특별시 강남구 테헤란로 332 HJ타워 3층,37.50389042,127.0481674
어린이집,예일어린이집,서울특별시 송파구 백제고분로20길 16 현대아파트 단지내,37.50390202,127.085322
어린이집,성민어린이집,서울특별시 구로구 고척로21나길 48-41,37.50391716,126.8420926
어린이집,예나어린이집,서울특별시 구로구 경인로47다길 42 (고척동),37.50392073,126.8660516
어린이집,밝은마음어린이집,서울특별시 구로구 경인로35길 71 (고척동2773-59 1층 일부),37.50392273,126.8530078
어린이집,영신어린이집,서울특별시 영등포구 신길로 132 (신길동),37.50398394,126.9107804
어린이집,베스트베이비어린이집,서울특별시 송파구 백제고분로37길 12 다성리치빌 101호 (석촌동),37.50402208,127.1033319
어린이집,충만어린이집,서울특별시 구로구 공원로6나길 28 (구로동),37.50405924,126.8915614
어린이집,좋은엄마어린이집,"서울특별시 동작구 서달로12사길 17 (흑석동 93-88,좋은엄마어린이집)",37.50409774,126.9631748
어린이집,구립아람어린이집,서울특별시 동작구 상도로30길 40 두산위브트레지움아파트 203동 204호,37.5042467,126.9432057
어린이집,행복나무어린이집,"서울특별시 구로구 새말로9길 40 (1층, 구로동)",37.50430213,126.8864423
어린이집,금빛어린이집,"서울특별시 영등포구 도림로 313 가동 104호(신길동, 건영아파트)",37.50432018,126.900972
어린이집,예쁜어린이집,서울특별시 강남구 삼성로76길 5-6,37.50438864,127.0586058
어린이집,고척재미난방과후교실어린이집,서울특별시 구로구 중앙로 79 (고척동),37.50440168,126.8606935
어린이집,꿀벌어린이집,서울특별시 송파구 백제고분로21길 6 (삼전동),37.50441158,127.0899326
어린이집,비룡방과후,서울특별시 구로구 고척로33길 35 (고척동),37.504439,126.8501317
